{"type":"FeatureCollection","features":[{"type":"Feature","properties":{"Name":"Chanyu Protectorate","years":"650 - 907"},"geometry":{"type":"Point","coordinates":[111.59912109375,40.83043687764923]}},{"type":"Feature","properties":{"Name":"Anbei Protectorate","years":"669 - 784"},"geometry":{"type":"Point","coordinates":[103.22753906249999,46.30140615437332]}},{"type":"Feature","properties":{"Name":"Anxi Protectorate","years":"640 - 790"},"geometry":{"type":"Point","coordinates":[89.23095703125,42.8115217450979]}},{"type":"Feature","properties":{"Name":"Beiting Protectorate","years":"702 - 790"},"geometry":{"type":"Point","coordinates":[87.286376953125,44.1151978766043]}},{"type":"Feature","properties":{"Name":"Andong Protectorate","years":"668 - 755"},"geometry":{"type":"Point","coordinates":[125.562744140625,38.94232097947902]}},{"type":"Feature","properties":{"Name":"Annan Protectorate","years":"679 - 863"},"geometry":{"type":"Point","coordinates":[105.9521484375,21.002471054356725]}}]}