	city_cn	province_cn	city	province	lat	lon	cure	death	case	remain
1	长沙	湖南	Changsha	Hunan	28.322759	113.224946	186	2	242	54
2	岳阳	湖南	Yueyang	Hunan	29.178499	113.237527	126	1	156	29
3	怀化	湖南	Huaihua	Hunan	27.612024	109.945539	40	0	40	0
4	娄底	湖南	Loudi	Hunan	27.766945	112.004619	66	0	76	10
5	永州	湖南	Yongzhou	Hunan	26.560382	111.621586	43	0	44	1
6	益阳	湖南	Yiyang	Hunan	28.588088	112.366547	59	0	60	1
7	衡阳	湖南	Hengyang	Hunan	27.109626	112.351579	48	0	48	0
8	常德	湖南	Changde	Hunan	28.995243	111.747796	74	0	82	8
9	湘潭	湖南	Xiangtan	Hunan	27.669223	112.788805	35	0	36	1
10	邵阳	湖南	Shaoyang	Hunan	26.984977	111.332372	100	1	102	1
11	株洲	湖南	Zhuzhou	Hunan	27.535936	113.153348	69	0	80	11
12	郴州	湖南	Chenzhou	Hunan	25.773515	113.051002	35	0	39	4
13	湘西自治州	湖南	Xiangxi	Hunan	28.26	109.69	8	0	8	0
14	张家界	湖南	Zhangjiajie	Hunan	29.13	110.48	5	0	5	0
15	武汉	湖北	Wuhan	Hubei	30.581084	114.3162	23031	2251	49426	24144
16	黄冈	湖北	Huanggang	Hubei	30.518802	114.949569	2343	119	2907	445
17	孝感	湖北	Xiaogan	Hubei	30.944617	114.016142	2560	120	3518	838
18	咸宁	湖北	Xianning	Hubei	29.85465	114.391867	749	12	836	75
19	荆门	湖北	Jingmen	Hubei	30.932878	112.193923	650	39	928	239
20	随州	湖北	Suizhou	Hubei	31.890024	113.294246	893	42	1307	372
21	荆州	湖北	Jingzhou	Hubei	30.396103	112.099857	1144	48	1580	388
22	黄石	湖北	Huangshi	Hubei	30.218698	114.903009	752	35	1014	227
23	宜昌	湖北	Yichang	Hubei	30.979971	111.310649	583	32	931	316
24	十堰	湖北	Shiyan	Hubei	32.66384	110.717401	491	7	672	174
25	恩施	湖北	Enshi	Hubei	32	109.5	198	4	252	50
26	仙桃	湖北	Xiantao	Hubei	30.293966	113.387448	467	20	575	88
27	天门	湖北	Tianmen	Hubei	30.649047	113.12623	414	14	496	68
28	襄阳	湖北	Xiangyang	Hubei	32.229169	112.250093	913	34	1175	228
29	鄂州	湖北	Ezhou	Hubei	30.320603	114.901016	840	48	1391	503
30	神农架	湖北	Shennongjia	Hubei	31.74	110.684	11	0	11	0
31	潜江	湖北	Qianjiang	Hubei	30.4	112.89	128	9	198	61
32	信阳	河南	Xinyang	Henan	32.30784	114.139086	267	2	274	5
33	郑州	河南	Zhengzhou	Henan	34.759791	113.62	146	5	157	6
34	南阳	河南	Nanyang	Henan	33.009839	112.484267	149	3	156	4
35	驻马店	河南	Zhumadian	Henan	32.968357	114.00829	139	0	139	0
36	周口	河南	Zhoukou	Henan	33.630876	114.65795	69	1	76	6
37	新乡	河南	Xinxiang	Henan	35.3	113.92	53	3	57	1
38	安阳	河南	Anyang	Henan	36.056025	114.256604	50	0	53	3
39	漯河	河南	Luohe	Henan	33.534755	113.923601	34	0	35	1
40	三门峡	河南	Sanmenxia	Henan	34.771778	111.281295	6	1	7	0
41	巩义	河南	Gongyi	Henan	34.703799	113.03959	NA	NA	NA	NA
42	平顶山	河南	Pingdingshan	Henan	33.712341	113.278189	57	1	58	0
43	洛阳	河南	Luoyang	Henan	34.638792	112.467093	30	1	31	0
44	商丘	河南	Shangqiu	Henan	34.42	115.65	88	3	91	0
45	开封	河南	Kaifeng	Henan	34.798	114.346	18	0	26	8
46	鹤壁	河南	Hebi	Henan	35.74	114.295	18	0	19	1
47	许昌	河南	Xuchang	Henan	34	113.8	38	1	39	0
48	焦作	河南	Jiaozuo	Henan	35.2	113.257	31	1	32	0
49	固始	河南	Gushi	Henan	32.136944	115.709743	NA	NA	NA	NA
50	濮阳	河南	Puyang	Henan	35.76	115.02	16	0	17	1
51	滑县	河南	Huaxian	Henan	35.57	114.52	NA	NA	NA	NA
52	长垣	河南	Changyuan	Henan	35.21	114.66	NA	NA	NA	NA
53	永城	河南	Yongcheng	Henan	33.94	116.367	NA	NA	NA	NA
54	济源	河南	Jiyuan	Henan	35.1	112.58	4	0	5	1
55	深圳	广东	Shenzhen	Guangdong	22.606981	114.278483	332	3	418	83
56	广州	广东	Guangzhou	Guangdong	23.446661	113.220176	272	1	346	73
57	珠海	广东	Zhuhai	Guangdong	22.047215	113.41759	81	1	98	16
58	佛山	广东	Foshan	Guangdong	22.824523	112.683258	59	0	84	25
59	惠州	广东	Huizhou	Guangdong	23.163063	114.485898	60	0	62	2
60	阳江	广东	Yangjiang	Guangdong	21.762804	111.930036	11	0	14	3
61	韶关	广东	Shaoguan	Guangdong	24.919162	113.57745	9	0	10	1
62	湛江	广东	Zhanjiang	Guangdong	21.0941	110.338022	19	0	22	3
63	中山	广东	Zhongshan	Guangdong	22.545178	113.42206	59	0	66	7
64	肇庆	广东	Zhaoqing	Guangdong	23.208968	112.625249	15	1	19	3
65	清远	广东	Qingyuan	Guangdong	23.625856	113.114585	12	0	12	0
66	东莞	广东	Dongguan	Guangdong	23.043024	113.763434	74	1	99	24
67	汕头	广东	Shantou	Guangdong	23.532997	116.814808	22	0	25	3
68	汕尾	广东	Shanwei	Guangdong	22.8	115.38	5	0	5	0
69	梅州	广东	Meizhou	Guangdong	24.3	116.119	12	0	16	4
70	揭阳	广东	Jieyang	Guangdong	23.53	116.34	8	0	8	0
71	河源	广东	Heyuan	Guangdong	23.74	114.69	4	0	4	0
72	茂名	广东	Maoming	Guangdong	21.665	110.92	10	0	14	4
73	江门	广东	Jiangmen	Guangdong	22.57	113.079	13	0	23	10
74	潮州	广东	Chaozhou	Guangdong	23.656	116.62	5	0	5	0
75	台州	浙江	Taizhou	Zhejiang	28.548659	121.450242	112	0	146	34
76	杭州	浙江	Hangzhou	Zhejiang	30.38812	119.998089	158	0	169	11
77	温州	浙江	Wenzhou	Zhejiang	27.972177	120.558404	456	1	504	47
78	宁波	浙江	Ningbo	Zhejiang	29.785459	121.537835	151	0	157	6
79	嘉兴	浙江	Jiaxing	Zhejiang	30.777679	120.691907	41	0	45	4
80	绍兴	浙江	Shaoxing	Zhejiang	29.968789	120.572451	38	0	42	4
81	舟山	浙江	Zhoushan	Zhejiang	29.871101	122.278765	10	0	10	0
82	金华	浙江	Jinhua	Zhejiang	29.155526	119.809227	54	0	55	1
83	衢州	浙江	Quzhou	Zhejiang	28.941983	118.939044	12	0	14	2
84	丽水	浙江	Lishui	Zhejiang	28.48	119.921	17	0	25	8
85	湖州	浙江	Huzhou	Zhejiang	30.89	120.1	10	0	10	0
86	万州	重庆	Wanzhou	Chongqing	30.710054	108.413439	98	4	118	16
87	长寿	重庆	Changshou	Chongqing	29.960491	107.146615	15	0	22	7
88	开州	重庆	Kaizhou	Chongqing	31.2	108.4	19	1	21	1
89	永川	重庆	Yongchuan	Chongqing	29.296488	105.880358	5	0	5	0
90	忠县	重庆	Zhongxian	Chongqing	30.342003	107.921738	18	0	21	3
91	巫山	重庆	Wushan	Chongqing	31.121152	109.908611	9	0	10	1
92	石柱	重庆	Shizhu	Chongqing	29.9	108	13	0	15	2
93	重庆市区	重庆	Chongqing	Chongqing	29.59	106.54	462	6	720	252
94	渝北	重庆	Yubei	Chongqing	29.816264	106.753799	16	0	17	1
95	垫江	重庆	Dianjiang	Chongqing	30.259498	107.444445	15	0	20	5
96	云阳	重庆	Yunyang	Chongqing	31.042409	108.863186	23	0	25	2
97	巫溪	重庆	Wuxi	Chongqing	31.509161	109.360531	13	0	14	1
98	合川	重庆	Hechuan	Chongqing	30.118708	106.318029	20	0	23	3
99	璧山	重庆	Bishan	Chongqing	29.5	106.17	9	0	9	0
100	涪陵	重庆	Fuling	Chongqing	29.664671	107.3408	3	0	5	2
101	奉节	重庆	Fengjie	Chongqing	30.958553	109.355667	18	0	22	4
102	秀山	重庆	Xiushan	Chongqing	28.38	109.06	1	0	1	0
103	梁平	重庆	Liangping	Chongqing	30.65	107.8	4	0	4	0
104	城口	重庆	Chengkou	Chongqing	31.888131	108.741855	2	0	2	0
105	大足	重庆	Dazu	Chongqing	29.714	105.72	10	0	14	4
106	丰都	重庆	Fengdu	Chongqing	29.890596	107.837517	7	0	10	3
107	黔江	重庆	Qianjiang	Chongqing	29.53	108.76	2	0	2	0
108	万盛	重庆	Wansheng	Chongqing	28.962248	106.924888	1	0	1	0
109	潼南	重庆	Tongnan	Chongqing	30.19	105.84	11	0	18	7
110	铜梁	重庆	Tongliang	Chongqing	29.85	106.05	7	0	10	3
111	綦江	重庆	Qijiang	Chongqing	29.03	106.64	15	0	23	8
112	江津	重庆	Jiangjin	Chongqing	29.28	106.26	4	0	4	0
113	巴南	重庆	Banan	Chongqing	29.37	106.52	4	0	6	2
114	武隆	重庆	Wulong	Chongqing	29.33	107.75	1	0	1	0
115	酉阳	重庆	Youyang	Chongqing	28.844414	108.763426	1	0	1	0
116	荣昌	重庆	Rongchang	Chongqing	29.422	105.61	7	0	9	2
117	彭水	重庆	Pengshui	Chongqing	29.293585	108.165373	1	0	2	1
118	北京市区	北京	Beijing	Beijing	39.92	116.46	42	0	1646	1604
119	昌平	北京	Changping	Beijing	40.221724	116.216456	0	0	29	29
120	通州	北京	Tongzhou	Beijing	32.081032	121.028859	1	0	19	18
121	大兴	北京	Daxing	Beijing	39.73	116.33	2	0	39	37
122	顺义	北京	Shunyi	Beijing	40.154951	116.728229	0	0	10	10
123	门头沟	北京	Mentougou	Beijing	39.94	116.1	2	0	3	1
124	房山	北京	Fangshan	Beijing	39.744	116.134254	3	0	16	13
125	延庆	北京	Yanqing	Beijing	40.4565	115.971	0	0	1	1
126	密云	北京	Miyun	Beijing	40.375043	116.83548	0	0	7	7
127	怀柔	北京	Huairou	Beijing	40.315	116.626	0	0	7	7
128	上海	上海	Shanghai	Shanghai	31.2	121.560642	294	3	338	41
129	临沂	山东	Linyi	Shandong	35.127031	118.517311	47	0	49	2
130	青岛	山东	Tsingtao	Shandong	36.284247	120.346326	58	1	60	1
131	威海	山东	Weihai	Shandong	37.399344	122.152075	34	0	38	4
132	日照	山东	Rizhao	Shandong	35.469377	119.377852	15	0	16	1
133	济宁	山东	Jining	Shandong	35.380135	116.572199	81	0	260	179
134	济南	山东	Jinan	Shandong	36.42857	116.803552	32	0	47	15
135	德州	山东	Dezhou	Shandong	37.457437	116.332912	18	2	37	17
136	潍坊	山东	Weifang	Shandong	36.691227	119.196972	31	0	44	13
137	烟台	山东	Yantai	Shandong	37.407476	121.451535	35	0	47	12
138	聊城	山东	Liaocheng	Shandong	36.45583	115.907706	38	0	38	0
139	滨州	山东	Binzhou	Shandong	37.424891	117.981211	14	0	15	1
140	菏泽	山东	Heze	Shandong	35.26244	115.46336	18	0	18	0
141	淄博	山东	Zibo	Shandong	36.771219	117.875108	21	1	30	8
142	枣庄	山东	Zaozhuang	Shandong	34.82	117.31	23	0	24	1
143	泰安	山东	Tai An	Shandong	36.189	117.1	33	2	35	0
144	合肥	安徽	Hefei	Anhui	31.790724	117.353913	153	1	174	20
145	阜阳	安徽	Fuyang	Anhui	33.07351	115.734026	145	0	155	10
146	亳州	安徽	Bozhou	Anhui	33.782924	115.812814	107	0	108	1
147	安庆	安徽	Anqing	Anhui	31.859252	117.216005	82	0	83	1
148	马鞍山	安徽	Maanshan	Anhui	31.659719	118.554558	34	0	38	4
149	铜陵	安徽	Tongling	Anhui	30.952359	117.918516	29	0	29	0
150	六安	安徽	Lu An	Anhui	31.753039	116.302573	63	0	69	6
151	滁州	安徽	Chuzhou	Anhui	32.310209	118.270828	11	0	13	2
152	池州	安徽	Chizhou	Anhui	30.514086	117.508478	16	0	17	1
153	蚌埠	安徽	Bengbu	Anhui	33.023815	117.388184	148	5	160	7
154	芜湖	安徽	Wuhu	Anhui	31.191699	118.532462	33	0	34	1
155	黄山	安徽	Huangshan	Anhui	29.7	118.314	8	0	9	1
156	淮北	安徽	Huaibei	Anhui	33.94	116.9	24	0	27	3
157	淮南	安徽	Huainan	Anhui	32.58	117	23	0	27	4
158	宿州	安徽	Suzhou	Anhui	33.639	116.96	37	0	41	4
159	宿松	安徽	Susong	Anhui	30.16	116.131	NA	NA	NA	NA
160	宣城	安徽	Xuancheng	Anhui	30.92	118.8	4	0	6	2
161	赣州	江西	Ganzhou	Jiangxi	25.838711	114.937365	73	1	76	2
162	抚州	江西	Fuzhou	Jiangxi	27.924732	116.362974	70	0	72	2
163	上饶	江西	Shangrao	Jiangxi	28.40568	117.944367	120	0	123	3
164	宜春	江西	Yichun	Jiangxi	27.839383	114.290358	105	0	106	1
165	南昌	江西	Nanchang	Jiangxi	28.620772	116.071261	216	0	230	14
166	萍乡	江西	Pingxiang	Jiangxi	27.53371	113.739818	25	0	33	8
167	九江	江西	Jiujiang	Jiangxi	29.64023	115.842035	98	0	118	20
168	吉安	江西	Ji An	Jiangxi	27.160925	114.960437	20	0	22	2
169	新余	江西	Xinyu	Jiangxi	27.850578	115.007851	122	0	130	8
170	景德镇	江西	Jingdezhen	Jiangxi	29.303231	117.234119	5	0	6	1
171	鹰潭	江西	Yingtan	Jiangxi	28.261751	117.023752	15	0	18	3
172	赣江新区	江西	Gan River New District	Jiangxi	28.815514	115.946982	1	0	1	0
173	桂林	广西	Guilin	Guangxi	25.112806	110.371485	28	0	32	4
174	北海	广西	Beihai	Guangxi	21.574915	109.422489	37	1	44	6
175	柳州	广西	Liuzhou	Guangxi	24.471743	109.413915	17	0	24	7
176	河池	广西	Hechi	Guangxi	24.660762	107.873444	13	1	28	14
177	梧州	广西	Wuzhou	Guangxi	23.5602	111.189914	5	0	5	0
178	百色	广西	Baise	Guangxi	23.941866	106.505596	3	0	3	0
179	防城港	广西	Fangchenggang	Guangxi	21.662036	108.449166	10	0	19	9
180	南宁	广西	Nanning	Guangxi	22.894927	108.573583	54	0	55	1
181	玉林	广西	Yulin	Guangxi	22.557213	110.064534	11	0	11	0
182	贺州	广西	Hezhou	Guangxi	24.415	111.54	4	0	4	0
183	钦州	广西	Qinzhou	Guangxi	21.97	108.617	8	0	8	0
184	贵港	广西	Guigang	Guangxi	23.1	109.59	8	0	8	0
185	来宾	广西	Laibin	Guangxi	23.746383	109.218231	4	0	11	7
186	三亚	海南	Sanya	Hainan	18.397248	109.429348	50	1	54	3
187	万宁	海南	Wanning	Hainan	18.839886	110.292505	12	0	13	1
188	海口	海南	Haikou	Hainan	19.942909	110.507269	35	0	39	4
189	儋州	海南	Danzhou	Hainan	19.571153	109.413973	12	1	15	2
190	临高	海南	Lingao	Hainan	19.805922	109.724102	6	0	6	0
191	陵水	海南	Lingshui	Hainan	18.506	110.0375	4	0	4	0
192	澄迈	海南	Chengmai	Hainan	19.7	110	7	1	9	1
193	琼中	海南	Qiongzhong	Hainan	19.04	109.82	1	0	1	0
194	东方	海南	Dongfang	Hainan	19.09	108.66	2	0	3	1
195	琼海	海南	Qionghai	Hainan	19.256	110.468	5	1	6	0
196	定安	海南	Ding An	Hainan	19.68	110.36	2	1	3	0
197	昌江	海南	Changjiang	Hainan	19.298	109.04	7	0	7	0
198	乐东	海南	Ledong	Hainan	18.75	109.168	2	0	2	0
199	文昌	海南	Wenchang	Hainan	19.539	110.787	3	0	3	0
200	保亭	海南	Baoting	Hainan	18.64104	109.694892	3	0	3	0
201	福州	福建	Fuzhou	Fujian	26.221752	119.314923	70	1	72	1
202	厦门	福建	Xiamen	Fujian	24.675485	118.280803	34	0	35	1
203	泉州	福建	Quanzhou	Fujian	25.173479	118.819017	40	0	47	7
204	漳州	福建	Zhangzhou	Fujian	24.575089	117.633366	16	0	20	4
205	宁德	福建	Ningde	Fujian	26.763865	119.454559	23	0	26	3
206	三明	福建	Sanming	Fujian	26.173967	117.516896	12	0	14	2
207	莆田	福建	Putian	Fujian	25.41	119	39	0	56	17
208	南平	福建	Nanping	Fujian	26.63	118.18	15	0	20	5
209	龙岩	福建	Longyan	Fujian	25.1	117	6	0	6	0
210	常州	江苏	Changzhou	Jiangsu	31.672903	119.943432	50	0	51	1
211	南京	江苏	Nanjing	Jiangsu	32.40064	118.848166	68	0	93	25
212	苏州	江苏	Suzhou	Jiangsu	31.332306	120.630878	67	0	87	20
213	连云港	江苏	Lianyungang	Jiangsu	34.51416	119.162196	41	0	48	7
214	无锡	江苏	Wuxi	Jiangsu	31.466579	120.248502	50	0	55	5
215	南通	江苏	Nantong	Jiangsu	32.071256	120.823875	40	0	40	0
216	扬州	江苏	Yangzhou	Jiangsu	32.408505	119.427778	23	0	23	0
217	盐城	江苏	Yancheng	Jiangsu	33.265898	119.968501	27	0	27	0
218	宿迁	江苏	Suqian	Jiangsu	34.00953	118.343693	13	0	13	0
219	镇江	江苏	Zhenjiang	Jiangsu	32.198	119.46	11	0	12	1
220	淮安	江苏	Huai An	Jiangsu	33.589	119.03	58	0	66	8
221	泰州	江苏	Taizhou	Jiangsu	32.45	119.91	37	0	37	0
222	徐州	江苏	Xuzhou	Jiangsu	34.27	117.186999	71	0	79	8
223	沈阳	辽宁	Shenyang	Liaoning	41.843551	123.242847	25	0	28	3
224	大连	辽宁	Dalian	Liaoning	38.92	121.62	15	0	19	4
225	朝阳	辽宁	Chaoyang	Liaoning	41.55	120.4	4	0	6	2
226	铁岭	辽宁	Tieling	Liaoning	42.222765	123.914529	6	0	7	1
227	葫芦岛	辽宁	Huludao	Liaoning	40.75	120.84	7	1	12	4
228	本溪	辽宁	Benxi	Liaoning	41.19567	124.158564	3	0	3	0
229	盘锦	辽宁	Panjin	Liaoning	41.112	122.06	11	0	11	0
230	营口	辽宁	Yingkou	Liaoning	40.55	122.248	1	0	1	0
231	丹东	辽宁	Dandong	Liaoning	40.008	124.3545	7	0	11	4
232	辽阳	辽宁	Liaoyang	Liaoning	41.26	123.164	3	0	3	0
233	鞍山	辽宁	Anshan	Liaoning	41.1	122.99	2	0	4	2
234	锦州	辽宁	Jinzhou	Liaoning	41.0959	121.11	11	0	12	1
235	阜新	辽宁	Fuxin	Liaoning	42.015173	121.645287	8	0	8	0
236	西安	陕西	Xi An	Shaanxi	34.066899	108.874256	104	1	120	15
237	咸阳	陕西	Xianyang	Shaanxi	34.423853	108.817312	16	0	17	1
238	安康	陕西	Ankang	Shaanxi	32.814464	108.896243	25	0	26	1
239	铜川	陕西	Tongchuan	Shaanxi	35.032	108.8355	7	0	8	1
240	延安	陕西	Yan An	Shaanxi	36.575992	109.648602	8	0	8	0
241	商洛	陕西	Shangluo	Shaanxi	33.895485	109.873271	6	0	7	1
242	渭南	陕西	Weinan	Shaanxi	34.5	109.451	10	0	15	5
243	汉中	陕西	Hanzhong	Shaanxi	33.1	107	22	0	26	4
244	宝鸡	陕西	Baoji	Shaanxi	34.39	107.23	12	0	13	1
245	韩城	陕西	Hancheng	Shaanxi	35.474	110.447	1	0	1	0
246	榆林	陕西	Yulin	Shaanxi	38.23	109.75	3	0	3	0
247	杨凌	陕西	Yangling	Shaanxi	34.272	108.082123	1	0	1	0
248	昆明	云南	Kunming	Yunnan	26.139329	103.078562	52	0	53	1
249	丽江	云南	Lijiang	Yunnan	26.8593	100.328596	7	0	7	0
250	西双版纳	云南	Xishuangbanna	Yunnan	22.009433	100.803038	14	1	15	0
251	曲靖	云南	Qujing	Yunnan	25.360057	103.913326	12	0	13	1
252	玉溪	云南	Yuxi	Yunnan	24.369854	102.499895	13	1	14	0
253	红河	云南	Honghe	Yunnan	23.250955	102.243348	9	0	9	0
254	大理	云南	Dali	Yunnan	25.693967	100.219209	13	0	13	0
255	保山	云南	Baoshan	Yunnan	25.16	99.176	9	0	9	0
256	德宏	云南	Dehong	Yunnan	24.43	98.596	4	0	5	1
257	昭通	云南	Zhaotong	Yunnan	27.32	103.72	25	0	25	0
258	普洱	云南	Pu Er	Yunnan	22.7	100.96	4	0	4	0
259	临沧	云南	Lincang	Yunnan	23.87	100.1	1	0	1	0
260	文山	云南	Wenshan	Yunnan	23.394	104.226	2	0	2	0
261	楚雄	云南	Chuxiong	Yunnan	25.025884	101.548734	4	0	4	0
262	天津	天津	Tianjin	Tianjin	39.13	117.2	118	3	136	15
263	哈尔滨	黑龙江	Harbin	Heilongjiang	45.995674	126.61077	140	4	198	54
264	牡丹江	黑龙江	Mudanjiang	Heilongjiang	44.491714	129.584924	9	0	14	5
265	大庆	黑龙江	Daqing	Heilongjiang	46.070051	124.699077	19	1	26	6
266	绥化	黑龙江	Suihua	Heilongjiang	46.747537	126.957863	35	4	47	8
267	齐齐哈尔	黑龙江	Qiqihar	Heilongjiang	47.28	123.94	35	1	43	7
268	佳木斯	黑龙江	Jiamusi	Heilongjiang	46.8	130.37	15	0	15	0
269	双鸭山	黑龙江	Shuangyashan	Heilongjiang	46.642	131.152	39	3	52	10
270	七台河	黑龙江	Qitaihe	Heilongjiang	45.6	131	13	0	17	4
271	鸡西	黑龙江	Jixi	Heilongjiang	45.3	130.96	35	0	46	11
272	鹤岗	黑龙江	Hegang	Heilongjiang	47.335	130.294	4	0	5	1
273	大兴安岭	黑龙江	Greater Hinggan	Heilongjiang	50.41	124.122	2	0	2	0
274	黑河	黑龙江	Heihe	Heilongjiang	50.235	127.51	11	0	14	3
275	晋中	山西	Jinzhong	Shanxi	37.650825	112.843737	29	0	37	8
276	太原	山西	Taiyuan	Shanxi	37.748675	112.481587	20	0	20	0
277	运城	山西	Yuncheng	Shanxi	35.063677	110.961931	18	0	19	1
278	阳泉	山西	Yangquan	Shanxi	37.911504	113.568086	4	0	4	0
279	大同	山西	Datong	Shanxi	40	113.3	9	0	12	3
280	长治	山西	Changzhi	Shanxi	36.02468	113.086194	8	0	8	0
281	临汾	山西	Linfen	Shanxi	36.1	111.52	2	0	2	0
282	朔州	山西	Shuozhou	Shanxi	39.35	112.43	8	0	8	0
283	吕梁	山西	Lyuliang	Shanxi	37.5	111.1	6	0	6	0
284	忻州	山西	Xinzhou	Shanxi	38.4	112.732	6	0	7	1
285	晋城	山西	Jincheng	Shanxi	35.498	112.857	9	0	10	1
286	石家庄	河北	Shijiazhuang	Hebei	38.014621	114.586383	28	0	29	1
287	沧州	河北	Cangzhou	Hebei	38.314446	116.844854	45	3	48	0
288	保定	河北	Baoding	Hebei	38.821877	115.484784	32	0	32	0
289	承德	河北	Chengde	Hebei	40.973242	118.125718	7	0	7	0
290	廊坊	河北	Langfang	Hebei	39.47	116.7	30	0	30	0
291	邢台	河北	Xingtai	Hebei	37.04	114.57	22	1	23	0
292	衡水	河北	Hengshui	Hebei	37.73	115.699	8	0	8	0
293	唐山	河北	Tangshan	Hebei	39.59	118.2	50	1	58	7
294	邯郸	河北	Handan	Hebei	36.574	114.48	31	0	32	1
295	张家口	河北	Zhangjiakou	Hebei	40.81	114.89	35	0	41	6
296	秦皇岛	河北	Qinhuangdao	Hebei	39.95	119.59	9	1	10	0
297	锡林郭勒盟	内蒙古	Xilingol - Xilinhot	Inner Mongolia	43.468238	114.415868	3	0	9	6
298	二连浩特	内蒙古	Erenhot	Inner Mongolia	43.63	112	NA	NA	NA	NA
299	鄂尔多斯	内蒙古	Ordos	Inner Mongolia	39.805586	109.764419	10	0	11	1
300	满洲里	内蒙古	Manzhouli	Inner Mongolia	49.500032	117.603687	NA	NA	NA	NA
301	赤峰	内蒙古	Chifeng	Inner Mongolia	42.268753	118.757106	8	0	9	1
302	呼伦贝尔	内蒙古	Hulun Buir	Inner Mongolia	49.22	119.76	5	0	7	2
303	牙克石	内蒙古	Yakeshi	Inner Mongolia	49.329996	121.512668	NA	NA	NA	NA
304	兴安盟	内蒙古	Ulahot	Inner Mongolia	46.05	122.1	1	0	1	0
305	乌兰察布	内蒙古	Ulanqab	Inner Mongolia	40.99	113.13	2	0	3	1
306	包头	内蒙古	Baotou	Inner Mongolia	40.65	109.8	8	0	11	3
307	巴彦淖尔	内蒙古	Bayannur	Inner Mongolia	40.75	107.38	7	1	8	0
308	通辽	内蒙古	Tongliao	Inner Mongolia	43.626	122.25	4	0	7	3
309	呼和浩特	内蒙古	Huhhot	Inner Mongolia	40.83	111.69	4	0	7	3
310	乌海	内蒙古	Wuhai	Inner Mongolia	39.639	106.779	2	0	2	0
311	香港	香港	Hong Kong	Hong Kong SAR	22.293586	114.186124	36	2	100	62
312	铜仁	贵州	Tongren	Guizhou	27.674903	109.168558	10	0	10	0
313	贵阳	贵州	Guiyang	Guizhou	26.496945	106.70098	28	1	36	7
314	黔南州	贵州	Qiannan	Guizhou	26.254	107.522	15	0	17	2
315	黔西南州	贵州	Qianxinan	Guizhou	25.1	104.9	4	0	4	0
316	六盘水	贵州	Liupanshui	Guizhou	26.55	104.85	8	1	10	1
317	黔东南州	贵州	Qiandongnan	Guizhou	26.56	108	10	0	10	0
318	遵义	贵州	Zunyi	Guizhou	27.7478	106.91	19	0	32	13
319	毕节	贵州	Bijie	Guizhou	27.31	105.29	16	0	23	7
320	安顺	贵州	Anshun	Guizhou	26.25	105.93	4	0	4	0
321	吉林市	吉林	Jilin	Jilin	43.87	126.57	5	0	5	0
322	长春	吉林	Changchun	Jilin	43.531747	125.712822	40	0	45	5
323	松原	吉林	Songyuan	Jilin	45.29271	124.867571	2	0	2	0
324	四平	吉林	Siping	Jilin	43.178	124.37	14	1	15	0
325	公主岭	吉林	Gongzhuling	Jilin	43.49	124.8	6	0	6	0
326	通化	吉林	Tonghua	Jilin	41.74	125.92	3	0	6	3
327	延边	吉林	Yanbian	Jilin	42.89	129.51	5	0	5	0
328	辽源	吉林	Liaoyuan	Jilin	42.895188	125.148648	7	0	7	0
329	梅河口	吉林	Meihekou	Jilin	42.537275	125.691833	1	0	1	0
330	白城	吉林	Baicheng	Jilin	45.614037	122.84704	0	0	1	1
331	兰州	甘肃	Lanzhou	Gansu	36.0637	103.831	33	2	36	1
332	白银	甘肃	Baiyin	Gansu	36.69035	104.945609	4	0	4	0
333	临夏	甘肃	Linxia	Gansu	35.518719	103.050791	3	0	3	0
334	定西	甘肃	Dingxi	Gansu	35.58	104.62	8	0	9	1
335	张掖	甘肃	Zhangye	Gansu	38.93	100.46	2	0	2	0
336	陇南	甘肃	Longnan	Gansu	33.39	104.91	4	0	4	0
337	金昌	甘肃	Jinchang	Gansu	38.52	102.18	1	0	1	0
338	天水	甘肃	Tianshui	Gansu	34.58	105.73	12	0	12	0
339	平凉	甘肃	Pingliang	Gansu	35.53	106.67	8	0	9	1
340	甘南	甘肃	Gannan	Gansu	34.981	102.91	8	0	8	0
341	庆阳	甘肃	Qingyang	Gansu	35.7	107.65	2	0	3	1
342	银川	宁夏	Yinchuan	Ningxia	38.478591	106.24265	32	0	35	3
343	中卫	宁夏	Zhongwei	Ningxia	37.360639	105.111278	3	0	4	1
344	固原	宁夏	Guyuan	Ningxia	36.206829	106.254011	5	0	5	0
345	吴忠	宁夏	Wuzhong	Ningxia	37.97	106.2	27	0	28	1
346	宁东	宁夏	Ningdong Energy Chemical Industry Base Admin Committee	Ningxia	38.4	106.31	1	0	1	0
347	石嘴山	宁夏	Shizuishan	Ningxia	38.991988	106.37	1	0	1	0
348	地区	台湾	__	Taiwan (ROC)	23.5	121	12	1	41	28
349	乌鲁木齐	新疆	Urumqi	Xinjiang	43.419108	87.360244	21	0	23	2
350	伊犁	新疆	Ili	Xinjiang	43.9	81.32	18	0	18	0
351	吐鲁番	新疆	Turpan	Xinjiang	42.95	89.15	1	0	3	2
352	第八师石河子	新疆	Shihezi (The 8th Division)	Xinjiang	44.26	86.05	3	1	4	0
353	阿克苏	新疆	Aksu	Xinjiang	41.133	80.192	1	0	1	0
354	第九师额敏县	新疆	Emin (The 9th Division)	Xinjiang	46.521076	83.620741	2	1	4	1
355	第四师科克达拉	新疆	Cocodala (The 4th Division)	Xinjiang	43.9448	81.044	9	1	10	0
356	昌吉	新疆	Changji	Xinjiang	44	87.275	3	0	4	1
357	第六师五家渠	新疆	Wujiaqu (The 6th Division)	Xinjiang	44.159797	87.538838	2	0	2	0
358	第七师胡杨河	新疆	Huyanghe (The 7th Division)	Xinjiang	44.710398	84.8254	1	0	1	0
359	巴音郭楞	新疆	Bayingolin	Xinjiang	41.771312	86.161609	3	0	3	0
360	第十二师	新疆	The 12th Division	Xinjiang	43.6	87	3	0	3	0
361	澳门	澳门	Macau	Macau SAR	22.204118	113.557519	8	0	10	2
362	西宁	青海	Xining	Qinghai	36.686368	101.712664	15	0	15	0
363	海北州	青海	Haibei	Qinghai	36.899	100.997	3	0	3	0
364	成都	四川	Chengdu	Sichuan	30.67	104.06	92	3	143	48
365	绵阳	四川	Mianyang	Sichuan	31.46	104.73	16	0	22	6
366	广安	四川	Guang An	Sichuan	30.3	106	25	0	30	5
367	遂宁	四川	Suining	Sichuan	30.501934	105.569333	15	0	17	2
368	泸州	四川	Luzhou	Sichuan	27.88	106.27	20	0	24	4
369	南充	四川	Nanchong	Sichuan	30.84	106.12	29	0	39	10
370	甘孜	四川	Ganzi	Sichuan	31.62	99.99	47	0	78	31
371	德阳	四川	Deyang	Sichuan	31.33	104.23	11	0	18	7
372	雅安	四川	Ya An	Sichuan	30	103	6	0	7	1
373	达州	四川	Dazhou	Sichuan	31.2	107.5	28	0	42	14
374	自贡	四川	Zigong	Sichuan	29.34	104.78	9	0	9	0
375	内江	四川	Neijiang	Sichuan	29.6	105	18	0	22	4
376	乐山	四川	Leshan	Sichuan	29.2	103.63	3	0	3	0
377	眉山	四川	Meishan	Sichuan	29.9	103.5	7	0	8	1
378	宜宾	四川	Yibin	Sichuan	28.76	104.63	10	0	12	2
379	凉山	四川	Liangshan	Sichuan	27.88	102.28	12	0	13	1
380	资阳	四川	Ziyang	Sichuan	30.1	104.67	2	0	4	2
381	广元	四川	Guangyuan	Sichuan	30.46	106.64	6	0	6	0
382	阿坝	四川	Aba	Sichuan	32.9	101.71	1	0	1	0
383	巴中	四川	Bazhong	Sichuan	31.86	106.75	16	0	24	8
384	攀枝花	四川	Panzhihua	Sichuan	26.578	101.721	16	0	16	0
385	拉萨	西藏	Lhasa	Tibet	29.65	91.577	1	0	1	0
386	法国	法国	France	France	46.83	2.48	12	2	130	116
387	德国	德国	Germany	Germany	51.3	10.2	14	0	130	116
388	斯里兰卡	斯里兰卡	Sri Lanka	Sri Lanka	7.6	80.4	1	0	1	0
389	越南	越南	Vietnam	Vietnam	15.56	108.05	16	0	16	0
390	柬埔寨	柬埔寨	Combodia	Combodia	12.57	104.9	1	0	1	0
391	泰国	泰国	Thailand	Thailand	15.76	101.14	31	1	43	11
392	马来西亚	马来西亚	Malaysia	Malaysia	4.4	102.13	18	0	29	11
393	新加坡	新加坡	Singapore	Singapore	1.18	103.85	74	0	106	32
394	韩国	韩国	South Korea	South Korea	36.86	127.8	30	29	4812	4753
395	日本	日本	Japan	Japan	36.22	139	41	6	274	227
396	新南威尔士州	澳大利亚	New South Wales	Australia	-32.1	147.4	4	0	4	NA
397	维多利亚州	澳大利亚	Victoria	Australia	-37	144.5	4	0	4	NA
398	昆士兰州	澳大利亚	Queensland	Australia	-23.200961	146.260643	1	0	5	NA
399	南澳大利亚州	澳大利亚	South Australia	Australia	-29.864316	134.736328	2	0	2	NA
400	华盛顿州西雅图	美国	Seattle	USA	47.582142	-122.255859	1	1	15	NA
401	加利福尼亚州圣克拉拉	美国	Santa Clara	USA	37.370946	-121.967669	0	0	2	NA
402	加利福尼亚州圣本尼托	美国	San Benito	USA	36.509685	-121.08186	0	0	2	NA
403	加利福尼亚州洛杉矶	美国	Los Angeles	USA	33.906896	-118.270397	0	0	1	NA
404	亚利桑那州坦普	美国	Tempe	USA	33.427564	-111.946564	0	0	1	NA
405	内布拉斯加州奥马哈	美国	Omaha	USA	41.265679	-95.957123	0	0	14	NA
406	伊利诺伊州芝加哥	美国	Chicago	USA	41.748	-87.6489	2	0	2	NA
407	威斯康辛州麦迪逊	美国	Madison	USA	43.062382	-89.410129	0	0	1	NA
408	马萨诸塞州波士顿	美国	Boston	USA	42.358544	-71.107678	0	0	1	NA
409	得克萨斯州圣安东尼奥	美国	San Antonio	USA	29.408573	-98.489771	0	0	1	NA
410	加利福尼亚州奥兰治	美国	Orange	USA	33.64136	-117.76939	0	0	1	NA
411	加利福尼亚州圣迭戈	美国	San Diego	USA	32.743248	-117.13623	0	0	2	NA
412	安大略省多伦多	加拿大	Toronto	Canada	43.675818	-79.448919	0	0	2	NA
413	安大略省伦敦	加拿大	London	Canada	42.995074	-81.254883	0	0	17	NA
414	尼泊尔	尼泊尔	Nepal	Nepal	27.69	85.32	1	0	1	0
415	不列颠哥伦比亚省温哥华	加拿大	Vancouver	Canada	49.2371	-122.954693	0	0	6	NA
416	意大利	意大利	Italy	Italy	43	12.62	149	52	2036	1835
417	芬兰	芬兰	Finland	Finland	64.36	26.79	1	0	6	5
418	印度	印度	India	India	21.56	78.2	3	0	3	0
419	阿联酋	阿联酋	UAE	UAE	23.69	54.43	5	0	21	16
420	菲律宾	菲律宾	Philippines	Philippines	16.82048	121.421	1	1	3	1
421	俄罗斯	俄罗斯	Russia	Russia	62.267923	57.3898	2	0	2	0
422	英国	英国	UK	UK	53.9	-1.64	8	0	36	28
423	西班牙	西班牙	Spain	Spain	40.23	-3.7999	2	0	123	121
424	瑞典	瑞典	Sweden	Sweden	62.75	15.226	0	0	14	14
425	比利时	比利时	Belgium	Belgium	50.814	4.42	1	0	2	1
426	埃及	埃及	Egypt	Egypt	29.882813	26.794042	1	0	2	1
427	钻石公主号邮轮	钻石公主号邮轮	Diamond Princess	Diamond Princess	35.262441	143.085938	0	6	706	700
428	伊朗	伊朗	Iran	Iran	32.546813	54.207916	175	66	1501	1260
429	湖北监狱系统	湖北	Prison System	Hubei	30.7	112.5	NA	NA	NA	NA
430	省十里丰监狱	浙江	Shilifeng Prison	Zhejiang	29.008326	119.118233	15	0	36	21
431	加利福尼亚州萨克拉门托	美国	Sacramento	USA	38.579238	-121.486816	0	0	1	NA
432	得克萨斯州拉克兰	美国	Lackland	USA	29.395112	-98.591309	0	0	2	NA
433	加利福尼亚州特拉维斯空军基地	美国	Travis AFB	USA	38.258052	-121.942749	0	0	5	NA
434	加利福尼亚州洪堡	美国	Humboldt	USA	40.737644	-123.943877	0	0	1	NA
435	以色列	以色列	Israel	Israel	31.470473	34.936523	1	0	10	9
436	阿曼	阿曼	Oman	Oman	21.414719	56.601	1	0	6	5
437	黎巴嫩	黎巴嫩	Lebanon	Lebanon	33.765092	35.765305	0	0	10	10
438	伊拉克	伊拉克	Iraq	Iraq	32.694866	43.730392	0	0	19	19
439	科威特	科威特	Kuwait	Kuwait	29.142689	47.999153	0	0	56	56
440	巴林	巴林	Barin	Barin	26.091861	50.559082	0	0	47	47
441	阿富汗	阿富汗	Afghanistan	Afghanistan	34	66.5	0	0	1	1
442	北马其顿	北马其顿	North Marcedonia	North Marcedonia	41.52	21.6	0	0	1	1
443	阿尔及利亚	阿尔及利亚	Algeria	Algeria	29	3	0	0	1	1
444	尼日利亚	尼日利亚	Nigeria	Nigeria	10	7.5	0	0	1	1
445	立陶宛	立陶宛	Lietuva	Lietuva	55.038844	23.774414	0	0	1	1
446	冰岛	冰岛	Iceland	Iceland	64.65	-17.9	0	0	2	2
447	摩纳哥	摩纳哥	Monaco	Monaco	43.735996	7.425385	0	0	1	1
448	厄瓜多尔	厄瓜多尔	Ecuador	Ecuador	0	-77.8438	0	0	6	6
449	卢森堡	卢森堡	Luxembourg	Luxembourg	49.8074	6.106317	0	0	1	1
450	爱尔兰	爱尔兰	Ireland	Ireland	53.120405	-7.606702	0	0	1	1
451	圣马力诺	圣马力诺	San Marino	San Marino	43.94857	12.47	0	0	1	1
452	阿塞拜疆	阿塞拜疆	Azerbaijan	Azerbaijan	40.443746	47.801514	0	0	3	3
453	格鲁吉亚	格鲁吉亚	Georgia	Georgia	42.02832	43.471913	0	0	3	3
454	巴基斯坦	巴基斯坦	Pakistan	Pakistan	30.221102	70.279198	0	0	4	4
455	罗马尼亚	罗马尼亚	Romania	Romania	45.444717	25.035267	0	0	3	3
456	墨西哥	墨西哥	Mexico	Mexico	23.885838	-102.207184	0	0	5	5
457	爱沙尼亚	爱沙尼亚	Estonia	Estonia	58.64	25.603	0	0	1	1
458	巴西	巴西	Brazil	Brazil	-11.137982	-51.152344	0	0	2	2
459	克罗地亚	克罗地亚	Crotia	Crotia	45.460131	15.806751	0	0	7	7
460	新西兰	新西兰	New Zealand	New Zealand	-39.452631	175.78125	0	0	1	1
461	白俄罗斯	白俄罗斯	Belarus	Belarus	53.524085	27.913685	0	0	3	3
462	奥地利	奥地利	Austria	Austria	47.598061	14.315786	0	0	14	14
463	多米尼加	多米尼加	Dominica	Dominica	15.397687	-61.359954	0	0	1	1
464	安道尔	安道尔	Andorra	Andorra	42.533793	1.5271	0	0	1	1
465	捷克	捷克	Czech	Czech	49.474817	15.688477	0	0	3	3
466	丹麦	丹麦	Denmark	Denmark	56.428902	9.975586	0	0	4	4
467	希腊	希腊	Greece	Greece	38.91	22.631836	0	0	7	7
468	瑞士	瑞士	Switzerland	Switzerland	46.818	8.217773	0	0	27	27
469	亚美尼亚	亚美尼亚	Armenia	Armenia	40.38	44.530249	0	0	1	1
470	沙特阿拉伯	沙特阿拉伯	Saudi	Saudi	25	44.5	0	0	1	1
471	塞内加尔	塞内加尔	Senegal	Senegal	14.9971	-14.292526	0	0	1	1
472	魁北克省蒙特利尔	加拿大	Montreal	Canada	45.496782	-73.654919	0	0	1	1
473	华盛顿州斯诺霍米什	美国	Snohomish	USA	47.869323	-121.772461	0	0	1	1
474	俄勒冈州波特兰	美国	Portland	USA	45.503399	-122.697887	0	0	1	1
475	罗德岛州普罗维登斯	美国	Provicence	USA	41.829	-71.433105	0	0	1	NA
476	马萨诸塞州诺福克	美国	Norfolk	USA	42.1686	-71.12	0	0	1	NA
477	纽约	美国	NYC	USA	40.76	-73.980035	0	0	1	NA
478	佐治亚州亚特兰大	美国	Atlanta	USA	33.760882	-84.39276	0	0	2	NA
479	佛罗里达州萨拉索塔	美国	Sarasota	USA	27.35	-82.49784	0	0	1	NA
480	佛罗里达州坦帕	美国	Tampa	USA	27.974	-82.492	0	0	1	NA
481	俄勒冈州巫马提拉	美国	Umatilla	USA	45.9171	-119.327896	0	0	1	NA
482	加利福尼亚州普莱瑟尔	美国	Placer	USA	39.0144	-120.743472	0	0	1	NA