,city_cn,province_cn,city,province,lat,lon,case,death,cure,remain,death_rate,cure_rate
1,长沙,中国湖南,Changsha,Hunan China,28.322759,113.224946,242,2,240,0,0.826446281,99.17355372
2,岳阳,中国湖南,Yueyang,Hunan China,29.178499,113.237527,156,1,155,0,0.641025641,99.35897436
3,怀化,中国湖南,Huaihua,Hunan China,27.612024,109.945539,40,0,40,0,0,100
4,娄底,中国湖南,Loudi,Hunan China,27.766945,112.004619,76,0,76,0,0,100
5,永州,中国湖南,Yongzhou,Hunan China,26.560382,111.621586,44,0,44,0,0,100
6,益阳,中国湖南,Yiyang,Hunan China,28.588088,112.366547,60,0,60,0,0,100
7,衡阳,中国湖南,Hengyang,Hunan China,27.109626,112.351579,48,0,48,0,0,100
8,常德,中国湖南,Changde,Hunan China,28.995243,111.747796,82,0,82,0,0,100
9,湘潭,中国湖南,Xiangtan,Hunan China,27.669223,112.788805,36,0,36,0,0,100
10,邵阳,中国湖南,Shaoyang,Hunan China,26.984977,111.332372,102,1,101,0,0.980392157,99.01960784
11,株洲,中国湖南,Zhuzhou,Hunan China,27.535936,113.153348,80,0,80,0,0,100
12,郴州,中国湖南,Chenzhou,Hunan China,25.773515,113.051002,39,0,39,0,0,100
13,湘西自治州,中国湖南,Xiangxi,Hunan China,28.26,109.69,8,0,8,0,0,100
14,张家界,中国湖南,Zhangjiajie,Hunan China,29.13,110.48,5,0,5,0,0,100
15,武汉,中国湖北,Wuhan,Hubei China,30.581084,114.3162,50005,2504,41891,5610,5.00749925,83.77362264
16,黄冈,中国湖北,Huanggang,Hubei China,30.518802,114.949569,2907,125,2782,0,4.2999656,95.7000344
17,孝感,中国湖北,Xiaogan,Hubei China,30.944617,114.016142,3518,128,3360,30,3.638430927,95.50881182
18,咸宁,中国湖北,Xianning,Hubei China,29.85465,114.391867,836,15,821,0,1.794258373,98.20574163
19,荆门,中国湖北,Jingmen,Hubei China,30.932878,112.193923,928,39,881,8,4.202586207,94.93534483
20,随州,中国湖北,Suizhou,Hubei China,31.890024,113.294246,1307,45,1242,20,3.442999235,95.02677888
21,荆州,中国湖北,Jingzhou,Hubei China,30.396103,112.099857,1580,51,1523,6,3.227848101,96.39240506
22,黄石,中国湖北,Huangshi,Hubei China,30.218698,114.903009,1015,38,972,5,3.743842365,95.7635468
23,宜昌,中国湖北,Yichang,Hubei China,30.979971,111.310649,931,36,891,4,3.866809882,95.70354458
24,十堰,中国湖北,Shiyan,Hubei China,32.66384,110.717401,672,8,663,1,1.19047619,98.66071429
25,恩施,中国湖北,Enshi,Hubei China,32,109.5,252,6,233,13,2.380952381,92.46031746
26,仙桃,中国湖北,Xiantao,Hubei China,30.293966,113.387448,575,22,546,7,3.826086957,94.95652174
27,天门,中国湖北,Tianmen,Hubei China,30.649047,113.12623,496,15,481,0,3.024193548,96.97580645
28,襄阳,中国湖北,Xiangyang,Hubei China,32.229169,112.250093,1175,39,1131,5,3.319148936,96.25531915
29,鄂州,中国湖北,Ezhou,Hubei China,30.320603,114.901016,1394,58,1315,21,4.160688666,94.33285509
30,神农架,中国湖北,Shennongjia,Hubei China,31.74,110.684,11,0,11,0,0,100
31,黔江,中国湖北,Qianjiang,Hubei China,30.4,112.89,198,9,172,17,4.545454545,86.86868687
32,信阳,中国河南,Xinyang,Henan China,32.30784,114.139086,274,2,272,0,0.729927007,99.27007299
33,郑州,中国河南,Zhengzhou,Henan China,34.759791,113.62,157,5,152,0,3.184713376,96.81528662
34,南阳,中国河南,Nanyang,Henan China,33.009839,112.484267,156,3,153,0,1.923076923,98.07692308
35,驻马店,中国河南,Zhumadian,Henan China,32.968357,114.00829,139,0,139,0,0,100
36,周口,中国河南,Zhoukou,Henan China,33.630876,114.65795,76,1,75,0,1.315789474,98.68421053
37,新乡,中国河南,Xinxiang,Henan China,35.3,113.92,57,3,54,0,5.263157895,94.73684211
38,安阳,中国河南,Anyang,Henan China,36.056025,114.256604,53,0,53,0,0,100
39,漯河,中国河南,Luohe,Henan China,33.534755,113.923601,35,0,35,0,0,100
40,三门峡,中国河南,Sanmenxia,Henan China,34.771778,111.281295,7,1,6,0,14.28571429,85.71428571
41,巩义,中国河南,Gongyi,Henan China,34.703799,113.03959,NA,NA,NA,#VALUE!,#VALUE!,#VALUE!
42,平顶山,中国河南,Pingdingshan,Henan China,33.712341,113.278189,58,1,57,0,1.724137931,98.27586207
43,洛阳,中国河南,Luoyang,Henan China,34.638792,112.467093,31,1,30,0,3.225806452,96.77419355
44,商丘,中国河南,Shangqiu,Henan China,34.42,115.65,91,3,88,0,3.296703297,96.7032967
45,开封,中国河南,Kaifeng,Henan China,34.798,114.346,26,0,26,0,0,100
46,鹤壁,中国河南,Hebi,Henan China,35.74,114.295,19,0,19,0,0,100
47,许昌,中国河南,Xuchang,Henan China,34,113.8,39,1,38,0,2.564102564,97.43589744
48,焦作,中国河南,Jiaozuo,Henan China,35.2,113.257,32,1,31,0,3.125,96.875
49,濮阳,中国河南,Puyang,Henan China,35.76,115.02,17,0,17,0,0,100
50,济源,中国河南,Jiyuan,Henan China,35.1,112.58,5,0,5,0,0,100
51,深圳,中国广东,Shenzhen,Guangdong China,22.606981,114.278483,436,3,409,24,0.688073394,93.80733945
52,广州,中国广东,Guangzhou,Guangdong China,23.446661,113.220176,366,1,334,31,0.273224044,91.2568306
53,珠海,中国广东,Zhuhai,Guangdong China,22.047215,113.41759,100,1,97,2,1,97
54,佛山,中国广东,Foshan,Guangdong China,22.824523,112.683258,87,0,81,6,0,93.10344828
55,惠州,中国广东,Huizhou,Guangdong China,23.163063,114.485898,62,0,62,0,0,100
56,阳江,中国广东,Yangjiang,Guangdong China,21.762804,111.930036,14,0,14,0,0,100
57,韶关,中国广东,Shaoguan,Guangdong China,24.919162,113.57745,10,1,9,0,10,90
58,湛江,中国广东,Zhanjiang,Guangdong China,21.0941,110.338022,22,0,22,0,0,100
59,中山,中国广东,Zhongshan,Guangdong China,22.545178,113.42206,68,0,64,4,0,94.11764706
60,肇庆,中国广东,Zhaoqing,Guangdong China,23.208968,112.625249,20,1,18,1,5,90
61,清远,中国广东,Qingyuan,Guangdong China,23.625856,113.114585,12,0,12,0,0,100
62,东莞,中国广东,Dongguan,Guangdong China,23.043024,113.763434,100,1,98,1,1,98
63,汕头,中国广东,Shantou,Guangdong China,23.532997,116.814808,25,0,25,0,0,100
64,汕尾,中国广东,Shanwei,Guangdong China,22.8,115.38,5,0,5,0,0,100
65,梅州,中国广东,Meizhou,Guangdong China,24.3,116.119,17,0,16,1,0,94.11764706
66,揭阳,中国广东,Jieyang,Guangdong China,23.53,116.34,9,0,8,1,0,88.88888889
67,河源,中国广东,Heyuan,Guangdong China,23.74,114.69,4,0,4,0,0,100
68,茂名,中国广东,Maoming,Guangdong China,21.665,110.92,14,0,14,0,0,100
69,江门,中国广东,Jiangmen,Guangdong China,22.57,113.079,23,0,23,0,0,100
70,潮州,中国广东,Chaozhou,Guangdong China,23.656,116.62,5,0,5,0,0,100
71,泰州,中国浙江,Taizhou,Zhejiang China,28.548659,121.450242,37,0,37,0,0,100
72,杭州,中国浙江,Hangzhou,Zhejiang China,30.38812,119.998089,183,0,181,2,0,98.90710383
73,温州,中国浙江,Wenzhou,Zhejiang China,27.972177,120.558404,505,1,503,1,0.198019802,99.6039604
74,宁波,中国浙江,Ningbo,Zhejiang China,29.785459,121.537835,157,0,157,0,0,100
75,嘉兴,中国浙江,Jiaxing,Zhejiang China,30.777679,120.691907,45,0,44,1,0,97.77777778
76,绍兴,中国浙江,Shaoxing,Zhejiang China,29.968789,120.572451,42,0,42,0,0,100
77,舟山,中国浙江,Zhoushan,Zhejiang China,29.871101,122.278765,10,0,10,0,0,100
78,金华,中国浙江,Jinhua,Zhejiang China,29.155526,119.809227,55,0,55,0,0,100
79,衢州,中国浙江,Quzhou,Zhejiang China,28.941983,118.939044,14,0,14,0,0,100
80,丽水,中国浙江,Lishui,Zhejiang China,28.48,119.921,29,0,20,9,0,68.96551724
81,湖州,中国浙江,Huzhou,Zhejiang China,30.89,120.1,12,0,11,1,0,91.66666667
82,万州,中国重庆,Wanzhou,Chongqing China,30.710054,108.413439,118,4,111,3,3.389830508,94.06779661
83,长寿,中国重庆,Changshou,Chongqing China,29.960491,107.146615,22,0,18,4,0,81.81818182
84,开州,中国重庆,Kaizhou,Chongqing China,31.2,108.4,21,1,20,0,4.761904762,95.23809524
85,永川,中国重庆,Yongchuan,Chongqing China,29.296488,105.880358,5,0,5,0,0,100
86,忠县,中国重庆,Zhongxian,Chongqing China,30.342003,107.921738,21,0,21,0,0,100
87,巫山,中国重庆,Wushan,Chongqing China,31.121152,109.908611,10,0,10,0,0,100
88,石柱,中国重庆,Shizhu,Chongqing China,29.9,108,15,0,15,0,0,100
89,重庆市区,中国重庆,Chongqing,Chongqing China,29.59,106.54,121,1,120,0,0.826446281,99.17355372
90,渝北,中国重庆,Yubei,Chongqing China,29.816264,106.753799,17,0,17,0,0,100
91,垫江,中国重庆,Dianjiang,Chongqing China,30.259498,107.444445,20,0,20,0,0,100
92,云阳,中国重庆,Yunyang,Chongqing China,31.042409,108.863186,25,0,25,0,0,100
93,无锡,中国重庆,Wuxi,Chongqing China,31.509161,109.360531,55,0,55,0,0,100
94,合川,中国重庆,Hechuan,Chongqing China,30.118708,106.318029,23,0,23,0,0,100
95,璧山,中国重庆,Bishan,Chongqing China,29.5,106.17,9,0,9,0,0,100
96,涪陵,中国重庆,Fuling,Chongqing China,29.664671,107.3408,5,0,5,0,0,100
97,奉节,中国重庆,Fengjie,Chongqing China,30.958553,109.355667,22,0,22,0,0,100
98,秀山,中国重庆,Xiushan,Chongqing China,28.38,109.06,1,0,1,0,0,100
99,梁平,中国重庆,Liangping,Chongqing China,30.65,107.8,4,0,4,0,0,100
100,城口,中国重庆,Chengkou,Chongqing China,31.888131,108.741855,2,0,2,0,0,100
101,大足,中国重庆,Dazu,Chongqing China,29.714,105.72,14,0,13,1,0,92.85714286
102,丰都,中国重庆,Fengdu,Chongqing China,29.890596,107.837517,10,0,8,2,0,80
103,黔江,中国重庆,Qianjiang,Chongqing China,29.53,108.76,2,0,2,0,0,100
104,万盛,中国重庆,Wansheng,Chongqing China,28.962248,106.924888,1,0,1,0,0,100
105,潼南,中国重庆,Tongnan,Chongqing China,30.19,105.84,18,0,15,3,0,83.33333333
106,铜梁,中国重庆,Tongliang,Chongqing China,29.85,106.05,10,0,9,1,0,90
107,綦江,中国重庆,Qijiang,Chongqing China,29.03,106.64,23,0,20,3,0,86.95652174
108,江津,中国重庆,Jiangjin,Chongqing China,29.28,106.26,4,0,4,0,0,100
109,巴南,中国重庆,Banan,Chongqing China,29.37,106.52,6,0,5,1,0,83.33333333
110,武隆,中国重庆,Wulong,Chongqing China,29.33,107.75,1,0,1,0,0,100
111,酉阳,中国重庆,Youyang,Chongqing China,28.844414,108.763426,1,0,1,0,0,100
112,荣昌,中国重庆,Rongchang,Chongqing China,29.422,105.61,9,0,8,1,0,88.88888889
113,彭水,中国重庆,Pengshui,Chongqing China,29.293585,108.165373,2,0,2,0,0,100
114,北京市区,中国北京,Beijing,Beijing China,39.92,116.46,284,0,15,269,0,5.281690141
115,昌平,中国北京,Changping,Beijing China,40.221724,116.216456,29,0,10,19,0,34.48275862
116,通州,中国北京,Tongzhou,Beijing China,32.081032,121.028859,19,0,1,18,0,5.263157895
117,大兴,中国北京,Daxing,Beijing China,39.73,116.33,39,0,16,23,0,41.02564103
118,顺义,中国北京,Shunyi,Beijing China,40.154951,116.728229,10,0,0,10,0,0
119,门头沟,中国北京,Mentougou,Beijing China,39.94,116.1,3,0,2,1,0,66.66666667
120,房山,中国北京,Fangshan,Beijing China,39.744,116.134254,16,0,3,13,0,18.75
121,延庆,中国北京,Yanqing,Beijing China,40.4565,115.971,1,0,0,1,0,0
122,密云,中国北京,Miyun,Beijing China,40.375043,116.83548,7,0,0,7,0,0
123,怀柔,中国北京,Huairou,Beijing China,40.315,116.626,7,0,0,7,0,0
124,上海,中国上海,Shanghai,Shanghai China,31.2,121.560642,380,3,326,51,0.789473684,85.78947368
125,临沂,中国山东,Linyi,Shandong China,35.127031,118.517311,49,0,49,0,0,100
126,青岛,中国山东,Tsingtao,Shandong China,36.284247,120.346326,61,1,59,1,1.639344262,96.72131148
127,威海,中国山东,Weihai,Shandong China,37.399344,122.152075,38,1,37,0,2.631578947,97.36842105
128,日照,中国山东,Rizhao,Shandong China,35.469377,119.377852,16,0,16,0,0,100
129,济宁,中国山东,Jining,Shandong China,35.380135,116.572199,260,0,259,1,0,99.61538462
130,济南,中国山东,Jinan,Shandong China,36.42857,116.803552,47,0,46,1,0,97.87234043
131,德州,中国山东,Dezhou,Shandong China,37.457437,116.332912,37,2,35,0,5.405405405,94.59459459
132,潍坊,中国山东,Weifang,Shandong China,36.691227,119.196972,44,0,44,0,0,100
133,烟台,中国山东,Yantai,Shandong China,37.407476,121.451535,47,0,47,0,0,100
134,聊城,中国山东,Liaocheng,Shandong China,36.45583,115.907706,38,0,38,0,0,100
135,滨州,中国山东,Binzhou,Shandong China,37.424891,117.981211,15,0,15,0,0,100
136,菏泽,中国山东,Heze,Shandong China,35.26244,115.46336,18,0,18,0,0,100
137,淄博,中国山东,Zibo,Shandong China,36.771219,117.875108,30,1,29,0,3.333333333,96.66666667
138,枣庄,中国山东,Zaozhuang,Shandong China,34.82,117.31,24,0,24,0,0,100
139,泰安,中国山东,Tai An,Shandong China,36.189,117.1,35,2,33,0,5.714285714,94.28571429
140,合肥,中国安徽,Hefei,Anhui China,31.790724,117.353913,174,1,173,0,0.574712644,99.42528736
141,阜阳,中国安徽,Fuyang,Anhui China,33.07351,115.734026,155,0,155,0,0,100
142,亳州,中国安徽,Bozhou,Anhui China,33.782924,115.812814,108,0,108,0,0,100
143,安庆,中国安徽,Anqing,Anhui China,31.859252,117.216005,83,0,83,0,0,100
144,马鞍山,中国安徽,Maanshan,Anhui China,31.659719,118.554558,38,0,38,0,0,100
145,铜陵,中国安徽,Tongling,Anhui China,30.952359,117.918516,29,0,29,0,0,100
146,六安,中国安徽,Lu An,Anhui China,31.753039,116.302573,69,0,69,0,0,100
147,滁州,中国安徽,Chuzhou,Anhui China,32.310209,118.270828,13,0,13,0,0,100
148,池州,中国安徽,Chizhou,Anhui China,30.514086,117.508478,17,0,17,0,0,100
149,蚌埠,中国安徽,Bengbu,Anhui China,33.023815,117.388184,160,5,155,0,3.125,96.875
150,芜湖,中国安徽,Wuhu,Anhui China,31.191699,118.532462,34,0,34,0,0,100
151,黄山,中国安徽,Huangshan,Anhui China,29.7,118.314,9,0,9,0,0,100
152,淮北,中国安徽,Huaibei,Anhui China,33.94,116.9,27,0,27,0,0,100
153,淮南,中国安徽,Huainan,Anhui China,32.58,117,27,0,27,0,0,100
154,苏州,中国安徽,Suzhou,Anhui China,33.639,116.96,87,0,87,0,0,100
155,宣城,中国安徽,Xuancheng,Anhui China,30.92,118.8,6,0,6,0,0,100
156,赣州,中国江西,Ganzhou,Jiangxi China,25.838711,114.937365,76,1,75,0,1.315789474,98.68421053
157,福州,中国江西,Fuzhou,Jiangxi China,27.924732,116.362974,72,1,71,0,1.388888889,98.61111111
158,上饶,中国江西,Shangrao,Jiangxi China,28.40568,117.944367,123,0,123,0,0,100
159,宜春,中国江西,Yichun,Jiangxi China,27.839383,114.290358,106,0,106,0,0,100
160,南昌,中国江西,Nanchang,Jiangxi China,28.620772,116.071261,230,0,230,0,0,100
161,萍乡,中国江西,Pingxiang,Jiangxi China,27.53371,113.739818,33,0,33,0,0,100
162,九江,中国江西,Jiujiang,Jiangxi China,29.64023,115.842035,118,0,118,0,0,100
163,吉安,中国江西,Ji An,Jiangxi China,27.160925,114.960437,22,0,22,0,0,100
164,新余,中国江西,Xinyu,Jiangxi China,27.850578,115.007851,130,0,130,0,0,100
165,景德镇,中国江西,Jingdezhen,Jiangxi China,29.303231,117.234119,6,0,6,0,0,100
166,鹰潭,中国江西,Yingtan,Jiangxi China,28.261751,117.023752,18,0,18,0,0,100
167,赣江新区,中国江西,Gan River New District,Jiangxi China,28.815514,115.946982,1,0,1,0,0,100
168,桂林,中国广西,Guilin,Guangxi China,25.112806,110.371485,32,0,32,0,0,100
169,北海,中国广西,Beihai,Guangxi China,21.574915,109.422489,44,1,43,0,2.272727273,97.72727273
170,柳州,中国广西,Liuzhou,Guangxi China,24.471743,109.413915,24,0,24,0,0,100
171,河池,中国广西,Hechi,Guangxi China,24.660762,107.873444,28,1,27,0,3.571428571,96.42857143
172,梧州,中国广西,Wuzhou,Guangxi China,23.5602,111.189914,5,0,5,0,0,100
173,百色,中国广西,Baise,Guangxi China,23.941866,106.505596,3,0,3,0,0,100
174,防城港,中国广西,Fangchenggang,Guangxi China,21.662036,108.449166,19,0,19,0,0,100
175,南宁,中国广西,Nanning,Guangxi China,22.894927,108.573583,55,0,55,0,0,100
176,榆林,中国广西,Yulin,Guangxi China,22.557213,110.064534,3,0,3,0,0,100
177,贺州,中国广西,Hezhou,Guangxi China,24.415,111.54,4,0,4,0,0,100
178,钦州,中国广西,Qinzhou,Guangxi China,21.97,108.617,8,0,8,0,0,100
179,贵港,中国广西,Guigang,Guangxi China,23.1,109.59,8,0,8,0,0,100
180,来宾,中国广西,Laibin,Guangxi China,23.746383,109.218231,11,0,11,0,0,100
181,三亚,中国海南,Sanya,Hainan China,18.397248,109.429348,54,1,53,0,1.851851852,98.14814815
182,万宁,中国海南,Wanning,Hainan China,18.839886,110.292505,13,0,13,0,0,100
183,海口,中国海南,Haikou,Hainan China,19.942909,110.507269,39,0,38,1,0,97.43589744
184,儋州,中国海南,Danzhou,Hainan China,19.571153,109.413973,15,1,14,0,6.666666667,93.33333333
185,临高,中国海南,Lingao,Hainan China,19.805922,109.724102,6,0,6,0,0,100
186,陵水,中国海南,Lingshui,Hainan China,18.506,110.0375,4,0,4,0,0,100
187,澄迈,中国海南,Chengmai,Hainan China,19.7,110,9,1,8,0,11.11111111,88.88888889
188,琼中,中国海南,Qiongzhong,Hainan China,19.04,109.82,1,0,1,0,0,100
189,东方,中国海南,Dongfang,Hainan China,19.09,108.66,3,1,2,0,33.33333333,66.66666667
190,琼海,中国海南,Qionghai,Hainan China,19.256,110.468,6,1,5,0,16.66666667,83.33333333
191,定安,中国海南,Ding An,Hainan China,19.68,110.36,3,1,2,0,33.33333333,66.66666667
192,昌江,中国海南,Changjiang,Hainan China,19.298,109.04,7,0,7,0,0,100
193,乐东,中国海南,Ledong,Hainan China,18.75,109.168,2,0,2,0,0,100
194,文昌,中国海南,Wenchang,Hainan China,19.539,110.787,3,0,3,0,0,100
195,保亭,中国海南,Baoting,Hainan China,18.64104,109.694892,3,0,3,0,0,100
196,福州,中国福建,Fuzhou,Fujian China,26.221752,119.314923,72,1,71,0,1.388888889,98.61111111
197,厦门,中国福建,Xiamen,Fujian China,24.675485,118.280803,35,0,35,0,0,100
198,泉州,中国福建,Quanzhou,Fujian China,25.173479,118.819017,47,0,47,0,0,100
199,漳州,中国福建,Zhangzhou,Fujian China,24.575089,117.633366,20,0,20,0,0,100
200,宁德,中国福建,Ningde,Fujian China,26.763865,119.454559,26,0,26,0,0,100
201,三明,中国福建,Sanming,Fujian China,26.173967,117.516896,14,0,14,0,0,100
202,莆田,中国福建,Putian,Fujian China,25.41,119,56,0,56,0,0,100
203,南平,中国福建,Nanping,Fujian China,26.63,118.18,20,0,20,0,0,100
204,龙岩,中国福建,Longyan,Fujian China,25.1,117,6,0,6,0,0,100
205,常州,中国江苏,Changzhou,Jiangsu China,31.672903,119.943432,51,0,51,0,0,100
206,南京,中国江苏,Nanjing,Jiangsu China,32.40064,118.848166,93,0,93,0,0,100
207,苏州,中国江苏,Suzhou,Jiangsu China,31.332306,120.630878,87,0,87,0,0,100
208,连云港,中国江苏,Lianyungang,Jiangsu China,34.51416,119.162196,48,0,48,0,0,100
209,无锡,中国江苏,Wuxi,Jiangsu China,31.466579,120.248502,55,0,55,0,0,100
210,南通,中国江苏,Nantong,Jiangsu China,32.071256,120.823875,40,0,40,0,0,100
211,扬州,中国江苏,Yangzhou,Jiangsu China,32.408505,119.427778,23,0,23,0,0,100
212,盐城,中国江苏,Yancheng,Jiangsu China,33.265898,119.968501,27,0,27,0,0,100
213,宿迁,中国江苏,Suqian,Jiangsu China,34.00953,118.343693,13,0,13,0,0,100
214,镇江,中国江苏,Zhenjiang,Jiangsu China,32.198,119.46,12,0,12,0,0,100
215,淮安,中国江苏,Huai An,Jiangsu China,33.589,119.03,66,0,66,0,0,100
216,泰州,中国江苏,Taizhou,Jiangsu China,32.45,119.91,37,0,37,0,0,100
217,徐州,中国江苏,Xuzhou,Jiangsu China,34.27,117.186999,79,0,79,0,0,100
218,沈阳,中国辽宁,Shenyang,Liaoning China,41.843551,123.242847,28,0,27,1,0,96.42857143
219,大连,中国辽宁,Dalian,Liaoning China,38.92,121.62,19,0,19,0,0,100
220,朝阳,中国辽宁,Chaoyang,Liaoning China,41.55,120.4,6,1,5,0,16.66666667,83.33333333
221,铁岭,中国辽宁,Tieling,Liaoning China,42.222765,123.914529,7,0,7,0,0,100
222,葫芦岛,中国辽宁,Huludao,Liaoning China,40.75,120.84,12,1,11,0,8.333333333,91.66666667
223,本溪,中国辽宁,Benxi,Liaoning China,41.19567,124.158564,3,0,3,0,0,100
224,盘锦,中国辽宁,Panjin,Liaoning China,41.112,122.06,11,0,11,0,0,100
225,营口,中国辽宁,Yingkou,Liaoning China,40.55,122.248,1,0,1,0,0,100
226,丹东,中国辽宁,Dandong,Liaoning China,40.008,124.3545,11,0,11,0,0,100
227,辽阳,中国辽宁,Liaoyang,Liaoning China,41.26,123.164,3,0,3,0,0,100
228,鞍山,中国辽宁,Anshan,Liaoning China,41.1,122.99,4,0,4,0,0,100
229,锦州,中国辽宁,Jinzhou,Liaoning China,41.0959,121.11,12,0,12,0,0,100
230,阜新,中国辽宁,Fuxin,Liaoning China,42.015173,121.645287,8,0,8,0,0,100
231,西安,中国陕西,Xi An,Shaanxi China,34.066899,108.874256,120,3,114,3,2.5,95
232,咸阳,中国陕西,Xianyang,Shaanxi China,34.423853,108.817312,17,0,16,1,0,94.11764706
233,安康,中国陕西,Ankang,Shaanxi China,32.814464,108.896243,26,0,26,0,0,100
234,铜川,中国陕西,Tongchuan,Shaanxi China,35.032,108.8355,8,0,8,0,0,100
235,延安,中国陕西,Yan An,Shaanxi China,36.575992,109.648602,8,0,8,0,0,100
236,商洛,中国陕西,Shangluo,Shaanxi China,33.895485,109.873271,7,0,7,0,0,100
237,渭南,中国陕西,Weinan,Shaanxi China,34.5,109.451,15,0,14,1,0,93.33333333
238,汉中,中国陕西,Hanzhong,Shaanxi China,33.1,107,26,0,26,0,0,100
239,宝鸡,中国陕西,Baoji,Shaanxi China,34.39,107.23,13,0,13,0,0,100
240,韩城,中国陕西,Hancheng,Shaanxi China,35.474,110.447,1,0,1,0,0,100
241,榆林,中国陕西,Yulin,Shaanxi China,38.23,109.75,3,0,3,0,0,100
242,杨凌,中国陕西,Yangling,Shaanxi China,34.272,108.082123,1,0,1,0,0,100
243,昆明,中国云南,Kunming,Yunnan China,26.139329,103.078562,53,0,53,0,0,100
244,丽江,中国云南,Lijiang,Yunnan China,26.8593,100.328596,7,0,7,0,0,100
245,西双版纳,中国云南,Xishuangbanna,Yunnan China,22.009433,100.803038,15,1,14,0,6.666666667,93.33333333
246,曲靖,中国云南,Qujing,Yunnan China,25.360057,103.913326,13,0,13,0,0,100
247,玉溪,中国云南,Yuxi,Yunnan China,24.369854,102.499895,14,1,13,0,7.142857143,92.85714286
248,红河,中国云南,Honghe,Yunnan China,23.250955,102.243348,9,0,9,0,0,100
249,大理,中国云南,Dali,Yunnan China,25.693967,100.219209,13,0,13,0,0,100
250,保山,中国云南,Baoshan,Yunnan China,25.16,99.176,9,0,9,0,0,100
251,德宏,中国云南,Dehong,Yunnan China,24.43,98.596,5,0,4,1,0,80
252,昭通,中国云南,Zhaotong,Yunnan China,27.32,103.72,25,0,25,0,0,100
253,普洱,中国云南,Pu Er,Yunnan China,22.7,100.96,4,0,4,0,0,100
254,临沧,中国云南,Lincang,Yunnan China,23.87,100.1,1,0,1,0,0,100
255,文山,中国云南,Wenshan,Yunnan China,23.394,104.226,2,0,2,0,0,100
256,楚雄,中国云南,Chuxiong,Yunnan China,25.025884,101.548734,4,0,4,0,0,100
257,天津,中国天津,Tianjin,Tianjin China,39.13,117.2,137,3,133,1,2.189781022,97.08029197
258,哈尔滨,中国黑龙江,Harbin,Heilongjiang China,45.995674,126.61077,198,4,192,2,2.02020202,96.96969697
259,牡丹江,中国黑龙江,Mudanjiang,Heilongjiang China,44.491714,129.584924,15,0,15,0,0,100
260,大庆,中国黑龙江,Daqing,Heilongjiang China,46.070051,124.699077,26,1,24,1,3.846153846,92.30769231
261,绥化,中国黑龙江,Suihua,Heilongjiang China,46.747537,126.957863,47,4,43,0,8.510638298,91.4893617
262,齐齐哈尔,中国黑龙江,Qiqihar,Heilongjiang China,47.28,123.94,43,1,41,1,2.325581395,95.34883721
263,佳木斯,中国黑龙江,Jiamusi,Heilongjiang China,46.8,130.37,15,0,15,0,0,100
264,双鸭山,中国黑龙江,Shuangyashan,Heilongjiang China,46.642,131.152,52,3,49,0,5.769230769,94.23076923
265,七台河,中国黑龙江,Qitaihe,Heilongjiang China,45.6,131,17,0,17,0,0,100
266,鸡西,中国黑龙江,Jixi,Heilongjiang China,45.3,130.96,46,0,46,0,0,100
267,鹤岗,中国黑龙江,Hegang,Heilongjiang China,47.335,130.294,5,0,5,0,0,100
268,大兴安岭,中国黑龙江,Greater Hinggan,Heilongjiang China,50.41,124.122,3,0,2,1,0,66.66666667
269,黑河,中国黑龙江,Heihe,Heilongjiang China,50.235,127.51,14,0,13,1,0,92.85714286
270,晋中,中国山西,Jinzhong,Shanxi China,37.650825,112.843737,37,0,37,0,0,100
271,太原,中国山西,Taiyuan,Shanxi China,37.748675,112.481587,20,0,20,0,0,100
272,运城,中国山西,Yuncheng,Shanxi China,35.063677,110.961931,19,0,19,0,0,100
273,阳泉,中国山西,Yangquan,Shanxi China,37.911504,113.568086,4,0,4,0,0,100
274,大同,中国山西,Datong,Shanxi China,40,113.3,12,0,12,0,0,100
275,长治,中国山西,Changzhi,Shanxi China,36.02468,113.086194,8,0,8,0,0,100
276,临汾,中国山西,Linfen,Shanxi China,36.1,111.52,2,0,2,0,0,100
277,朔州,中国山西,Shuozhou,Shanxi China,39.35,112.43,8,0,8,0,0,100
278,吕梁,中国山西,Lyuliang,Shanxi China,37.5,111.1,6,0,6,0,0,100
279,忻州,中国山西,Xinzhou,Shanxi China,38.4,112.732,7,0,7,0,0,100
280,晋城,中国山西,Jincheng,Shanxi China,35.498,112.857,10,0,10,0,0,100
281,石家庄,中国河北,Shijiazhuang,Hebei China,38.014621,114.586383,29,0,29,0,0,100
282,沧州,中国河北,Cangzhou,Hebei China,38.314446,116.844854,48,3,45,0,6.25,93.75
283,保定,中国河北,Baoding,Hebei China,38.821877,115.484784,32,0,32,0,0,100
284,承德,中国河北,Chengde,Hebei China,40.973242,118.125718,7,0,7,0,0,100
285,廊坊,中国河北,Langfang,Hebei China,39.47,116.7,30,0,30,0,0,100
286,邢台,中国河北,Xingtai,Hebei China,37.04,114.57,23,1,22,0,4.347826087,95.65217391
287,衡水,中国河北,Hengshui,Hebei China,37.73,115.699,8,0,8,0,0,100
288,唐山,中国河北,Tangshan,Hebei China,39.59,118.2,58,1,55,2,1.724137931,94.82758621
289,邯郸,中国河北,Handan,Hebei China,36.574,114.48,32,0,32,0,0,100
290,张家口,中国河北,Zhangjiakou,Hebei China,40.81,114.89,41,0,41,0,0,100
291,秦皇岛,中国河北,Qinhuangdao,Hebei China,39.95,119.59,10,1,9,0,10,90
292,锡林郭勒盟,中国内蒙古,Xilingol - Xilinhot,Inner Mongolia China,43.468238,114.415868,9,0,9,0,0,100
293,鄂尔多斯,中国内蒙古,Ordos,Inner Mongolia China,39.805586,109.764419,11,0,11,0,0,100
294,赤峰,中国内蒙古,Chifeng,Inner Mongolia China,42.268753,118.757106,9,0,9,0,0,100
295,呼伦贝尔,中国内蒙古,Hulun Buir,Inner Mongolia China,49.22,119.76,7,0,7,0,0,100
296,兴安盟,中国内蒙古,Ulahot,Inner Mongolia China,46.05,122.1,1,0,1,0,0,100
297,乌兰察布,中国内蒙古,Ulanqab,Inner Mongolia China,40.99,113.13,3,0,3,0,0,100
298,包头,中国内蒙古,Baotou,Inner Mongolia China,40.65,109.8,11,0,11,0,0,100
299,巴彦淖尔,中国内蒙古,Bayannur,Inner Mongolia China,40.75,107.38,8,1,7,0,12.5,87.5
300,通辽,中国内蒙古,Tongliao,Inner Mongolia China,43.626,122.25,7,0,7,0,0,100
301,呼和浩特,中国内蒙古,Huhhot,Inner Mongolia China,40.83,111.69,7,0,7,0,0,100
302,乌海,中国内蒙古,Wuhai,Inner Mongolia China,39.639,106.779,2,0,2,0,0,100
303,香港,中国香港特别行政区,Hong Kong,Hong Kong SAR China,22.293586,114.186124,256,4,98,154,1.5625,38.28125
304,铜仁,中国贵州,Tongren,Guizhou China,27.674903,109.168558,10,0,10,0,0,100
305,贵阳,中国贵州,Guiyang,Guizhou China,26.496945,106.70098,36,1,35,0,2.777777778,97.22222222
306,黔南州,中国贵州,Qiannan,Guizhou China,26.254,107.522,17,0,17,0,0,100
307,黔西南州,中国贵州,Qianxinan,Guizhou China,25.1,104.9,4,0,4,0,0,100
308,六盘水,中国贵州,Liupanshui,Guizhou China,26.55,104.85,10,1,9,0,10,90
309,黔东南州,中国贵州,Qiandongnan,Guizhou China,26.56,108,10,0,10,0,0,100
310,遵义,中国贵州,Zunyi,Guizhou China,27.7478,106.91,32,0,32,0,0,100
311,毕节,中国贵州,Bijie,Guizhou China,27.31,105.29,23,0,23,0,0,100
312,安顺,中国贵州,Anshun,Guizhou China,26.25,105.93,4,0,4,0,0,100
313,吉林市,中国吉林,Jilin,Jilin China,43.87,126.57,5,0,5,0,0,100
314,长春,中国吉林,Changchun,Jilin China,43.531747,125.712822,45,0,45,0,0,100
315,松原,中国吉林,Songyuan,Jilin China,45.29271,124.867571,2,0,2,0,0,100
316,四平,中国吉林,Siping,Jilin China,43.178,124.37,15,1,14,0,6.666666667,93.33333333
317,公主岭,中国吉林,Gongzhuling,Jilin China,43.49,124.8,6,0,6,0,0,100
318,通化,中国吉林,Tonghua,Jilin China,41.74,125.92,6,0,6,0,0,100
319,延边,中国吉林,Yanbian,Jilin China,42.89,129.51,5,0,5,0,0,100
320,辽源,中国吉林,Liaoyuan,Jilin China,42.895188,125.148648,7,0,7,0,0,100
321,梅河口,中国吉林,Meihekou,Jilin China,42.537275,125.691833,1,0,1,0,0,100
322,白城,中国吉林,Baicheng,Jilin China,45.614037,122.84704,1,0,1,0,0,100
323,兰州,中国甘肃,Lanzhou,Gansu China,36.0637,103.831,36,2,34,0,5.555555556,94.44444444
324,白银,中国甘肃,Baiyin,Gansu China,36.69035,104.945609,4,0,4,0,0,100
325,临夏,中国甘肃,Linxia,Gansu China,35.518719,103.050791,3,0,3,0,0,100
326,定西,中国甘肃,Dingxi,Gansu China,35.58,104.62,9,0,9,0,0,100
327,张掖,中国甘肃,Zhangye,Gansu China,38.93,100.46,2,0,2,0,0,100
328,陇南,中国甘肃,Longnan,Gansu China,33.39,104.91,4,0,4,0,0,100
329,金昌,中国甘肃,Jinchang,Gansu China,38.52,102.18,1,0,1,0,0,100
330,天水,中国甘肃,Tianshui,Gansu China,34.58,105.73,12,0,12,0,0,100
331,平凉,中国甘肃,Pingliang,Gansu China,35.53,106.67,9,0,9,0,0,100
332,甘南,中国甘肃,Gannan,Gansu China,34.981,102.91,8,0,8,0,0,100
333,庆阳,中国甘肃,Qingyang,Gansu China,35.7,107.65,3,0,3,0,0,100
334,银川,中国宁夏,Yinchuan,Ningxia China,38.478591,106.24265,36,0,36,0,0,100
335,中卫,中国宁夏,Zhongwei,Ningxia China,37.360639,105.111278,4,0,4,0,0,100
336,固原,中国宁夏,Guyuan,Ningxia China,36.206829,106.254011,5,0,5,0,0,100
337,吴忠,中国宁夏,Wuzhong,Ningxia China,37.97,106.2,28,0,28,0,0,100
338,宁东,中国宁夏,Ningdong Energy Chemical Industry Base Admin Committee,Ningxia China,38.4,106.31,1,0,1,0,0,100
339,石嘴山,中国宁夏,Shizuishan,Ningxia China,38.991988,106.37,1,0,1,0,0,100
340,地区,中国 台湾,Taiwan,A Chinese Territory,23.5,121,135,2,28,105,1.481481481,20.74074074
341,乌鲁木齐,中国新疆,Urumqi,Xinjiang China,43.419108,87.360244,23,0,23,0,0,100
342,伊犁,中国新疆,Ili,Xinjiang China,43.9,81.32,18,0,18,0,0,100
343,吐鲁番,中国新疆,Turpan,Xinjiang China,42.95,89.15,3,0,3,0,0,100
344,第八师石河子,中国新疆,Shihezi (The 8th Division),Xinjiang China,44.26,86.05,4,1,3,0,25,75
345,阿克苏,中国新疆,Aksu,Xinjiang China,41.133,80.192,1,0,1,0,0,100
346,第九师额敏县,中国新疆,Emin (The 9th Division),Xinjiang China,46.521076,83.620741,4,1,3,0,25,75
347,第四师科克达拉,中国新疆,Cocodala (The 4th Division),Xinjiang China,43.9448,81.044,10,1,9,0,10,90
348,昌吉,中国新疆,Changji,Xinjiang China,44,87.275,4,0,4,0,0,100
349,第六师五家渠,中国新疆,Wujiaqu (The 6th Division),Xinjiang China,44.159797,87.538838,2,0,2,0,0,100
350,第七师胡杨河,中国新疆,Huyanghe (The 7th Division),Xinjiang China,44.710398,84.8254,1,0,1,0,0,100
351,巴音郭楞,中国新疆,Bayingolin,Xinjiang China,41.771312,86.161609,3,0,3,0,0,100
352,第十二师,中国新疆,The 12th Division,Xinjiang China,43.6,87,3,0,3,0,0,100
353,澳门,中国澳门特别行政区,Macau,Macau SAR China,22.204118,113.557519,17,0,10,7,0,58.82352941
354,西宁,中国青海,Xining,Qinghai China,36.686368,101.712664,15,0,15,0,0,100
355,海北州,中国青海,Haibei,Qinghai China,36.899,100.997,3,0,3,0,0,100
356,成都,中国四川,Chengdu,Sichuan China,30.67,104.06,147,3,141,3,2.040816327,95.91836735
357,绵阳,中国四川,Mianyang,Sichuan China,31.46,104.73,22,0,22,0,0,100
358,广安,中国四川,Guang An,Sichuan China,30.3,106,30,0,30,0,0,100
359,遂宁,中国四川,Suining,Sichuan China,30.501934,105.569333,17,0,17,0,0,100
360,泸州,中国四川,Luzhou,Sichuan China,27.88,106.27,24,0,24,0,0,100
361,南充,中国四川,Nanchong,Sichuan China,30.84,106.12,39,0,39,0,0,100
362,甘孜,中国四川,Ganzi,Sichuan China,31.62,99.99,78,0,71,7,0,91.02564103
363,德阳,中国四川,Deyang,Sichuan China,31.33,104.23,18,0,18,0,0,100
364,雅安,中国四川,Ya An,Sichuan China,30,103,7,0,7,0,0,100
365,达州,中国四川,Dazhou,Sichuan China,31.2,107.5,42,0,42,0,0,100
366,自贡,中国四川,Zigong,Sichuan China,29.34,104.78,9,0,9,0,0,100
367,内江,中国四川,Neijiang,Sichuan China,29.6,105,22,0,22,0,0,100
368,乐山,中国四川,Leshan,Sichuan China,29.2,103.63,3,0,3,0,0,100
369,眉山,中国四川,Meishan,Sichuan China,29.9,103.5,8,0,8,0,0,100
370,宜宾,中国四川,Yibin,Sichuan China,28.76,104.63,12,0,12,0,0,100
371,凉山,中国四川,Liangshan,Sichuan China,27.88,102.28,13,0,13,0,0,100
372,资阳,中国四川,Ziyang,Sichuan China,30.1,104.67,4,0,4,0,0,100
373,广元,中国四川,Guangyuan,Sichuan China,30.46,106.64,6,0,6,0,0,100
374,阿坝,中国四川,Aba,Sichuan China,32.9,101.71,1,0,1,0,0,100
375,巴中,中国四川,Bazhong,Sichuan China,31.86,106.75,24,0,24,0,0,100
376,攀枝花,中国四川,Panzhihua,Sichuan China,26.578,101.721,16,0,16,0,0,100
377,拉萨,中国西藏,Lhasa,Tibet China,29.65,91.577,1,0,1,0,0,100
378,,阿富汗,,Afghanistan,33.9391,67.71,40,1,1,38,2.5,2.5
379,,阿尔巴尼亚,,Albania,41.1533,20.1683,89,2,2,85,2.247191011,2.247191011
380,,阿尔及利亚,,Algeria,28.0339,1.6596,201,17,65,119,8.457711443,32.33830846
381,,安道尔,,Andorra,42.5063,1.5218,113,1,1,111,0.884955752,0.884955752
382,,安哥拉,,Angola,-11.2027,17.8739,2,0,0,2,0,0
383,,安提瓜和巴布达,,Antigua and Barbuda,17.0608,-61.7964,1,0,0,1,0,0
384,,阿根廷,,Argentina,-38.4161,-63.6167,225,4,3,218,1.777777778,1.333333333
385,,亚美尼亚,,Armenia,40.0691,45.0382,194,0,2,192,0,1.030927835
386,新南威尔士州,澳大利亚,New South Wales,Australia,-33.8688,151.2093,533,6,4,523,1.125703565,0.750469043
387,维多利亚州,澳大利亚,Victoria,Australia,-37.8136,144.9631,296,0,70,226,0,23.64864865
388,昆士兰州,澳大利亚,Queensland,Australia,-28.0167,153.4,221,0,8,213,0,3.619909502
389,西澳大利亚州,澳大利亚,Western Australia,Australia,-31.9505,115.8605,120,1,0,119,0.833333333,0
390,南澳大利亚州,澳大利亚,South Australia,Australia,-34.9285,138.6007,100,0,3,97,0,3
391,塔斯马尼亚岛,澳大利亚,Tasmania,Australia,-41.4545,145.9707,22,0,3,19,0,13.63636364
392,堪培拉,澳大利亚,Australian Capital Territory,Australia,-35.4735,149.0124,19,0,0,19,0,0
393,北部地区,澳大利亚,Northern Territory,Australia,-12.4634,130.8456,3,0,0,3,0,0
394,钻石公主号撤离,澳大利亚,From Diamond Princess,Australia,35.4437,139.638,0,0,0,0,#DIV/0!,#DIV/0!
395,,奥地利,,Austria,47.5162,14.5501,3244,16,9,3219,0.493218249,0.277435265
396,,阿塞拜疆,,Azerbaijan,40.1431,47.5769,65,1,10,54,1.538461538,15.38461538
397,,巴哈马,,"Bahamas, The",25.0343,-77.3963,4,0,0,4,0,0
398,,巴林,,Bahrain,26.0667,50.5577,332,2,149,181,0.602409639,44.87951807
399,,孟加拉国,,Bangladesh,23.685,90.3563,27,2,3,22,7.407407407,11.11111111
400,,巴巴多斯,,Barbados,13.1939,-59.5432,14,0,0,14,0,0
401,,白俄罗斯,,Belarus,53.7098,27.9534,76,0,15,61,0,19.73684211
402,,比利时,,Belgium,50.5039,4.4699,3401,75,263,3063,2.205233755,7.7330197
403,,贝宁,,Benin,9.3077,2.3158,2,0,0,2,0,0
404,,不丹,,Bhutan,27.5142,90.4336,2,0,0,2,0,0
405,,玻利维亚,,Bolivia,-16.2902,-63.5887,24,0,0,24,0,0
406,,波黑,,Bosnia and Herzegovina,43.9159,17.6791,126,1,2,123,0.793650794,1.587301587
407,,巴西,,Brazil,-14.235,-51.9253,1593,25,2,1566,1.569365976,0.125549278
408,,文莱,,Brunei,4.5353,114.7277,88,0,2,86,0,2.272727273
409,,保加利亚,,Bulgaria,42.7339,25.4858,187,3,3,181,1.604278075,1.604278075
410,,布基纳法索,,Burkina Faso,12.2383,-1.5616,75,4,5,66,5.333333333,6.666666667
411,,佛得角,,Cabo Verde,16.5388,-23.0418,3,0,0,3,0,0
412,,柬埔寨,,Cambodia,12.5657,104.991,84,0,1,83,0,1.19047619
413,,喀麦隆,,Cameroon,3.848,11.5021,40,0,0,40,0,0
414,安大略,加拿大,Ontario,Canada,51.2538,-85.3232,425,5,6,414,1.176470588,1.411764706
415,英属哥伦比亚,加拿大,British Columbia,Canada,53.7267,-127.6476,424,10,4,410,2.358490566,0.943396226
416,艾伯塔,加拿大,Alberta,Canada,53.9333,-116.5765,259,1,0,258,0.386100386,0
417,魁北克,加拿大,Quebec,Canada,52.9399,-73.5491,219,5,0,214,2.283105023,0
418,萨斯卡彻万,加拿大,Saskatchewan,Canada,52.9399,-106.4509,52,0,0,52,0,0
419,新斯科舍,加拿大,Nova Scotia,Canada,44.682,-63.7443,28,0,0,28,0,0
420,马尼托巴,加拿大,Manitoba,Canada,53.7609,-98.8139,19,0,0,19,0,0
421,新不伦瑞克,加拿大,New Brunswick,Canada,46.5653,-66.4619,17,0,0,17,0,0
422,至尊公主号乘客,加拿大,Grand Princess,Canada,37.6489,-122.6655,13,0,0,13,0,0
423,纽芬兰拉布拉多,加拿大,Newfoundland and Labrador,Canada,53.1355,-57.6604,6,0,0,6,0,0
424,爱德华王子岛,加拿大,Prince Edward Island,Canada,46.5107,-63.4168,2,0,0,2,0,0
425,西北地区,加拿大,Northwest Territories,Canada,64.8255,-124.8457,1,0,0,1,0,0
426,,佛得角,,Cape Verde,15.1111,-23.6167,0,0,0,0,#DIV/0!,#DIV/0!
427,,中非,,Central African Republic,6.6111,20.9394,3,0,0,3,0,0
428,,乍得,,Chad,15.4542,18.7322,1,0,0,1,0,0
429,,智利,,Chile,-35.6751,-71.543,632,1,8,623,0.158227848,1.265822785
430,,哥伦比亚,,Colombia,4.5709,-74.2973,231,2,3,226,0.865800866,1.298701299
431,,刚果 (布),,Congo (Brazzaville),-0.228,15.8277,3,0,0,3,0,0
432,,刚果 (金),,Congo (Kinshasa),-4.0383,21.7587,30,1,0,29,3.333333333,0
433,,哥斯达黎加,,Costa Rica,9.7489,-83.7534,134,2,2,130,1.492537313,1.492537313
434,,科特迪瓦,,Cote d'Ivoire,7.54,-5.5471,14,0,1,13,0,7.142857143
435,,克罗地亚,,Croatia,45.1,15.2,254,1,5,248,0.393700787,1.968503937
436,钻石公主号撤离,,Diamond Princess,Cruise Ship,35.4498,139.6649,712,8,325,379,1.123595506,45.64606742
437,,古巴,,Cuba,21.5218,-77.7812,35,1,0,34,2.857142857,0
438,,塞浦路斯,,Cyprus,35.1264,33.4299,95,1,3,91,1.052631579,3.157894737
439,,捷克,,Czechia,49.8175,15.473,1120,1,6,1113,0.089285714,0.535714286
440,本土,丹麦,,Denmark,56.2639,9.5018,1395,13,1,1381,0.931899642,0.071684588
441,法罗群岛,丹麦,Faroe Islands,Denmark,61.8926,-6.9118,115,0,0,115,0,0
442,格陵兰岛,丹麦,Greenland,Denmark,71.7069,-42.6043,4,0,0,4,0,0
443,,吉布提,,Djibouti,11.8251,42.5903,1,0,0,1,0,0
444,,多米尼加,,Dominica,15.415,-61.371,1,0,0,1,0,0
445,,厄瓜多尔,,Dominican Republic,18.7357,-70.1627,202,3,0,199,1.485148515,0
446,,东帝汶,,East Timor,-8.55,125.56,0,0,0,0,#DIV/0!,#DIV/0!
447,,厄瓜多尔,,Ecuador,-1.8312,-78.1834,789,14,3,772,1.774397972,0.380228137
448,,埃及,,Egypt,26.8206,30.8025,327,14,56,257,4.281345566,17.12538226
449,,萨尔瓦多,,El Salvador,13.7942,-88.8965,3,0,0,3,0,0
450,,赤道几内亚,,Equatorial Guinea,1.6508,10.2679,6,0,0,6,0,0
451,,饿厄立特里亚,,Eritrea,15.1794,39.7823,1,0,0,1,0,0
452,,爱沙尼亚,,Estonia,58.5953,25.0136,326,0,2,324,0,0.613496933
453,,斯威士兰,,Eswatini,-26.5225,31.4659,4,0,0,4,0,0
454,,埃塞俄比亚,,Ethiopia,9.145,40.4897,11,0,4,7,0,36.36363636
455,,斐济,,Fiji,-17.7134,178.065,2,0,0,2,0,0
456,,芬兰,,Finland,61.9241,25.7482,626,1,10,615,0.159744409,1.597444089
457,本土,法国,,France,46.2276,2.2137,16018,674,2200,13144,4.207766263,13.73454863
458,法属波利尼西亚,法国,French Polynesia,France,-17.6797,-149.4068,15,0,0,15,0,0
459,新喀里多尼亚,法国,New Caledonia,France,-20.9043,165.618,4,0,0,4,0,0
460,圣马丁,法国,St Martin,France,18.0708,-63.0501,4,0,0,4,0,0
461,圣巴塞勒米,法国,Saint Barthelemy,France,17.9,-62.8333,3,0,0,3,0,0
466,法属圭亚那,法国,French Guiana,France,3.9339,-53.1258,18,0,6,12,0,33.33333333
467,,加蓬,,Gabon,-0.8037,11.6094,5,1,0,4,20,0
468,,冈比亚,,"Gambia, The",13.4432,-15.3101,1,0,0,1,0,0
469,,格鲁吉亚,,Georgia,42.3154,43.3569,54,0,3,51,0,5.555555556
470,,德国,,Germany,51.1657,10.4515,24873,94,266,24513,0.377919833,1.069432718
471,,加纳,,Ghana,7.9465,-1.0232,24,1,0,23,4.166666667,0
472,,希腊,,Greece,39.0742,21.8243,624,15,19,590,2.403846154,3.044871795
474,,格林纳达,,Grenada,12.1165,-61.679,1,0,0,1,0,0
475,瓜达卢佩,法国,Guadeloupe,France,16.265,-61.551,56,0,0,56,0,0
477,,危地马拉,,Guatemala,15.7835,-90.2308,19,1,0,18,5.263157895,0
478,根西,英国皇室私人领地,Guernsey,UK,49.45,-2.58,0,0,0,0,#DIV/0!,#DIV/0!
479,,几内亚,,Guinea,9.9456,-9.6966,2,0,0,2,0,0
480,,圭亚那,,Guyana,4.8604,-58.9302,7,1,0,6,14.28571429,0
481,,海地,,Haiti,18.9712,-72.2852,2,0,0,2,0,0
482,,梵蒂冈,,Vatican,41.9029,12.4534,1,0,0,1,0,0
483,,洪都拉斯,,Honduras,15.2,-86.2419,26,0,0,26,0,0
484,,匈牙利,,Hungary,47.1625,19.5033,131,6,16,109,4.580152672,12.21374046
485,,冰岛,,Iceland,64.9631,-19.0208,568,1,36,531,0.176056338,6.338028169
486,,印度,,India,20.5937,78.9629,396,7,27,362,1.767676768,6.818181818
487,,印尼,,Indonesia,-0.7893,113.9213,514,48,29,437,9.338521401,5.642023346
488,,伊朗,,Iran,32.4279,53.688,21638,1685,7931,12022,7.787226176,36.65311027
489,,伊拉克,,Iraq,33.2232,43.6793,233,20,57,156,8.583690987,24.46351931
490,,爱尔兰,,Ireland,53.1424,-7.6921,906,4,5,897,0.441501104,0.55187638
491,,以色列,,Israel,31.0461,34.8516,1071,1,37,1033,0.093370682,3.454715219
492,,意大利,,Italy,41.8719,12.5674,59138,5476,7024,46638,9.259697656,11.87730393
493,,牙买加,,Jamaica,18.1096,-77.2975,16,1,2,13,6.25,12.5
494,,日本,,Japan,36.2048,138.2529,1086,40,235,811,3.683241252,21.63904236
495,泽西岛,英国皇室私人领地,Jersey,UK,49.19,-2.11,0,0,0,0,#DIV/0!,#DIV/0!
496,,约旦,,Jordan,30.5852,36.2384,112,0,1,111,0,0.892857143
497,,哈萨克斯坦,,Kazakhstan,48.0196,66.9237,60,0,0,60,0,0
498,,肯尼亚,,Kenya,-0.0236,37.9062,15,0,0,15,0,0
499,,韩国,,"Korea, South",35.9078,127.7669,8897,104,2909,5884,1.168933348,32.69641452
500,,科索沃地区,,Kosovo,42.6026,20.903,2,0,0,2,0,0
501,,科威特,,Kuwait,29.3117,47.4818,188,0,27,161,0,14.36170213
502,,吉尔吉斯斯坦,,Kyrgyzstan,41.2044,74.7661,14,0,0,14,0,0
503,,拉脱维亚,,Latvia,56.8796,24.6032,139,0,1,138,0,0.71942446
504,,黎巴嫩,,Lebanon,33.8547,35.8623,248,4,8,236,1.612903226,3.225806452
505,,利比里亚,,Liberia,6.4281,-9.4295,3,0,0,3,0,0
506,,列支敦士登,,Liechtenstein,47.166,9.5554,37,0,0,37,0,0
507,,立陶宛,,Lithuania,55.1694,23.8813,131,1,1,129,0.763358779,0.763358779
508,,卢森堡,,Luxembourg,49.8153,6.1296,798,8,6,784,1.002506266,0.751879699
509,,马达加斯加,,Madagascar,-18.7669,46.8691,3,0,0,3,0,0
510,,马来西亚,,Malaysia,4.2105,101.9758,1306,10,139,1157,0.765696784,10.6431853
511,,马尔代夫,,Maldives,3.2028,73.2207,13,0,0,13,0,0
512,,马耳他,,Malta,35.9375,14.3754,90,0,2,88,0,2.222222222
513,马尔蒂尼,法国,Martinique,France,14.6415,-61.0242,37,1,0,36,2.702702703,0
514,,毛里塔尼亚,,Mauritania,21.0079,-10.9408,2,0,0,2,0,0
515,,毛里求斯,,Mauritius,-20.3484,57.5522,18,1,0,17,5.555555556,0
516,马约特,法国,Mayotte,France,-12.8275,45.1662,11,0,0,11,0,0
517,,墨西哥,,Mexico,23.6345,-102.5528,251,2,4,245,0.796812749,1.593625498
518,,摩尔多瓦,,Moldova,47.4116,28.3699,94,1,1,92,1.063829787,1.063829787
519,,摩纳哥,,Monaco,43.7384,7.4246,23,0,1,22,0,4.347826087
520,,蒙古国,,Mongolia,46.8625,103.8467,10,0,0,10,0,0
521,,黑山,,Montenegro,42.7087,19.3744,21,0,0,21,0,0
522,,摩洛哥,,Morocco,31.7917,-7.0926,115,4,3,108,3.47826087,2.608695652
523,,莫桑比克,,Mozambique,-18.6657,35.5296,1,0,0,1,0,0
524,,纳米比亚,,Namibia,-22.9576,18.4904,3,0,0,3,0,0
525,,尼泊尔,,Nepal,28.3949,84.124,2,0,1,1,0,50
526,本土,荷兰,,Netherlands,52.1326,5.2913,4204,179,2,4023,4.257849667,0.047573739
527,阿鲁巴,荷兰,Aruba,Netherlands,12.5211,-69.9683,8,0,0,8,0,0
528,库拉索,荷兰,Curacao,Netherlands,12.1696,-68.99,3,1,0,2,33.33333333,0
529,圣马丁,荷兰,Sint Maarten,Netherlands,18.0425,-63.0548,1,0,0,1,0,0
530,,新西兰,,New Zealand,-40.9006,174.886,66,0,0,66,0,0
531,,尼加拉瓜,,Nicaragua,12.8654,-85.2072,2,0,0,2,0,0
532,,尼日尔,,Niger,17.6078,8.0817,2,0,0,2,0,0
533,,尼日利亚,,Nigeria,9.082,8.6753,30,0,2,28,0,6.666666667
534,,北马其顿,,North Macedonia,41.6086,21.7453,114,1,1,112,0.877192982,0.877192982
535,,挪威,,Norway,60.472,8.4689,2383,7,1,2375,0.293747377,0.041963911
536,,阿曼,,Oman,21.4735,55.9754,55,0,17,38,0,30.90909091
537,,巴基斯坦,,Pakistan,30.3753,69.3451,776,5,5,766,0.644329897,0.644329897
538,,巴拿马,,Panama,8.538,-80.7821,245,3,0,242,1.224489796,0
539,,巴布亚新几内亚,,Papua New Guinea,-6.315,143.9555,1,0,0,1,0,0
540,,巴拉圭,,Paraguay,-23.4425,-58.4438,22,1,0,21,4.545454545,0
541,,秘鲁,,Peru,-9.19,-75.0152,363,5,1,357,1.377410468,0.275482094
542,,菲律宾,,Philippines,12.8797,121.774,380,25,17,338,6.578947368,4.473684211
543,,波兰,,Poland,51.9194,19.1451,634,7,1,626,1.104100946,0.157728707
544,,葡萄牙,,Portugal,39.3999,-8.2245,1600,14,5,1581,0.875,0.3125
546,,卡塔尔,,Qatar,25.3548,51.1839,494,0,33,461,0,6.680161943
548,留尼汪,法国,Reunion,France,-21.1151,55.5364,47,0,0,47,0,0
549,,罗马尼亚,,Romania,45.9432,24.9668,433,3,64,366,0.692840647,14.78060046
550,,俄罗斯,,Russia,61.524,105.3188,367,0,16,351,0,4.359673025
551,,卢旺达,,Rwanda,-1.9403,29.8739,19,0,0,19,0,0
552,,圣卢西亚,,Saint Lucia,13.9094,-60.9789,2,0,0,2,0,0
553,,圣文森特和格林纳丁斯,,Saint Vincent and the Grenadines,12.9843,-61.2872,1,0,0,1,0,0
554,,圣马力诺,,San Marino,43.9424,12.4578,160,20,4,136,12.5,2.5
555,,沙特,,Saudi Arabia,23.8859,45.0792,511,0,16,495,0,3.13111546
556,,塞内加尔,,Senegal,14.4974,-14.4524,67,0,5,62,0,7.462686567
557,,塞尔维亚,,Serbia,44.0165,21.0059,222,2,1,219,0.900900901,0.45045045
558,,塞舌尔,,Seychelles,-4.6796,55.492,7,0,0,7,0,0
559,,新加坡,,Singapore,1.3521,103.8198,455,2,144,309,0.43956044,31.64835165
560,,斯洛伐克,,Slovakia,48.669,19.699,185,1,7,177,0.540540541,3.783783784
561,,斯洛文尼亚,,Slovenia,46.1512,14.9955,414,2,0,412,0.483091787,0
562,,索马里,,Somalia,5.1521,46.1996,1,0,0,1,0,0
563,,南非,,South Africa,-30.5595,22.9375,274,0,0,274,0,0
564,,西班牙,,Spain,40.4637,-3.7492,28768,1772,2575,24421,6.159621802,8.950917686
565,,斯里兰卡,,Sri Lanka,7.8731,80.7718,82,0,3,79,0,3.658536585
566,,苏丹,,Sudan,12.8628,30.2176,2,1,0,1,50,0
567,,苏里南,,Suriname,3.9193,-56.0278,5,0,0,5,0,0
568,,瑞典,,Sweden,60.1282,18.6435,1934,21,16,1897,1.085832472,0.827300931
569,,瑞士,,Switzerland,46.8182,8.2275,7245,98,131,7016,1.352657005,1.808143547
570,,叙利亚,,Syria,34.8021,38.9968,1,0,0,1,0,0
571,,坦桑尼亚,,Tanzania,-6.369,34.8888,12,0,0,12,0,0
572,,泰国,,Thailand,15.87,100.9925,599,1,44,554,0.166944908,7.34557596
575,,东帝汶,,Timor-Leste,-8.8742,125.7275,1,0,0,1,0,0
576,,多哥,,Togo,8.6195,0.8248,16,0,1,15,0,6.25
577,,特立尼达和多巴哥,,Trinidad and Tobago,10.6918,-61.2225,50,0,1,49,0,2
578,,突尼斯,,Tunisia,33.8869,9.5375,75,3,1,71,4,1.333333333
579,,土耳其,,Turkey,38.9637,35.2433,1236,30,0,1206,2.427184466,0
580,,乌干达,,Uganda,1.3733,32.2903,1,0,0,1,0,0
581,,乌克兰,,Ukraine,48.3794,31.1656,73,3,1,69,4.109589041,1.369863014
582,,阿联酋,,United Arab Emirates,23.4241,53.8478,153,2,38,113,1.307189542,24.83660131
583,本土,英国,,UK,55.3781,-3.436,5683,281,65,5337,4.944571529,1.143762097
584,海峡群岛,英国,Channel Islands,UK,49.3723,-2.3644,32,0,0,32,0,0
585,直布罗陀,英国,Gibraltar,UK,36.1408,-5.3536,15,0,2,13,0,13.33333333
586,曼恩岛,英国皇室私人领地,Isle of Man,UK,54.2361,-4.5481,5,0,0,5,0,0
587,开曼群岛,英国,Cayman Islands,UK,19.3133,-81.2546,3,1,0,2,33.33333333,0
588,百慕大,英国,Bermuda,UK,32.3078,-64.7505,2,0,0,2,0,0
589,蒙特赛拉特,英国,Montserrat,UK,16.7425,-62.1874,1,0,0,1,0,0
590,,乌拉圭,,Uruguay,-32.5228,-55.7658,135,0,0,135,0,0
591,纽约州,美国,New York,US,42.1657,-74.9481,15793,117,0,15676,0.740834547,0
592,华盛顿州,美国,Washington,US,47.4009,-121.4905,1996,95,0,1901,4.759519038,0
593,新泽西州,美国,New Jersey,US,40.2989,-74.521,1914,20,0,1894,1.044932079,0
594,加利福尼亚州,美国,California,US,36.1162,-119.6816,1642,30,0,1612,1.827040195,0
595,伊利诺伊州,美国,Illinois,US,40.3495,-88.9861,1049,9,0,1040,0.857959962,0
596,密歇根州,美国,Michigan,US,43.3266,-84.5361,1037,9,0,1028,0.867888139,0
597,路易斯安那州,美国,Louisiana,US,31.1695,-91.8678,837,20,0,817,2.38948626,0
598,佛罗里达州,美国,Florida,US,27.7663,-81.6868,830,13,0,817,1.56626506,0
599,马萨诸塞州,美国,Massachusetts,US,42.2302,-71.5301,646,5,0,641,0.773993808,0
600,得克萨斯州,美国,Texas,US,31.0545,-97.5635,627,6,0,621,0.956937799,0
601,乔治亚州,美国,Georgia,US,33.0406,-83.6431,600,23,0,577,3.833333333,0
602,宾夕法尼亚州,美国,Pennsylvania,US,40.5908,-77.2098,509,3,0,506,0.589390963,0
603,田纳西州,美国,Tennessee,US,35.7478,-86.6923,505,2,0,503,0.396039604,0
604,科罗拉多州,美国,Colorado,US,39.0598,-105.3111,476,6,0,470,1.260504202,0
605,威斯康辛州,美国,Wisconsin,US,44.2685,-89.6165,381,4,0,377,1.049868766,0
606,俄亥俄州,美国,Ohio,US,40.3888,-82.7649,355,3,0,352,0.845070423,0
607,北卡罗来纳州,美国,North Carolina,US,35.6301,-79.8064,302,0,0,302,0,0
608,马里兰州,美国,Maryland,US,39.0639,-76.8021,244,3,0,241,1.229508197,0
609,康涅狄格州,美国,Connecticut,US,41.5978,-72.7554,223,5,0,218,2.242152466,0
610,弗吉尼亚州,美国,Virginia,US,37.7693,-78.17,221,6,0,215,2.714932127,0
611,密西西比州,美国,Mississippi,US,32.7416,-89.6787,207,1,0,206,0.483091787,0
612,印第安纳州,美国,Indiana,US,39.8494,-86.2583,201,6,0,195,2.985074627,0
613,南卡罗来纳州,美国,South Carolina,US,33.8569,-80.945,196,3,0,193,1.530612245,0
614,内华达州,美国,Nevada,US,38.3135,-117.0554,190,2,0,188,1.052631579,0
615,犹他州,美国,Utah,US,40.15,-111.8624,181,1,0,180,0.552486188,0
616,明尼苏达在,美国,Minnesota,US,45.6945,-93.9002,169,1,0,168,0.591715976,0
617,阿肯色州,美国,Arkansas,US,34.9697,-92.3731,165,0,0,165,0,0
618,俄勒冈州,美国,Oregon,US,44.572,-122.0709,161,4,0,157,2.48447205,0
619,亚利桑那州,美国,Arizona,US,33.7298,-111.4312,152,2,0,150,1.315789474,0
620,亚拉巴马州,美国,Alabama,US,32.3182,-86.9023,138,0,0,138,0,0
621,华盛顿哥伦比亚特区,美国,District of Columbia,US,38.8974,-77.0268,102,2,0,100,1.960784314,0
622,密苏里州,美国,Missouri,US,38.4561,-92.2884,100,3,0,97,3,0
623,肯塔基州,美国,Kentucky,US,37.6681,-84.6701,99,3,0,96,3.03030303,0
624,艾奥瓦州,美国,Iowa,US,42.0115,-93.2105,90,0,0,90,0,0
625,缅因州,美国,Maine,US,44.6939,-69.3819,89,0,0,89,0,0
626,罗德岛州,美国,Rhode Island,US,41.6809,-71.5118,83,0,0,83,0,0
627,俄克拉荷马州,美国,Oklahoma,US,35.5653,-96.9289,67,2,0,65,2.985074627,0
628,新罕布夏州,美国,New Hampshire,US,43.4525,-71.5639,65,0,0,65,0,0
629,堪萨斯州,美国,Kansas,US,38.5266,-96.7265,64,2,0,62,3.125,0
630,新墨西哥州,,New Mexico,US,34.8405,-106.2485,57,0,0,57,0,0
631,维蒙特州,美国,Vermont,US,44.0459,-72.7107,52,2,0,50,3.846153846,0
632,内布拉斯加州,美国,Nebraska,US,41.1254,-98.2681,51,0,0,51,0,0
633,钻石公主号撤离,美国,Diamond Princess,US,35.4437,139.638,49,0,0,49,0,0
634,夏威夷州,美国,Hawaii,US,21.0943,-157.4983,48,0,0,48,0,0
635,德拉瓦州,美国,Delaware,US,39.3185,-75.5071,47,0,0,47,0,0
636,爱达荷州,美国,Idaho,US,44.2405,-114.4788,42,0,0,42,0,0
637,蒙大拿州,美国,Montana,US,46.9219,-110.4544,31,0,0,31,0,0
638,至尊公主号乘客,,Grand Princess,,37.6489,-122.6655,30,1,0,29,3.333333333,0
639,北达科他州,美国,North Dakota,US,47.5289,-99.784,28,0,0,28,0,0
640,关岛,美国,Guam,US,13.4443,144.7937,27,1,0,26,3.703703704,0
641,怀俄明州,美国,Wyoming,US,42.756,-107.3025,24,0,0,24,0,0
642,波多黎各,美国,Puerto Rico,US,18.2208,-66.5901,23,1,0,22,4.347826087,0
643,阿拉斯加州,美国,Alaska,US,61.3707,-152.4044,21,0,0,21,0,0
644,南达科他州,美国,South Dakota,US,44.2998,-99.4388,21,1,0,20,4.761904762,0
645,西弗吉尼亚州,美国,West Virginia,US,38.4912,-80.9545,12,0,0,12,0,0
646,美属维京群岛,美国,US Virgin Islands,US,18.3358,-64.8963,6,0,0,6,0,0
647,,乌兹别克斯坦,,Uzbekistan,41.3775,64.5853,43,0,0,43,0,0
648,,委内瑞拉,,Venezuela,6.4238,-66.5897,70,0,15,55,0,21.42857143
649,,越南,,Vietnam,14.0583,108.2772,113,0,17,96,0,15.04424779
650,,赞比亚,,Zambia,-13.1339,27.8493,3,0,0,3,0,0
651,,津巴布韦,,Zimbabwe,-19.0154,29.1549,3,0,0,3,0,0