	city_cn	province_cn	city	province	lat	lon	case	death	cure	remain	death_rate	cure_rate
1	长沙	中国湖南	Changsha	Hunan China	28.322759	113.224946	242	2	240	0	0.826446281	99.17355372
2	岳阳	中国湖南	Yueyang	Hunan China	29.178499	113.237527	156	1	155	0	0.641025641	99.35897436
3	怀化	中国湖南	Huaihua	Hunan China	27.612024	109.945539	40	0	40	0	0	100
4	娄底	中国湖南	Loudi	Hunan China	27.766945	112.004619	76	0	76	0	0	100
5	永州	中国湖南	Yongzhou	Hunan China	26.560382	111.621586	44	0	44	0	0	100
6	益阳	中国湖南	Yiyang	Hunan China	28.588088	112.366547	60	0	60	0	0	100
7	衡阳	中国湖南	Hengyang	Hunan China	27.109626	112.351579	48	0	48	0	0	100
8	常德	中国湖南	Changde	Hunan China	28.995243	111.747796	82	0	82	0	0	100
9	湘潭	中国湖南	Xiangtan	Hunan China	27.669223	112.788805	36	0	36	0	0	100
10	邵阳	中国湖南	Shaoyang	Hunan China	26.984977	111.332372	102	1	101	0	0.980392157	99.01960784
11	株洲	中国湖南	Zhuzhou	Hunan China	27.535936	113.153348	80	0	80	0	0	100
12	郴州	中国湖南	Chenzhou	Hunan China	25.773515	113.051002	39	0	39	0	0	100
13	湘西自治州	中国湖南	Xiangxi	Hunan China	28.26	109.69	8	0	8	0	0	100
14	张家界	中国湖南	Zhangjiajie	Hunan China	29.13	110.48	5	0	5	0	0	100
15	武汉	中国湖北	Wuhan	Hubei China	30.581084	114.3162	50008	2579	47283	146	5.157174852	94.55087186
16	黄冈	中国湖北	Huanggang	Hubei China	30.518802	114.949569	2907	125	2782	0	4.2999656	95.7000344
17	孝感	中国湖北	Xiaogan	Hubei China	30.944617	114.016142	3518	129	3389	0	3.666856168	96.33314383
18	咸宁	中国湖北	Xianning	Hubei China	29.85465	114.391867	836	15	821	0	1.794258373	98.20574163
19	荆门	中国湖北	Jingmen	Hubei China	30.932878	112.193923	928	41	887	0	4.418103448	95.58189655
20	随州	中国湖北	Suizhou	Hubei China	31.890024	113.294246	1307	45	1262	0	3.442999235	96.55700077
21	荆州	中国湖北	Jingzhou	Hubei China	30.396103	112.099857	1580	52	1528	0	3.291139241	96.70886076
22	黄石	中国湖北	Huangshi	Hubei China	30.218698	114.903009	1015	39	976	0	3.842364532	96.15763547
23	宜昌	中国湖北	Yichang	Hubei China	30.979971	111.310649	931	37	894	0	3.974221267	96.02577873
24	十堰	中国湖北	Shiyan	Hubei China	32.66384	110.717401	672	8	664	0	1.19047619	98.80952381
25	恩施	中国湖北	Enshi	Hubei China	32	109.5	252	6	233	13	2.380952381	92.46031746
26	仙桃	中国湖北	Xiantao	Hubei China	30.293966	113.387448	575	22	553	0	3.826086957	96.17391304
27	天门	中国湖北	Tianmen	Hubei China	30.649047	113.12623	496	15	481	0	3.024193548	96.97580645
28	襄阳	中国湖北	Xiangyang	Hubei China	32.229169	112.250093	1175	40	1135	0	3.404255319	96.59574468
29	鄂州	中国湖北	Ezhou	Hubei China	30.320603	114.901016	1394	59	1335	0	4.232424677	95.76757532
30	神农架	中国湖北	Shennongjia	Hubei China	31.74	110.684	11	0	11	0	0	100
31	黔江	中国湖北	Qianjiang	Hubei China	30.4	112.89	198	9	172	17	4.545454545	86.86868687
32	信阳	中国河南	Xinyang	Henan China	32.30784	114.139086	274	2	272	0	0.729927007	99.27007299
33	郑州	中国河南	Zhengzhou	Henan China	34.759791	113.62	157	5	152	0	3.184713376	96.81528662
34	南阳	中国河南	Nanyang	Henan China	33.009839	112.484267	156	3	153	0	1.923076923	98.07692308
35	驻马店	中国河南	Zhumadian	Henan China	32.968357	114.00829	139	0	139	0	0	100
36	周口	中国河南	Zhoukou	Henan China	33.630876	114.65795	76	1	75	0	1.315789474	98.68421053
37	新乡	中国河南	Xinxiang	Henan China	35.3	113.92	57	3	54	0	5.263157895	94.73684211
38	安阳	中国河南	Anyang	Henan China	36.056025	114.256604	53	0	53	0	0	100
39	漯河	中国河南	Luohe	Henan China	33.534755	113.923601	36	0	36	0	0	100
40	三门峡	中国河南	Sanmenxia	Henan China	34.771778	111.281295	7	1	6	0	14.28571429	85.71428571
41	巩义	中国河南	Gongyi	Henan China	34.703799	113.03959	NA	NA	NA	#VALUE!	#VALUE!	#VALUE!
42	平顶山	中国河南	Pingdingshan	Henan China	33.712341	113.278189	58	1	57	0	1.724137931	98.27586207
43	洛阳	中国河南	Luoyang	Henan China	34.638792	112.467093	31	1	30	0	3.225806452	96.77419355
44	商丘	中国河南	Shangqiu	Henan China	34.42	115.65	91	3	88	0	3.296703297	96.7032967
45	开封	中国河南	Kaifeng	Henan China	34.798	114.346	26	0	26	0	0	100
46	鹤壁	中国河南	Hebi	Henan China	35.74	114.295	19	0	19	0	0	100
47	许昌	中国河南	Xuchang	Henan China	34	113.8	39	1	38	0	2.564102564	97.43589744
48	焦作	中国河南	Jiaozuo	Henan China	35.2	113.257	32	1	31	0	3.125	96.875
49	濮阳	中国河南	Puyang	Henan China	35.76	115.02	17	0	17	0	0	100
50	济源	中国河南	Jiyuan	Henan China	35.1	112.58	5	0	5	0	0	100
51	深圳	中国广东	Shenzhen	Guangdong China	22.606981	114.278483	458	3	424	31	0.655021834	92.57641921
52	广州	中国广东	Guangzhou	Guangdong China	23.446661	113.220176	494	1	442	51	0.20242915	89.47368421
53	珠海	中国广东	Zhuhai	Guangdong China	22.047215	113.41759	103	1	99	3	0.970873786	96.11650485
54	佛山	中国广东	Foshan	Guangdong China	22.824523	112.683258	98	0	85	13	0	86.73469388
55	惠州	中国广东	Huizhou	Guangdong China	23.163063	114.485898	62	0	62	0	0	100
56	阳江	中国广东	Yangjiang	Guangdong China	21.762804	111.930036	14	0	14	0	0	100
57	韶关	中国广东	Shaoguan	Guangdong China	24.919162	113.57745	10	1	9	0	10	90
58	湛江	中国广东	Zhanjiang	Guangdong China	21.0941	110.338022	24	0	23	1	0	95.83333333
59	中山	中国广东	Zhongshan	Guangdong China	22.545178	113.42206	68	0	68	0	0	100
60	肇庆	中国广东	Zhaoqing	Guangdong China	23.208968	112.625249	20	1	18	1	5	90
61	清远	中国广东	Qingyuan	Guangdong China	23.625856	113.114585	12	0	12	0	0	100
62	东莞	中国广东	Dongguan	Guangdong China	23.043024	113.763434	100	1	99	0	1	99
63	汕头	中国广东	Shantou	Guangdong China	23.532997	116.814808	26	0	26	0	0	100
64	汕尾	中国广东	Shanwei	Guangdong China	22.8	115.38	5	0	5	0	0	100
65	梅州	中国广东	Meizhou	Guangdong China	24.3	116.119	17	0	16	1	0	94.11764706
66	揭阳	中国广东	Jieyang	Guangdong China	23.53	116.34	11	0	8	3	0	72.72727273
67	河源	中国广东	Heyuan	Guangdong China	23.74	114.69	5	0	4	1	0	80
68	茂名	中国广东	Maoming	Guangdong China	21.665	110.92	14	0	14	0	0	100
69	江门	中国广东	Jiangmen	Guangdong China	22.57	113.079	24	0	23	1	0	95.83333333
70	潮州	中国广东	Chaozhou	Guangdong China	23.656	116.62	6	0	5	1	0	83.33333333
71	泰州	中国浙江	Taizhou	Zhejiang China	28.548659	121.450242	37	0	37	0	0	100
72	杭州	中国浙江	Hangzhou	Zhejiang China	30.38812	119.998089	181	0	181	0	0	100
73	温州	中国浙江	Wenzhou	Zhejiang China	27.972177	120.558404	504	1	503	0	0.198412698	99.8015873
74	宁波	中国浙江	Ningbo	Zhejiang China	29.785459	121.537835	157	0	157	0	0	100
75	嘉兴	中国浙江	Jiaxing	Zhejiang China	30.777679	120.691907	46	0	46	0	0	100
76	绍兴	中国浙江	Shaoxing	Zhejiang China	29.968789	120.572451	42	0	42	0	0	100
77	舟山	中国浙江	Zhoushan	Zhejiang China	29.871101	122.278765	10	0	10	0	0	100
78	金华	中国浙江	Jinhua	Zhejiang China	29.155526	119.809227	55	0	55	0	0	100
79	衢州	中国浙江	Quzhou	Zhejiang China	28.941983	118.939044	14	0	14	0	0	100
80	丽水	中国浙江	Lishui	Zhejiang China	28.48	119.921	17	0	17	0	0	100
81	湖州	中国浙江	Huzhou	Zhejiang China	30.89	120.1	10	0	10	0	0	100
82	万州	中国重庆	Wanzhou	Chongqing China	30.710054	108.413439	118	4	111	3	3.389830508	94.06779661
83	长寿	中国重庆	Changshou	Chongqing China	29.960491	107.146615	22	0	18	4	0	81.81818182
84	开州	中国重庆	Kaizhou	Chongqing China	31.2	108.4	21	1	20	0	4.761904762	95.23809524
85	永川	中国重庆	Yongchuan	Chongqing China	29.296488	105.880358	5	0	5	0	0	100
86	忠县	中国重庆	Zhongxian	Chongqing China	30.342003	107.921738	21	0	21	0	0	100
87	巫山	中国重庆	Wushan	Chongqing China	31.121152	109.908611	10	0	10	0	0	100
88	石柱	中国重庆	Shizhu	Chongqing China	29.9	108	15	0	15	0	0	100
89	重庆市区	中国重庆	Chongqing	Chongqing China	29.59	106.54	121	1	120	0	0.826446281	99.17355372
90	渝北	中国重庆	Yubei	Chongqing China	29.816264	106.753799	17	0	17	0	0	100
91	垫江	中国重庆	Dianjiang	Chongqing China	30.259498	107.444445	20	0	20	0	0	100
92	云阳	中国重庆	Yunyang	Chongqing China	31.042409	108.863186	25	0	25	0	0	100
93	无锡	中国重庆	Wuxi	Chongqing China	31.509161	109.360531	55	0	55	0	0	100
94	合川	中国重庆	Hechuan	Chongqing China	30.118708	106.318029	23	0	23	0	0	100
95	璧山	中国重庆	Bishan	Chongqing China	29.5	106.17	9	0	9	0	0	100
96	涪陵	中国重庆	Fuling	Chongqing China	29.664671	107.3408	5	0	5	0	0	100
97	奉节	中国重庆	Fengjie	Chongqing China	30.958553	109.355667	22	0	22	0	0	100
98	秀山	中国重庆	Xiushan	Chongqing China	28.38	109.06	1	0	1	0	0	100
99	梁平	中国重庆	Liangping	Chongqing China	30.65	107.8	4	0	4	0	0	100
100	城口	中国重庆	Chengkou	Chongqing China	31.888131	108.741855	2	0	2	0	0	100
101	大足	中国重庆	Dazu	Chongqing China	29.714	105.72	14	0	13	1	0	92.85714286
102	丰都	中国重庆	Fengdu	Chongqing China	29.890596	107.837517	10	0	8	2	0	80
103	黔江	中国重庆	Qianjiang	Chongqing China	29.53	108.76	2	0	2	0	0	100
104	万盛	中国重庆	Wansheng	Chongqing China	28.962248	106.924888	1	0	1	0	0	100
105	潼南	中国重庆	Tongnan	Chongqing China	30.19	105.84	18	0	15	3	0	83.33333333
106	铜梁	中国重庆	Tongliang	Chongqing China	29.85	106.05	10	0	9	1	0	90
107	綦江	中国重庆	Qijiang	Chongqing China	29.03	106.64	23	0	20	3	0	86.95652174
108	江津	中国重庆	Jiangjin	Chongqing China	29.28	106.26	4	0	4	0	0	100
109	巴南	中国重庆	Banan	Chongqing China	29.37	106.52	6	0	5	1	0	83.33333333
110	武隆	中国重庆	Wulong	Chongqing China	29.33	107.75	1	0	1	0	0	100
111	酉阳	中国重庆	Youyang	Chongqing China	28.844414	108.763426	1	0	1	0	0	100
112	荣昌	中国重庆	Rongchang	Chongqing China	29.422	105.61	9	0	8	1	0	88.88888889
113	彭水	中国重庆	Pengshui	Chongqing China	29.293585	108.165373	2	0	2	0	0	100
114	北京市区	中国北京	Beijing	Beijing China	39.92	116.46	263	0	13	250	0	4.942965779
115	昌平	中国北京	Changping	Beijing China	40.221724	116.216456	29	0	10	19	0	34.48275862
116	通州	中国北京	Tongzhou	Beijing China	32.081032	121.028859	19	0	1	18	0	5.263157895
117	大兴	中国北京	Daxing	Beijing China	39.73	116.33	39	0	16	23	0	41.02564103
118	顺义	中国北京	Shunyi	Beijing China	40.154951	116.728229	10	0	0	10	0	0
119	门头沟	中国北京	Mentougou	Beijing China	39.94	116.1	3	0	2	1	0	66.66666667
120	房山	中国北京	Fangshan	Beijing China	39.744	116.134254	16	0	3	13	0	18.75
121	延庆	中国北京	Yanqing	Beijing China	40.4565	115.971	1	0	0	1	0	0
122	密云	中国北京	Miyun	Beijing China	40.375043	116.83548	7	0	0	7	0	0
123	怀柔	中国北京	Huairou	Beijing China	40.315	116.626	7	0	0	7	0	0
124	上海	中国上海	Shanghai	Shanghai China	31.2	121.560642	628	7	485	136	1.114649682	77.22929936
125	临沂	中国山东	Linyi	Shandong China	35.127031	118.517311	49	0	49	0	0	100
126	青岛	中国山东	Tsingtao	Shandong China	36.284247	120.346326	63	1	60	2	1.587301587	95.23809524
127	威海	中国山东	Weihai	Shandong China	37.399344	122.152075	38	1	37	0	2.631578947	97.36842105
128	日照	中国山东	Rizhao	Shandong China	35.469377	119.377852	16	0	16	0	0	100
129	济宁	中国山东	Jining	Shandong China	35.380135	116.572199	260	0	260	0	0	100
130	济南	中国山东	Jinan	Shandong China	36.42857	116.803552	47	0	47	0	0	100
131	德州	中国山东	Dezhou	Shandong China	37.457437	116.332912	37	2	35	0	5.405405405	94.59459459
132	潍坊	中国山东	Weifang	Shandong China	36.691227	119.196972	44	0	44	0	0	100
133	烟台	中国山东	Yantai	Shandong China	37.407476	121.451535	47	0	47	0	0	100
134	聊城	中国山东	Liaocheng	Shandong China	36.45583	115.907706	38	0	38	0	0	100
135	滨州	中国山东	Binzhou	Shandong China	37.424891	117.981211	15	0	15	0	0	100
136	菏泽	中国山东	Heze	Shandong China	35.26244	115.46336	18	0	18	0	0	100
137	淄博	中国山东	Zibo	Shandong China	36.771219	117.875108	30	1	29	0	3.333333333	96.66666667
138	枣庄	中国山东	Zaozhuang	Shandong China	34.82	117.31	24	0	24	0	0	100
139	泰安	中国山东	Tai An	Shandong China	36.189	117.1	35	2	33	0	5.714285714	94.28571429
140	合肥	中国安徽	Hefei	Anhui China	31.790724	117.353913	174	1	173	0	0.574712644	99.42528736
141	阜阳	中国安徽	Fuyang	Anhui China	33.07351	115.734026	155	0	155	0	0	100
142	亳州	中国安徽	Bozhou	Anhui China	33.782924	115.812814	108	0	108	0	0	100
143	安庆	中国安徽	Anqing	Anhui China	31.859252	117.216005	83	0	83	0	0	100
144	马鞍山	中国安徽	Maanshan	Anhui China	31.659719	118.554558	38	0	38	0	0	100
145	铜陵	中国安徽	Tongling	Anhui China	30.952359	117.918516	29	0	29	0	0	100
146	六安	中国安徽	Lu An	Anhui China	31.753039	116.302573	69	0	69	0	0	100
147	滁州	中国安徽	Chuzhou	Anhui China	32.310209	118.270828	13	0	13	0	0	100
148	池州	中国安徽	Chizhou	Anhui China	30.514086	117.508478	17	0	17	0	0	100
149	蚌埠	中国安徽	Bengbu	Anhui China	33.023815	117.388184	160	5	155	0	3.125	96.875
150	芜湖	中国安徽	Wuhu	Anhui China	31.191699	118.532462	34	0	34	0	0	100
151	黄山	中国安徽	Huangshan	Anhui China	29.7	118.314	9	0	9	0	0	100
152	淮北	中国安徽	Huaibei	Anhui China	33.94	116.9	28	0	27	1	0	96.42857143
153	淮南	中国安徽	Huainan	Anhui China	32.58	117	27	0	27	0	0	100
154	苏州	中国安徽	Suzhou	Anhui China	33.639	116.96	87	0	87	0	0	100
155	宣城	中国安徽	Xuancheng	Anhui China	30.92	118.8	6	0	6	0	0	100
156	赣州	中国江西	Ganzhou	Jiangxi China	25.838711	114.937365	76	1	75	0	1.315789474	98.68421053
157	福州	中国江西	Fuzhou	Jiangxi China	27.924732	116.362974	72	1	71	0	1.388888889	98.61111111
158	上饶	中国江西	Shangrao	Jiangxi China	28.40568	117.944367	123	0	123	0	0	100
159	宜春	中国江西	Yichun	Jiangxi China	27.839383	114.290358	106	0	106	0	0	100
160	南昌	中国江西	Nanchang	Jiangxi China	28.620772	116.071261	230	0	230	0	0	100
161	萍乡	中国江西	Pingxiang	Jiangxi China	27.53371	113.739818	33	0	33	0	0	100
162	九江	中国江西	Jiujiang	Jiangxi China	29.64023	115.842035	118	0	118	0	0	100
163	吉安	中国江西	Ji An	Jiangxi China	27.160925	114.960437	22	0	22	0	0	100
164	新余	中国江西	Xinyu	Jiangxi China	27.850578	115.007851	130	0	130	0	0	100
165	景德镇	中国江西	Jingdezhen	Jiangxi China	29.303231	117.234119	6	0	6	0	0	100
166	鹰潭	中国江西	Yingtan	Jiangxi China	28.261751	117.023752	18	0	18	0	0	100
167	赣江新区	中国江西	Gan River New District	Jiangxi China	28.815514	115.946982	1	0	1	0	0	100
168	桂林	中国广西	Guilin	Guangxi China	25.112806	110.371485	32	0	32	0	0	100
169	北海	中国广西	Beihai	Guangxi China	21.574915	109.422489	44	1	43	0	2.272727273	97.72727273
170	柳州	中国广西	Liuzhou	Guangxi China	24.471743	109.413915	24	0	24	0	0	100
171	河池	中国广西	Hechi	Guangxi China	24.660762	107.873444	28	1	27	0	3.571428571	96.42857143
172	梧州	中国广西	Wuzhou	Guangxi China	23.5602	111.189914	5	0	5	0	0	100
173	百色	中国广西	Baise	Guangxi China	23.941866	106.505596	3	0	3	0	0	100
174	防城港	中国广西	Fangchenggang	Guangxi China	21.662036	108.449166	19	0	19	0	0	100
175	南宁	中国广西	Nanning	Guangxi China	22.894927	108.573583	55	0	55	0	0	100
176	榆林	中国广西	Yulin	Guangxi China	22.557213	110.064534	3	0	3	0	0	100
177	贺州	中国广西	Hezhou	Guangxi China	24.415	111.54	4	0	4	0	0	100
178	钦州	中国广西	Qinzhou	Guangxi China	21.97	108.617	8	0	8	0	0	100
179	贵港	中国广西	Guigang	Guangxi China	23.1	109.59	8	0	8	0	0	100
180	来宾	中国广西	Laibin	Guangxi China	23.746383	109.218231	11	0	11	0	0	100
181	三亚	中国海南	Sanya	Hainan China	18.397248	109.429348	54	1	53	0	1.851851852	98.14814815
182	万宁	中国海南	Wanning	Hainan China	18.839886	110.292505	13	0	13	0	0	100
183	海口	中国海南	Haikou	Hainan China	19.942909	110.507269	39	0	39	0	0	100
184	儋州	中国海南	Danzhou	Hainan China	19.571153	109.413973	15	1	14	0	6.666666667	93.33333333
185	临高	中国海南	Lingao	Hainan China	19.805922	109.724102	6	0	6	0	0	100
186	陵水	中国海南	Lingshui	Hainan China	18.506	110.0375	4	0	4	0	0	100
187	澄迈	中国海南	Chengmai	Hainan China	19.7	110	9	1	8	0	11.11111111	88.88888889
188	琼中	中国海南	Qiongzhong	Hainan China	19.04	109.82	1	0	1	0	0	100
189	东方	中国海南	Dongfang	Hainan China	19.09	108.66	3	1	2	0	33.33333333	66.66666667
190	琼海	中国海南	Qionghai	Hainan China	19.256	110.468	6	1	5	0	16.66666667	83.33333333
191	定安	中国海南	Ding An	Hainan China	19.68	110.36	3	1	2	0	33.33333333	66.66666667
192	昌江	中国海南	Changjiang	Hainan China	19.298	109.04	7	0	7	0	0	100
193	乐东	中国海南	Ledong	Hainan China	18.75	109.168	2	0	2	0	0	100
194	文昌	中国海南	Wenchang	Hainan China	19.539	110.787	3	0	3	0	0	100
195	保亭	中国海南	Baoting	Hainan China	18.64104	109.694892	3	0	3	0	0	100
196	福州	中国福建	Fuzhou	Fujian China	26.221752	119.314923	72	1	71	0	1.388888889	98.61111111
197	厦门	中国福建	Xiamen	Fujian China	24.675485	118.280803	35	0	35	0	0	100
198	泉州	中国福建	Quanzhou	Fujian China	25.173479	118.819017	47	0	47	0	0	100
199	漳州	中国福建	Zhangzhou	Fujian China	24.575089	117.633366	20	0	20	0	0	100
200	宁德	中国福建	Ningde	Fujian China	26.763865	119.454559	26	0	26	0	0	100
201	三明	中国福建	Sanming	Fujian China	26.173967	117.516896	14	0	14	0	0	100
202	莆田	中国福建	Putian	Fujian China	25.41	119	56	0	56	0	0	100
203	南平	中国福建	Nanping	Fujian China	26.63	118.18	20	0	20	0	0	100
204	龙岩	中国福建	Longyan	Fujian China	25.1	117	6	0	6	0	0	100
205	常州	中国江苏	Changzhou	Jiangsu China	31.672903	119.943432	51	0	51	0	0	100
206	南京	中国江苏	Nanjing	Jiangsu China	32.40064	118.848166	93	0	93	0	0	100
207	苏州	中国江苏	Suzhou	Jiangsu China	31.332306	120.630878	87	0	87	0	0	100
208	连云港	中国江苏	Lianyungang	Jiangsu China	34.51416	119.162196	48	0	48	0	0	100
209	无锡	中国江苏	Wuxi	Jiangsu China	31.466579	120.248502	55	0	55	0	0	100
210	南通	中国江苏	Nantong	Jiangsu China	32.071256	120.823875	40	0	40	0	0	100
211	扬州	中国江苏	Yangzhou	Jiangsu China	32.408505	119.427778	23	0	23	0	0	100
212	盐城	中国江苏	Yancheng	Jiangsu China	33.265898	119.968501	27	0	27	0	0	100
213	宿迁	中国江苏	Suqian	Jiangsu China	34.00953	118.343693	13	0	13	0	0	100
214	镇江	中国江苏	Zhenjiang	Jiangsu China	32.198	119.46	12	0	12	0	0	100
215	淮安	中国江苏	Huai An	Jiangsu China	33.589	119.03	66	0	66	0	0	100
216	泰州	中国江苏	Taizhou	Jiangsu China	32.45	119.91	37	0	37	0	0	100
217	徐州	中国江苏	Xuzhou	Jiangsu China	34.27	117.186999	79	0	79	0	0	100
218	沈阳	中国辽宁	Shenyang	Liaoning China	41.843551	123.242847	28	0	28	0	0	100
219	大连	中国辽宁	Dalian	Liaoning China	38.92	121.62	18	0	17	1	0	94.44444444
220	朝阳	中国辽宁	Chaoyang	Liaoning China	41.55	120.4	6	1	5	0	16.66666667	83.33333333
221	铁岭	中国辽宁	Tieling	Liaoning China	42.222765	123.914529	7	0	7	0	0	100
222	葫芦岛	中国辽宁	Huludao	Liaoning China	40.75	120.84	12	1	11	0	8.333333333	91.66666667
223	本溪	中国辽宁	Benxi	Liaoning China	41.19567	124.158564	3	0	3	0	0	100
224	盘锦	中国辽宁	Panjin	Liaoning China	41.112	122.06	11	0	11	0	0	100
225	营口	中国辽宁	Yingkou	Liaoning China	40.55	122.248	1	0	1	0	0	100
226	丹东	中国辽宁	Dandong	Liaoning China	40.008	124.3545	11	0	11	0	0	100
227	辽阳	中国辽宁	Liaoyang	Liaoning China	41.26	123.164	3	0	3	0	0	100
228	鞍山	中国辽宁	Anshan	Liaoning China	41.1	122.99	4	0	4	0	0	100
229	锦州	中国辽宁	Jinzhou	Liaoning China	41.0959	121.11	12	0	12	0	0	100
230	阜新	中国辽宁	Fuxin	Liaoning China	42.015173	121.645287	8	0	8	0	0	100
231	西安	中国陕西	Xi An	Shaanxi China	34.066899	108.874256	120	3	117	0	2.5	97.5
232	咸阳	中国陕西	Xianyang	Shaanxi China	34.423853	108.817312	17	0	17	0	0	100
233	安康	中国陕西	Ankang	Shaanxi China	32.814464	108.896243	26	0	26	0	0	100
234	铜川	中国陕西	Tongchuan	Shaanxi China	35.032	108.8355	8	0	8	0	0	100
235	延安	中国陕西	Yan An	Shaanxi China	36.575992	109.648602	8	0	8	0	0	100
236	商洛	中国陕西	Shangluo	Shaanxi China	33.895485	109.873271	7	0	7	0	0	100
237	渭南	中国陕西	Weinan	Shaanxi China	34.5	109.451	15	0	15	0	0	100
238	汉中	中国陕西	Hanzhong	Shaanxi China	33.1	107	26	0	26	0	0	100
239	宝鸡	中国陕西	Baoji	Shaanxi China	34.39	107.23	13	0	13	0	0	100
240	韩城	中国陕西	Hancheng	Shaanxi China	35.474	110.447	1	0	1	0	0	100
241	榆林	中国陕西	Yulin	Shaanxi China	38.23	109.75	3	0	3	0	0	100
242	杨凌	中国陕西	Yangling	Shaanxi China	34.272	108.082123	1	0	1	0	0	100
243	昆明	中国云南	Kunming	Yunnan China	26.139329	103.078562	53	0	53	0	0	100
244	丽江	中国云南	Lijiang	Yunnan China	26.8593	100.328596	7	0	7	0	0	100
245	西双版纳	中国云南	Xishuangbanna	Yunnan China	22.009433	100.803038	15	1	14	0	6.666666667	93.33333333
246	曲靖	中国云南	Qujing	Yunnan China	25.360057	103.913326	13	0	13	0	0	100
247	玉溪	中国云南	Yuxi	Yunnan China	24.369854	102.499895	14	1	13	0	7.142857143	92.85714286
248	红河	中国云南	Honghe	Yunnan China	23.250955	102.243348	9	0	9	0	0	100
249	大理	中国云南	Dali	Yunnan China	25.693967	100.219209	13	0	13	0	0	100
250	保山	中国云南	Baoshan	Yunnan China	25.16	99.176	9	0	9	0	0	100
251	德宏	中国云南	Dehong	Yunnan China	24.43	98.596	5	0	4	1	0	80
252	昭通	中国云南	Zhaotong	Yunnan China	27.32	103.72	25	0	25	0	0	100
253	普洱	中国云南	Pu Er	Yunnan China	22.7	100.96	4	0	4	0	0	100
254	临沧	中国云南	Lincang	Yunnan China	23.87	100.1	1	0	1	0	0	100
255	文山	中国云南	Wenshan	Yunnan China	23.394	104.226	2	0	2	0	0	100
256	楚雄	中国云南	Chuxiong	Yunnan China	25.025884	101.548734	4	0	4	0	0	100
257	天津	中国天津	Tianjin	Tianjin China	39.13	117.2	185	3	171	11	1.621621622	92.43243243
258	哈尔滨	中国黑龙江	Harbin	Heilongjiang China	45.995674	126.61077	221	4	194	23	1.809954751	87.78280543
259	牡丹江	中国黑龙江	Mudanjiang	Heilongjiang China	44.491714	129.584924	15	0	15	0	0	100
260	大庆	中国黑龙江	Daqing	Heilongjiang China	46.070051	124.699077	26	1	25	0	3.846153846	96.15384615
261	绥化	中国黑龙江	Suihua	Heilongjiang China	46.747537	126.957863	47	4	43	0	8.510638298	91.4893617
262	齐齐哈尔	中国黑龙江	Qiqihar	Heilongjiang China	47.28	123.94	43	1	42	0	2.325581395	97.6744186
263	佳木斯	中国黑龙江	Jiamusi	Heilongjiang China	46.8	130.37	15	0	15	0	0	100
264	双鸭山	中国黑龙江	Shuangyashan	Heilongjiang China	46.642	131.152	52	3	49	0	5.769230769	94.23076923
265	七台河	中国黑龙江	Qitaihe	Heilongjiang China	45.6	131	17	0	17	0	0	100
266	鸡西	中国黑龙江	Jixi	Heilongjiang China	45.3	130.96	46	0	46	0	0	100
267	鹤岗	中国黑龙江	Hegang	Heilongjiang China	47.335	130.294	5	0	5	0	0	100
268	大兴安岭	中国黑龙江	Greater Hinggan	Heilongjiang China	50.41	124.122	3	0	3	0	0	100
269	黑河	中国黑龙江	Heihe	Heilongjiang China	50.235	127.51	14	0	14	0	0	100
270	晋中	中国山西	Jinzhong	Shanxi China	37.650825	112.843737	37	0	37	0	0	100
271	太原	中国山西	Taiyuan	Shanxi China	37.748675	112.481587	20	0	20	0	0	100
272	运城	中国山西	Yuncheng	Shanxi China	35.063677	110.961931	19	0	19	0	0	100
273	阳泉	中国山西	Yangquan	Shanxi China	37.911504	113.568086	4	0	4	0	0	100
274	大同	中国山西	Datong	Shanxi China	40	113.3	12	0	12	0	0	100
275	长治	中国山西	Changzhi	Shanxi China	36.02468	113.086194	8	0	8	0	0	100
276	临汾	中国山西	Linfen	Shanxi China	36.1	111.52	2	0	2	0	0	100
277	朔州	中国山西	Shuozhou	Shanxi China	39.35	112.43	8	0	8	0	0	100
278	吕梁	中国山西	Lyuliang	Shanxi China	37.5	111.1	6	0	6	0	0	100
279	忻州	中国山西	Xinzhou	Shanxi China	38.4	112.732	7	0	7	0	0	100
280	晋城	中国山西	Jincheng	Shanxi China	35.498	112.857	10	0	10	0	0	100
281	石家庄	中国河北	Shijiazhuang	Hebei China	38.014621	114.586383	29	0	29	0	0	100
282	沧州	中国河北	Cangzhou	Hebei China	38.314446	116.844854	48	3	45	0	6.25	93.75
283	保定	中国河北	Baoding	Hebei China	38.821877	115.484784	32	0	32	0	0	100
284	承德	中国河北	Chengde	Hebei China	40.973242	118.125718	7	0	7	0	0	100
285	廊坊	中国河北	Langfang	Hebei China	39.47	116.7	30	0	30	0	0	100
286	邢台	中国河北	Xingtai	Hebei China	37.04	114.57	23	1	22	0	4.347826087	95.65217391
287	衡水	中国河北	Hengshui	Hebei China	37.73	115.699	8	0	8	0	0	100
288	唐山	中国河北	Tangshan	Hebei China	39.59	118.2	58	1	57	0	1.724137931	98.27586207
289	邯郸	中国河北	Handan	Hebei China	36.574	114.48	32	0	32	0	0	100
290	张家口	中国河北	Zhangjiakou	Hebei China	40.81	114.89	41	0	41	0	0	100
291	秦皇岛	中国河北	Qinhuangdao	Hebei China	39.95	119.59	10	1	9	0	10	90
292	锡林郭勒盟	中国内蒙古	Xilingol - Xilinhot	Inner Mongolia China	43.468238	114.415868	9	0	9	0	0	100
293	鄂尔多斯	中国内蒙古	Ordos	Inner Mongolia China	39.805586	109.764419	11	0	11	0	0	100
294	赤峰	中国内蒙古	Chifeng	Inner Mongolia China	42.268753	118.757106	9	0	9	0	0	100
295	呼伦贝尔	中国内蒙古	Hulun Buir	Inner Mongolia China	49.22	119.76	7	0	7	0	0	100
296	兴安盟	中国内蒙古	Ulahot	Inner Mongolia China	46.05	122.1	1	0	1	0	0	100
297	乌兰察布	中国内蒙古	Ulanqab	Inner Mongolia China	40.99	113.13	3	0	3	0	0	100
298	包头	中国内蒙古	Baotou	Inner Mongolia China	40.65	109.8	11	0	11	0	0	100
299	巴彦淖尔	中国内蒙古	Bayannur	Inner Mongolia China	40.75	107.38	8	1	7	0	12.5	87.5
300	通辽	中国内蒙古	Tongliao	Inner Mongolia China	43.626	122.25	7	0	7	0	0	100
301	呼和浩特	中国内蒙古	Huhhot	Inner Mongolia China	40.83	111.69	7	0	7	0	0	100
302	乌海	中国内蒙古	Wuhai	Inner Mongolia China	39.639	106.779	2	0	2	0	0	100
303	香港	中国香港特别行政区	Hong Kong	Hong Kong SAR China	22.293586	114.186124	1016	4	459	553	0.393700787	45.17716535
304	铜仁	中国贵州	Tongren	Guizhou China	27.674903	109.168558	10	0	10	0	0	100
305	贵阳	中国贵州	Guiyang	Guizhou China	26.496945	106.70098	36	1	35	0	2.777777778	97.22222222
306	黔南州	中国贵州	Qiannan	Guizhou China	26.254	107.522	17	0	17	0	0	100
307	黔西南州	中国贵州	Qianxinan	Guizhou China	25.1	104.9	4	0	4	0	0	100
308	六盘水	中国贵州	Liupanshui	Guizhou China	26.55	104.85	10	1	9	0	10	90
309	黔东南州	中国贵州	Qiandongnan	Guizhou China	26.56	108	10	0	10	0	0	100
310	遵义	中国贵州	Zunyi	Guizhou China	27.7478	106.91	32	0	32	0	0	100
311	毕节	中国贵州	Bijie	Guizhou China	27.31	105.29	23	0	23	0	0	100
312	安顺	中国贵州	Anshun	Guizhou China	26.25	105.93	4	0	4	0	0	100
313	吉林市	中国吉林	Jilin	Jilin China	43.87	126.57	9	0	6	3	0	66.66666667
314	长春	中国吉林	Changchun	Jilin China	43.531747	125.712822	47	0	46	1	0	97.87234043
315	松原	中国吉林	Songyuan	Jilin China	45.29271	124.867571	2	0	2	0	0	100
316	四平	中国吉林	Siping	Jilin China	43.178	124.37	15	1	14	0	6.666666667	93.33333333
317	公主岭	中国吉林	Gongzhuling	Jilin China	43.49	124.8	6	0	6	0	0	100
318	通化	中国吉林	Tonghua	Jilin China	41.74	125.92	6	0	6	0	0	100
319	延边	中国吉林	Yanbian	Jilin China	42.89	129.51	7	0	7	0	0	100
320	辽源	中国吉林	Liaoyuan	Jilin China	42.895188	125.148648	7	0	7	0	0	100
321	梅河口	中国吉林	Meihekou	Jilin China	42.537275	125.691833	2	0	1	1	0	50
322	白城	中国吉林	Baicheng	Jilin China	45.614037	122.84704	1	0	1	0	0	100
323	兰州	中国甘肃	Lanzhou	Gansu China	36.0637	103.831	36	2	34	0	5.555555556	94.44444444
324	白银	中国甘肃	Baiyin	Gansu China	36.69035	104.945609	4	0	4	0	0	100
325	临夏	中国甘肃	Linxia	Gansu China	35.518719	103.050791	3	0	3	0	0	100
326	定西	中国甘肃	Dingxi	Gansu China	35.58	104.62	9	0	9	0	0	100
327	张掖	中国甘肃	Zhangye	Gansu China	38.93	100.46	2	0	2	0	0	100
328	陇南	中国甘肃	Longnan	Gansu China	33.39	104.91	4	0	4	0	0	100
329	金昌	中国甘肃	Jinchang	Gansu China	38.52	102.18	1	0	1	0	0	100
330	天水	中国甘肃	Tianshui	Gansu China	34.58	105.73	12	0	12	0	0	100
331	平凉	中国甘肃	Pingliang	Gansu China	35.53	106.67	9	0	9	0	0	100
332	甘南	中国甘肃	Gannan	Gansu China	34.981	102.91	8	0	8	0	0	100
333	庆阳	中国甘肃	Qingyang	Gansu China	35.7	107.65	3	0	3	0	0	100
334	银川	中国宁夏	Yinchuan	Ningxia China	38.478591	106.24265	36	0	36	0	0	100
335	中卫	中国宁夏	Zhongwei	Ningxia China	37.360639	105.111278	4	0	4	0	0	100
336	固原	中国宁夏	Guyuan	Ningxia China	36.206829	106.254011	5	0	5	0	0	100
337	吴忠	中国宁夏	Wuzhong	Ningxia China	37.97	106.2	28	0	28	0	0	100
338	宁东	中国宁夏	Ningdong Energy Chemical Industry Base Admin Committee	Ningxia China	38.4	106.31	1	0	1	0	0	100
339	石嘴山	中国宁夏	Shizuishan	Ningxia China	38.991988	106.37	1	0	1	0	0	100
340	地区	中国 台湾	Taiwan	A Chinese Territory	23.5	121	395	6	137	252	1.518987342	34.6835443
341	乌鲁木齐	中国新疆	Urumqi	Xinjiang China	43.419108	87.360244	23	0	23	0	0	100
342	伊犁	中国新疆	Ili	Xinjiang China	43.9	81.32	18	0	18	0	0	100
343	吐鲁番	中国新疆	Turpan	Xinjiang China	42.95	89.15	3	0	3	0	0	100
344	第八师石河子	中国新疆	Shihezi (The 8th Division)	Xinjiang China	44.26	86.05	4	1	3	0	25	75
345	阿克苏	中国新疆	Aksu	Xinjiang China	41.133	80.192	1	0	1	0	0	100
346	第九师额敏县	中国新疆	Emin (The 9th Division)	Xinjiang China	46.521076	83.620741	4	1	3	0	25	75
347	第四师科克达拉	中国新疆	Cocodala (The 4th Division)	Xinjiang China	43.9448	81.044	10	1	9	0	10	90
348	昌吉	中国新疆	Changji	Xinjiang China	44	87.275	4	0	4	0	0	100
349	第六师五家渠	中国新疆	Wujiaqu (The 6th Division)	Xinjiang China	44.159797	87.538838	2	0	2	0	0	100
350	第七师胡杨河	中国新疆	Huyanghe (The 7th Division)	Xinjiang China	44.710398	84.8254	1	0	1	0	0	100
351	巴音郭楞	中国新疆	Bayingolin	Xinjiang China	41.771312	86.161609	3	0	3	0	0	100
352	第十二师	中国新疆	The 12th Division	Xinjiang China	43.6	87	3	0	3	0	0	100
353	澳门	中国澳门特别行政区	Macau	Macau SAR China	22.204118	113.557519	45	0	16	29	0	35.55555556
354	西宁	中国青海	Xining	Qinghai China	36.686368	101.712664	15	0	15	0	0	100
355	海北州	中国青海	Haibei	Qinghai China	36.899	100.997	3	0	3	0	0	100
356	成都	中国四川	Chengdu	Sichuan China	30.67	104.06	165	3	157	5	1.818181818	95.15151515
357	绵阳	中国四川	Mianyang	Sichuan China	31.46	104.73	22	0	22	0	0	100
358	广安	中国四川	Guang An	Sichuan China	30.3	106	30	0	30	0	0	100
359	遂宁	中国四川	Suining	Sichuan China	30.501934	105.569333	17	0	17	0	0	100
360	泸州	中国四川	Luzhou	Sichuan China	27.88	106.27	24	0	24	0	0	100
361	南充	中国四川	Nanchong	Sichuan China	30.84	106.12	39	0	39	0	0	100
362	甘孜	中国四川	Ganzi	Sichuan China	31.62	99.99	78	0	71	7	0	91.02564103
363	德阳	中国四川	Deyang	Sichuan China	31.33	104.23	18	0	18	0	0	100
364	雅安	中国四川	Ya An	Sichuan China	30	103	7	0	7	0	0	100
365	达州	中国四川	Dazhou	Sichuan China	31.2	107.5	42	0	42	0	0	100
366	自贡	中国四川	Zigong	Sichuan China	29.34	104.78	9	0	9	0	0	100
367	内江	中国四川	Neijiang	Sichuan China	29.6	105	22	0	22	0	0	100
368	乐山	中国四川	Leshan	Sichuan China	29.2	103.63	3	0	3	0	0	100
369	眉山	中国四川	Meishan	Sichuan China	29.9	103.5	8	0	8	0	0	100
370	宜宾	中国四川	Yibin	Sichuan China	28.76	104.63	12	0	12	0	0	100
371	凉山	中国四川	Liangshan	Sichuan China	27.88	102.28	13	0	13	0	0	100
372	资阳	中国四川	Ziyang	Sichuan China	30.1	104.67	4	0	4	0	0	100
373	广元	中国四川	Guangyuan	Sichuan China	30.46	106.64	6	0	6	0	0	100
374	阿坝	中国四川	Aba	Sichuan China	32.9	101.71	1	0	1	0	0	100
375	巴中	中国四川	Bazhong	Sichuan China	31.86	106.75	24	0	24	0	0	100
376	攀枝花	中国四川	Panzhihua	Sichuan China	26.578	101.721	16	0	16	0	0	100
377	拉萨	中国西藏	Lhasa	Tibet China	29.65	91.577	1	0	1	0	0	100
378		阿富汗		Afghanistan	33.93911	67.709953	784	25	43	716	3.18877551	5.484693878
379		阿尔巴尼亚		Albania	41.1533	20.1683	494	25	251	218	5.060728745	50.8097166
380		阿尔及利亚		Algeria	28.0339	1.6596	2160	336	708	1116	15.55555556	32.77777778
381		安道尔		Andorra	42.5063	1.5218	673	33	169	471	4.903417533	25.11144131
382		安哥拉		Angola	-11.2027	17.8739	19	2	5	12	10.52631579	26.31578947
383		安提瓜和巴布达		Antigua and Barbuda	17.0608	-61.7964	23	2	3	18	8.695652174	13.04347826
384		阿根廷		Argentina	-38.4161	-63.6167	2443	111	596	1736	4.543593942	24.39623414
385		亚美尼亚		Armenia	40.0691	45.0382	1111	17	297	797	1.530153015	26.73267327
386	堪培拉	澳大利亚	Australian Capital Territory	Australia	-35.4735	149.0124	103	3	72	28	2.912621359	69.90291262
387	新南威尔士州	澳大利亚	New South Wales	Australia	-33.8688	151.2093	2886	25	4	2857	0.866250866	0.138600139
388	北部地区	澳大利亚	Northern Territory	Australia	-12.4634	130.8456	28	0	6	22	0	21.42857143
389	昆士兰州	澳大利亚	Queensland	Australia	-27.4698	153.0251	999	5	442	552	0.500500501	44.24424424
390	南澳大利亚州	澳大利亚	South Australia	Australia	-34.9285	138.6007	433	4	240	189	0.923787529	55.42725173
391	塔斯马尼亚岛	澳大利亚	Tasmania	Australia	-42.8821	147.3272	165	6	53	106	3.636363636	32.12121212
392	维多利亚州	澳大利亚	Victoria	Australia	-37.8136	144.9631	1299	14	1118	167	1.077752117	86.06620477
393	西澳大利亚州	澳大利亚	Western Australia	Australia	-31.9505	115.8605	527	6	251	270	1.138519924	47.62808349
394		奥地利		Austria	47.5162	14.5501	14336	393	8098	5845	2.741350446	56.48716518
395		阿塞拜疆		Azerbaijan	40.1431	47.5769	1253	13	404	836	1.037509976	32.24261772
396		巴哈马		Bahamas	25.025885	-78.035889	49	8	6	35	16.32653061	12.24489796
397		巴林		Bahrain	26.0275	50.55	1671	7	663	1001	0.418910832	39.67684022
398		孟加拉国		Bangladesh	23.685	90.3563	1231	50	49	1132	4.061738424	3.980503656
399		巴巴多斯		Barbados	13.1939	-59.5432	73	5	15	53	6.849315068	20.54794521
400		白俄罗斯		Belarus	53.7098	27.9534	3728	36	203	3489	0.965665236	5.44527897
401		比利时		Belgium	50.8333	4.469936	33573	4440	7107	22026	13.22491288	21.16879635
402		伯利兹		Belize	17.1899	-88.4976	18	2	0	16	11.11111111	0
403		贝宁		Benin	9.3077	2.3158	35	1	18	16	2.857142857	51.42857143
404		不丹		Bhutan	27.5142	90.4336	5	0	2	3	0	40
405		玻利维亚		Bolivia	-16.2902	-63.5887	397	28	7	362	7.052896725	1.763224181
406		波黑		Bosnia and Herzegovina	43.9159	17.6791	1110	41	253	816	3.693693694	22.79279279
407		博兹瓦纳		Botswana	-22.3285	24.6849	13	1	0	12	7.692307692	0
408		巴西		Brazil	-14.235	-51.9253	28320	1736	14026	12558	6.129943503	49.52683616
409		文莱		Brunei	4.5353	114.7277	136	1	108	27	0.735294118	79.41176471
410		保加利亚		Bulgaria	42.7339	25.4858	747	36	105	606	4.819277108	14.0562249
411		布基纳法索		Burkina Faso	12.2383	-1.5616	542	32	226	284	5.904059041	41.69741697
412		缅甸		Burma	21.9162	95.956	74	4	2	68	5.405405405	2.702702703
413		布隆迪		Burundi	-3.3731	29.9189	5	1	0	4	20	0
414		佛得角		Cabo Verde	16.5388	-23.0418	56	1	1	54	1.785714286	1.785714286
415		柬埔寨		Cambodia	11.55	104.9167	122	0	96	26	0	78.68852459
416		喀麦隆		Cameroon	3.848	11.5021	848	17	165	666	2.004716981	19.45754717
417	艾伯塔	加拿大	Alberta	Canada	53.9333	-116.5765	1870	48	0	1822	2.56684492	0
418	英属哥伦比亚	加拿大	British Columbia	Canada	53.7267	-127.6476	1517	72	0	1445	4.746209624	0
419	钻石公主号撤离	加拿大	Grand Princess	Canada	0	0	13	0	0	13	0	0
420	马尼托巴	加拿大	Manitoba	Canada	53.7609	-98.8139	246	5	0	241	2.032520325	0
421	新不伦瑞克	加拿大	New Brunswick	Canada	46.5653	-66.4619	117	0	0	117	0	0
422	纽芬兰拉布拉多	加拿大	Newfoundland and Labrador	Canada	53.1355	-57.6604	247	3	0	244	1.214574899	0
423	西北地区	加拿大	Northwest Territories	Canada	64.8255	-124.8457	5	0	0	5	0	0
424	新斯科舍	加拿大	Nova Scotia	Canada	44.682	-63.7443	549	3	0	546	0.546448087	0
425	安大略	加拿大	Ontario	Canada	51.2538	-85.3232	8447	385	0	8062	4.557831183	0
426	爱德华王子岛	加拿大	Prince Edward Island	Canada	46.5107	-63.4168	26	0	0	26	0	0
427	魁北克	加拿大	Quebec	Canada	52.9399	-73.5491	14860	487	0	14373	3.277254374	0
428		加拿大	Recovered	Canada	0	0	0	0	0	0	#DIV/0!	#DIV/0!
429	萨斯卡彻万	加拿大	Saskatchewan	Canada	52.9399	-106.4509	304	4	0	300	1.315789474	0
430	育空地区	加拿大	Yukon	Canada	64.2823	-135	8	0	0	8	0	0
431		中非		Central African Republic	6.6111	20.9394	12	0	4	8	0	33.33333333
432		乍得		Chad	15.4542	18.7322	23	0	2	21	0	8.695652174
433		智利		Chile	-35.6751	-71.543	8273	94	2937	5242	1.136226278	35.50102744
434		哥伦比亚		Colombia	4.5709	-74.2973	3105	131	452	2522	4.21900161	14.55716586
435		刚果 (布)		Congo (Brazzaville)	-4.2634	15.2832	117	5	11	101	4.273504274	9.401709402
436		刚果 (金)		Congo (Kinshasa)	-4.322447	15.307045	254	21	21	212	8.267716535	8.267716535
437		哥斯达黎加		Costa Rica	9.7489	-83.7534	626	4	67	555	0.638977636	10.7028754
438		科特迪瓦		Cote d'Ivoire	7.54	-5.5471	638	6	114	518	0.940438871	17.86833856
439		克罗地亚		Croatia	45.1	15.2	1741	33	473	1235	1.895462378	27.16829408
440		古巴		Cuba	21.521757	-77.781167	814	24	151	639	2.948402948	18.55036855
441		塞浦路斯		Cyprus	35.1264	33.4299	715	12	65	638	1.678321678	9.090909091
442		捷克		Czechia	49.8175	15.473	6216	166	819	5231	2.670527671	13.17567568
443	法罗群岛	丹麦	Faroe Islands	Denmark	61.8926	-6.9118	184	0	166	18	0	90.2173913
444	格陵兰	丹麦	Greenland	Denmark	71.7069	-42.6043	11	0	11	0	0	100
445	本土	丹麦		Denmark	56.2639	9.5018	6681	309	2748	3624	4.625056129	41.13156713
446		钻石公主号		Diamond Princess	0	0	712	12	639	61	1.685393258	89.74719101
447		吉布提		Djibouti	11.8251	42.5903	435	2	71	362	0.459770115	16.32183908
448		多米尼克		Dominica	15.415	-61.371	16	0	8	8	0	50
449		多米尼加		Dominican Republic	18.7357	-70.1627	3614	189	208	3217	5.229662424	5.755395683
450		厄瓜多尔		Ecuador	-1.8312	-78.1834	7858	388	780	6690	4.937643166	9.92618987
451		埃及		Egypt	26.820553	30.802498	2505	183	589	1733	7.305389222	23.51297405
452		萨尔瓦多		El Salvador	13.7942	-88.8965	159	6	30	123	3.773584906	18.86792453
453		赤道几内亚		Equatorial Guinea	1.6508	10.2679	51	0	4	47	0	7.843137255
454		厄立特里亚		Eritrea	15.1794	39.7823	35	0	0	35	0	0
455		爱沙尼亚		Estonia	58.5953	25.0136	1400	35	117	1248	2.5	8.357142857
456		斯威士兰		Eswatini	-26.5225	31.4659	15	0	8	7	0	53.33333333
457		埃塞俄比亚		Ethiopia	9.145	40.4897	85	3	15	67	3.529411765	17.64705882
458		斐济		Fiji	-17.7134	178.065	16	0	0	16	0	0
459		芬兰		Finland	61.92411	25.748151	3237	72	300	2865	2.224281742	9.267840593
460	法属圭亚那	法国	French Guiana	France	4	-53	86	0	51	35	0	59.30232558
461	法属波利尼西亚	法国	French Polynesia	France	-17.6797	-149.4068	55	0	0	55	0	0
462	瓜达卢佩	法国	Guadeloupe	France	16.265	-61.551	145	8	67	70	5.517241379	46.20689655
463	马提尼克	法国	Martinique	France	14.6415	-61.0242	158	8	73	77	5.063291139	46.20253165
464	马约特	法国	Mayotte	France	-12.8275	45.166244	217	3	69	145	1.382488479	31.79723502
465	新喀里多尼亚	法国	New Caledonia	France	-20.904305	165.618042	18	0	1	17	0	5.555555556
466	留尼汪	法国	Reunion	France	-21.1151	55.5364	391	0	237	154	0	60.61381074
467	圣巴塞勒米	法国	Saint Barthelemy	France	17.9	-62.8333	6	0	4	2	0	66.66666667
468	圣皮埃尔	法国	Saint Pierre and Miquelon	France	46.8852	-56.3159	1	0	0	1	0	0
469	圣马丁	法国	St Martin	France	18.0708	-63.0501	35	2	13	20	5.714285714	37.14285714
470	本土	法国		France	46.2276	2.2137	133470	17167	30955	85348	12.86206638	23.19247771
471		加蓬		Gabon	-0.8037	11.6094	80	1	4	75	1.25	5
472		冈比亚		Gambia	13.4432	-15.3101	9	1	2	6	11.11111111	22.22222222
473		格鲁吉亚		Georgia	42.3154	43.3569	306	3	71	232	0.980392157	23.20261438
474		德国		Germany	51.165691	10.451526	134753	3804	72600	58349	2.822942717	53.87635155
475		加纳		Ghana	7.9465	-1.0232	636	8	17	611	1.257861635	2.672955975
476		希腊		Greece	39.0742	21.8243	2192	102	269	1821	4.653284672	12.27189781
477		格林纳达		Grenada	12.1165	-61.679	14	0	0	14	0	0
478		危地马拉		Guatemala	15.7835	-90.2308	180	5	19	156	2.777777778	10.55555556
479		几内亚		Guinea	9.9456	-9.6966	404	1	31	372	0.247524752	7.673267327
480		几内亚比绍		Guinea-Bissau	11.8037	-15.1804	43	0	0	43	0	0
481		圭亚那		Guyana	4.860416	-58.93018	55	6	8	41	10.90909091	14.54545455
482		海地		Haiti	18.9712	-72.2852	41	3	0	38	7.317073171	0
483		梵蒂冈		Vatican	41.9029	12.4534	8	0	2	6	0	25
484		洪都拉斯		Honduras	15.2	-86.2419	419	31	9	379	7.398568019	2.14797136
485		匈牙利		Hungary	47.1625	19.5033	1579	134	192	1253	8.486383787	12.15959468
486		冰岛		Iceland	64.9631	-19.0208	1727	8	1077	642	0.463231036	62.36247829
487		印度		India	20.593684	78.96288	12322	405	1432	10485	3.28680409	11.62149002
488		印尼		Indonesia	-0.7893	113.9213	5136	469	446	4221	9.131619938	8.683800623
489		伊朗		Iran	32.427908	53.688046	76389	4777	49933	21679	6.253518177	65.36674128
490		伊拉克		Iraq	33.223191	43.679291	1415	79	812	524	5.583038869	57.38515901
491		爱尔兰		Ireland	53.1424	-7.6921	12547	444	77	12026	3.538694509	0.613692516
492		以色列		Israel	31.046051	34.851612	12501	130	2563	9808	1.039916807	20.50235981
493		意大利		Italy	41.87194	12.56738	165155	21645	38092	105418	13.10587024	23.06439405
494		牙买加		Jamaica	18.1096	-77.2975	125	5	21	99	4	16.8
495		日本		Japan	36.204824	138.252924	8100	146	853	7101	1.802469136	10.5308642
496		约旦		Jordan	31.24	36.51	401	7	250	144	1.74563591	62.34413965
497		哈萨克斯坦		Kazakhstan	48.0196	66.9237	1295	16	240	1039	1.235521236	18.53281853
498		肯尼亚		Kenya	-0.0236	37.9062	225	10	53	162	4.444444444	23.55555556
499		韩国		South Korea	35.907757	127.766922	10591	225	7616	2750	2.124445284	71.91011236
500		科索沃地区		Kosovo	42.602636	20.902977	387	8	66	313	2.067183463	17.05426357
501		科威特		Kuwait	29.31166	47.481766	1405	3	206	1196	0.213523132	14.66192171
502		吉尔吉斯斯坦		Kyrgyzstan	41.20438	74.766098	449	5	78	366	1.113585746	17.37193764
503		老挝		Laos	19.85627	102.495496	19	0	1	18	0	5.263157895
504		拉脱维亚		Latvia	56.8796	24.6032	666	5	44	617	0.750750751	6.606606607
505		黎巴嫩		Lebanon	33.8547	35.8623	658	21	85	552	3.191489362	12.91793313
506		利比里亚		Liberia	6.428055	-9.429499	59	6	4	49	10.16949153	6.779661017
507		利比亚		Libya	26.3351	17.228331	48	1	9	38	2.083333333	18.75
508		列支敦士登		Liechtenstein	47.14	9.55	79	1	55	23	1.265822785	69.62025316
509		立陶宛		Lithuania	55.1694	23.8813	1091	30	138	923	2.749770852	12.64894592
510		卢森堡		Luxembourg	49.8153	6.1296	3373	69	526	2778	2.045656685	15.59442633
511		马达加斯加		Madagascar	-18.766947	46.869107	110	0	29	81	0	26.36363636
512		马拉维		Malawi	-13.254308	34.301525	16	2	0	14	12.5	0
513		马来西亚		Malaysia	4.210484	101.975766	5072	83	2647	2342	1.636435331	52.1884858
514		马尔代夫		Maldives	3.2028	73.2207	22	0	16	6	0	72.72727273
515		马里		Mali	17.570692	-3.996166	148	13	34	101	8.783783784	22.97297297
516		马耳他		Malta	35.9375	14.3754	399	3	44	352	0.751879699	11.02756892
517		毛里塔尼亚		Mauritania	21.0079	-10.9408	7	1	2	4	14.28571429	28.57142857
518		毛里求斯		Mauritius	-20.348404	57.552152	324	9	65	250	2.777777778	20.0617284
519		墨西哥		Mexico	23.6345	-102.5528	5399	406	2125	2868	7.519911095	39.35914058
520		摩尔多瓦		Moldova	47.4116	28.3699	2049	46	171	1832	2.24499756	8.345534407
521		摩纳哥		Monaco	43.7333	7.4167	93	3	12	78	3.225806452	12.90322581
522		蒙古国		Mongolia	46.8625	103.8467	30	0	5	25	0	16.66666667
523		黑山		Montenegro	42.708678	19.37439	288	4	55	229	1.388888889	19.09722222
524		摩洛哥		Morocco	31.7917	-7.0926	2024	127	229	1668	6.274703557	11.31422925
525		莫桑比克		Mozambique	-18.665695	35.529562	29	0	2	27	0	6.896551724
526		尚丹号邮轮		MS Zaandam	1	0	9	2	0	7	22.22222222	0
527		纳米比亚		Namibia	-22.9576	18.4904	16	0	3	13	0	18.75
528		尼泊尔		Nepal	28.1667	84.25	16	0	1	15	0	6.25
529	阿鲁巴	荷兰	Aruba	Netherlands	12.5211	-69.9683	93	1	39	53	1.075268817	41.93548387
530	荷属加勒比	荷兰	"Bonaire, Sint Eustatius and Saba"	Netherlands	12.1784	-68.2385	3	0	0	3	0	0
531	库拉索	荷兰	Curacao	Netherlands	12.1696	-68.99	14	1	10	3	7.142857143	71.42857143
532	圣马丁	荷兰	Sint Maarten	Netherlands	18.0425	-63.0548	53	9	5	39	16.98113208	9.433962264
533	本土	荷兰		Netherlands	52.1326	5.2913	28153	3134	250	24769	11.13202856	0.888004831
534		新西兰		New Zealand	-40.9006	174.886	1386	9	728	649	0.649350649	52.52525253
535		尼加拉瓜		Nicaragua	12.865416	-85.207229	9	1	4	4	11.11111111	44.44444444
536		尼日尔		Niger	17.607789	8.081666	584	14	90	480	2.397260274	15.4109589
537		尼日利亚		Nigeria	9.082	8.6753	407	12	128	267	2.948402948	31.44963145
538		北马其顿		North Macedonia	41.6086	21.7453	974	45	98	831	4.620123203	10.06160164
539		挪威		Norway	60.472	8.4689	6740	150	32	6558	2.225519288	0.474777448
540		阿曼		Oman	21.512583	55.923255	910	4	131	775	0.43956044	14.3956044
541		巴基斯坦		Pakistan	30.3753	69.3451	6383	111	1446	4826	1.738994203	22.65392449
542		巴拿马		Panama	8.538	-80.7821	3574	95	72	3407	2.658086178	2.014549524
543		巴布亚新几内亚		Papua New Guinea	-6.314993	143.95555	2	0	0	2	0	0
544		巴拉圭		Paraguay	-23.4425	-58.4438	161	8	23	130	4.968944099	14.28571429
545		秘鲁		Peru	-9.19	-75.0152	11475	254	3108	8113	2.213507625	27.08496732
546		菲律宾		Philippines	12.879721	121.774017	5453	349	353	4751	6.400146708	6.473500825
547		波兰		Poland	51.9194	19.1451	7582	286	668	6628	3.772091796	8.81034028
548		葡萄牙		Portugal	39.3999	-8.2245	18091	599	383	17109	3.311038638	2.117074789
549		卡塔尔		Qatar	25.3548	51.1839	3711	7	406	3298	0.188628402	10.94044732
550		罗马尼亚		Romania	45.9432	24.9668	7216	372	1217	5627	5.155210643	16.86529933
551		俄罗斯		Russia	61.52401	105.318756	24490	198	1986	22306	0.808493263	8.109432421
552		卢旺达		Rwanda	-1.9403	29.8739	136	0	54	82	0	39.70588235
553		圣基茨和尼维斯		Saint Kitts and Nevis	17.357822	-62.782998	14	0	0	14	0	0
554		圣卢西亚		Saint Lucia	13.9094	-60.9789	15	0	11	4	0	73.33333333
555		圣文森特和格林纳丁斯		Saint Vincent and the Grenadines	12.9843	-61.2872	12	0	1	11	0	8.333333333
556		圣马力诺		San Marino	43.9424	12.4578	372	36	53	283	9.677419355	14.24731183
557		圣多美和普林西比		Sao Tome and Principe	0.18636	6.613081	4	0	0	4	0	0
558		沙特		Saudi Arabia	23.885942	45.079162	5862	79	931	4852	1.347662914	15.88195155
559		塞内加尔		Senegal	14.4974	-14.4524	314	2	190	122	0.636942675	60.50955414
560		塞尔维亚		Serbia	44.0165	21.0059	4873	99	0	4774	2.031602709	0
561		塞舌尔		Seychelles	-4.6796	55.492	11	0	0	11	0	0
562		塞拉利昂		Sierra Leone	8.460555	-11.779889	13	0	0	13	0	0
563		新加坡		Singapore	1.2833	103.8333	3699	10	652	3037	0.270343336	17.62638551
564		斯洛伐克		Slovakia	48.669	19.699	863	6	151	706	0.695249131	17.49710313
565		斯洛文尼亚		Slovenia	46.1512	14.9955	1248	61	165	1022	4.887820513	13.22115385
566		索马里		Somalia	5.152149	46.199616	80	5	2	73	6.25	2.5
567		南非		South Africa	-30.5595	22.9375	2506	34	410	2062	1.356743815	16.36073424
568		南苏丹		South Sudan	6.877	31.307	4	0	0	4	0	0
569		西班牙		Spain	40.463667	-3.74922	177644	18708	70853	88083	10.53117471	39.88482583
570		斯里兰卡		Sri Lanka	7.873054	80.771797	238	7	63	168	2.941176471	26.47058824
571		苏丹		Sudan	12.8628	30.2176	32	5	4	23	15.625	12.5
572		苏里南		Suriname	3.9193	-56.0278	10	1	6	3	10	60
573		瑞典		Sweden	60.128161	18.643501	11927	1203	381	10343	10.08635868	3.1944328
574		瑞士		Switzerland	46.8182	8.2275	26336	1239	15400	9697	4.704586877	58.47509113
575		叙利亚		Syria	34.802075	38.996815	33	2	5	26	6.060606061	15.15151515
576		坦桑尼亚		Tanzania	-6.369028	34.888822	88	4	11	73	4.545454545	12.5
577		泰国		Thailand	15.870032	100.992541	2643	43	1497	1103	1.626939084	56.64018161
578		东帝汶		Timor-Leste	-8.874217	125.727539	8	0	1	7	0	12.5
579		多哥		Togo	8.6195	0.8248	81	3	35	43	3.703703704	43.20987654
580		特立尼达和多巴哥		Trinidad and Tobago	10.6918	-61.2225	114	8	19	87	7.01754386	16.66666667
581		突尼斯		Tunisia	33.886917	9.537499	780	35	43	702	4.487179487	5.512820513
582		土耳其		Turkey	38.9637	35.2433	69392	1518	5674	62200	2.187572054	8.17673507
583		乌干达		Uganda	1.373333	32.290275	55	0	12	43	0	21.81818182
584		乌克兰		Ukraine	48.3794	31.1656	3764	108	143	3513	2.869287991	3.799149841
585		阿联酋		UAE	23.424076	53.847818	5365	33	1034	4298	0.615097856	19.27306617
586	安圭拉	英国	Anguilla	UK	18.2206	-63.0686	3	0	1	2	0	33.33333333
587	百慕大	英国	Bermuda	UK	32.3078	-64.7505	81	5	33	43	6.172839506	40.74074074
588	英属维京群岛	英国	British Virgin Islands	UK	18.4207	-64.64	3	0	2	1	0	66.66666667
589	开曼群岛	英国	Cayman Islands	UK	19.3133	-81.2546	54	1	6	47	1.851851852	11.11111111
590	海峡群岛	英国	Channel Islands	UK	49.3723	-2.3644	447	15	69	363	3.355704698	15.43624161
591	福克兰群岛	英国	Falkland Islands (Malvinas)	UK	-51.7963	-59.5236	11	0	1	10	0	9.090909091
592	直布罗陀	英国	Gibraltar	UK	36.1408	-5.3536	131	0	104	27	0	79.38931298
593	曼恩岛	英国	Isle of Man	UK	54.2361	-4.5481	256	4	151	101	1.5625	58.984375
594	蒙特赛拉特	英国	Montserrat	UK	16.742498	-62.187366	11	0	1	10	0	9.090909091
595	特克斯和凯科斯	英国	Turks and Caicos Islands	UK	21.694	-71.7979	10	1	0	9	10	0
596	本土	英国		UK	55.3781	-3.436	98476	12868	0	85608	13.06714326	0
597		乌拉圭		Uruguay	-32.5228	-55.7658	492	8	260	224	1.62601626	52.84552846
598	钻石公主号撤离	美国	Diamond Princess	US	0.5	0	49	0	0	49	0	0
599	至尊公主号乘客	美国	Grand Princess	US	0.25	0	103	0	0	103	0	0
600	关岛	美国	Guam	US	13.4443	144.7937	135	5	0	130	3.703703704	0
601	北马里亚纳	美国	Northern Mariana Islands	US	15.0979	145.6739	6	1	0	5	16.66666667	0
602	波多黎各	美国	Puerto Rico	US	18.2208	-66.5901	974	51	0	923	5.23613963	0
603		美国	Recovered	US	0	0	0	0	0	0	#DIV/0!	#DIV/0!
604	美属维京群岛	美国	Virgin Islands	US	18.3358	-64.8963	51	1	0	50	1.960784314	0
605		乌兹别克斯坦		Uzbekistan	41.377491	64.585262	1302	4	107	1191	0.307219662	8.21812596
606		委内瑞拉		Venezuela	6.4238	-66.5897	197	9	111	77	4.568527919	56.34517766
607		越南		Vietnam	14.058324	108.277199	267	0	171	96	0	64.04494382
608		巴勒斯坦		West Bank and Gaza	31.9522	35.2332	374	2	63	309	0.534759358	16.84491979
609		西撒哈拉		Western Sahara	24.2155	-12.8858	6	0	0	6	0	0
610		也门		Yemen	15.552727	48.516388	1	0	0	1	0	0
611		赞比亚		Zambia	-13.133897	27.849332	48	2	30	16	4.166666667	62.5
612		津巴布韦		Zimbabwe	-19.015438	29.154857	23	3	1	19	13.04347826	4.347826087
613	本土	美国		US	40	-100	645325	28633	52699		4.436989114	8.166272808