city,province_cn,city_cn,case,death,cure,lat,lon,province
Changsha,湖南,长沙,205,0,27,28.322759,113.224946,Hunan
Yueyang,湖南,岳阳,115,1,10,29.178499,113.237527,Hunan
Huaihua,湖南,怀化,39,0,15,27.612024,109.945539,Hunan
Loudi,湖南,娄底,64,0,8,27.766945,112.004619,Hunan
Yongzhou,湖南,永州,40,0,10,26.560382,111.621586,Hunan
Yiyang,湖南,益阳,46,0,10,28.588088,112.366547,Hunan
Hengyang,湖南,衡阳,45,0,14,27.109626,112.351579,Hunan
Changde,湖南,常德,66,0,15,28.995243,111.747796,Hunan
Xiangtan,湖南,湘潭,28,0,10,27.669223,112.788805,Hunan
Shaoyang,湖南,邵阳,87,0,18,26.984977,111.332372,Hunan
Zhuzhou,湖南,株洲,58,0,9,27.535936,113.153348,Hunan
Chenzhou,湖南,郴州,32,0,8,25.773515,113.051002,Hunan
Xiangxi,湖南,湘西州,8,0,3,28.26,109.69,Hunan
Zhangjiajie,湖南,张家界,5,0,2,29.13,110.48,Hunan
Wuhan,湖北,武汉,14982,608,877,30.581084,114.3162,Hubei
Huanggang,湖北,黄冈,2141,43,137,30.518802,114.949569,Hubei
Xiaogan,湖北,孝感,2436,29,45,30.944617,114.016142,Hubei
Xianning,湖北,咸宁,493,4,23,29.85465,114.391867,Hubei
Jingmen,湖北,荆门,663,19,48,30.932878,112.193923,Hubei
Suizhou,湖北,随州,984,9,23,31.890024,113.294246,Hubei
Jingzhou,湖北,荆州,997,13,34,30.396103,112.099857,Hubei
Huangshi,湖北,黄石,760,2,53,30.218698,114.903009,Hubei
Yichang,湖北,宜昌,711,8,36,30.979971,111.310649,Hubei
Shiyan,湖北,十堰,467,0,40,32.66384,110.717401,Hubei
Enshi,湖北,恩施,171,0,20,32,109.5,Hubei
Xiantao,湖北,仙桃,379,5,16,30.293966,113.387448,Hubei
Tianmen,湖北,天门,197,10,1,30.649047,113.12623,Hubei
Xiangyang,湖北,襄阳,988,7,40,32.229169,112.250093,Hubei
Ezhou,湖北,鄂州,639,21,42,30.320603,114.901016,Hubei
Shennongjia,湖北,神农架,10,0,2,31.74,110.684,Hubei
Qianjiang,湖北,潜江,82,2,2,30.4,112.89,Hubei
Xinyang,河南,信阳,205,0,24,32.30784,114.139086,Henan
Zhengzhou,河南,郑州,126,0,31,34.759791,113.62,Henan
Nanyang,河南,南阳,133,2,16,33.009839,112.484267,Henan
Zhumadian,河南,驻马店,116,0,5,32.968357,114.00829,Henan
Zhoukou,河南,周口,62,0,10,33.630876,114.65795,Henan
Xinxiang,河南,新乡,44,0,5,35.3,113.92,Henan
Anyang,河南,安阳,44,0,3,36.056025,114.256604,Henan
Luohe,河南,漯河,30,0,4,33.534755,113.923601,Henan
Sanmenxia,河南,三门峡,7,0,3,34.771778,111.281295,Henan
Gongyi,河南,巩义,2,0,0,34.703799,113.03959,Henan
Pingdingshan,河南,平顶山,50,1,6,33.712341,113.278189,Henan
Luoyang,河南,洛阳,25,0,2,34.638792,112.467093,Henan
Shangqiu,河南,商丘,82,0,5,34.42,115.65,Henan
Kaifeng,河南,开封,24,0,1,34.798,114.346,Henan
Hebi,河南,鹤壁,17,0,0,35.74,114.295,Henan
Xuchang,河南,许昌,31,0,2,34,113.8,Henan
Jiaozuo,河南,焦作,24,0,1,35.2,113.257,Henan
Gushi,河南,固始,1,0,0,32.136944,115.709743,Henan
Puyang,河南,濮阳,7,0,0,35.76,115.02,Henan
Huaxian,河南,滑县,1,0,0,35.57,114.52,Henan
Changyuan,河南,长垣,2,0,0,35.21,114.66,Henan
Yongcheng,河南,永城,7,0,0,33.94,116.367,Henan
Jiyuan,河南,济源,4,0,0,35.1,112.58,Henan
Shenzhen,广东,深圳,364,0,39,22.606981,114.278483,Guangdong
Guangzhou,广东,广州,304,0,27,23.446661,113.220176,Guangdong
Zhuhai,广东,珠海,83,0,4,22.047215,113.41759,Guangdong
Foshan,广东,佛山,65,0,4,22.824523,112.683258,Guangdong
Huizhou,广东,惠州,47,0,1,23.163063,114.485898,Guangdong
Yangjiang,广东,阳江,13,0,1,21.762804,111.930036,Guangdong
Shaoguan,广东,韶关,6,0,1,24.919162,113.57745,Guangdong
Zhanjiang,广东,湛江,21,0,6,21.0941,110.338022,Guangdong
Zhongshan,广东,中山,51,0,11,22.545178,113.42206,Guangdong
Zhaoqing,广东,肇庆,14,1,1,23.208968,112.625249,Guangdong
Qingyuan,广东,清远,10,0,3,23.625856,113.114585,Guangdong
Dongguan,广东,东莞,58,0,1,23.043024,113.763434,Guangdong
Shantou,广东,汕头,25,0,3,23.532997,116.814808,Guangdong
Shanwei,广东,汕尾,5,0,1,22.8,115.38,Guangdong
Meizhou,广东,梅州,13,0,4,24.3,116.119,Guangdong
Jieyang,广东,揭阳,7,0,1,23.53,116.34,Guangdong
Heyuan,广东,河源,3,0,0,23.74,114.69,Guangdong
Maoming,广东,茂名,9,0,1,21.665,110.92,Guangdong
Jiangmen,广东,江门,17,0,1,22.57,113.079,Guangdong
Chaozhou,广东,潮州,5,0,0,23.656,116.62,Guangdong
Taizhou,浙江,台州,138,0,25,28.548659,121.450242,Zhejiang
Hangzhou,浙江,杭州,165,0,29,30.38812,119.998089,Zhejiang
Wenzhou,浙江,温州,448,0,70,27.972177,120.558404,Zhejiang
Ningbo,浙江,宁波,146,0,13,29.785459,121.537835,Zhejiang
Jiaxing,浙江,嘉兴,38,0,1,30.777679,120.691907,Zhejiang
Shaoxing,浙江,绍兴,38,0,8,29.968789,120.572451,Zhejiang
Zhoushan,浙江,舟山,7,0,5,29.871101,122.278765,Zhejiang
Jinhua,浙江,金华,53,0,13,29.155526,119.809227,Zhejiang
Quzhou,浙江,衢州,15,0,3,28.941983,118.939044,Zhejiang
Lishui,浙江,丽水,17,0,5,28.48,119.921,Zhejiang
Huzhou,浙江,湖州,10,0,1,30.89,120.1,Zhejiang
Wanzhou,重庆,万州,84,1,5,30.710054,108.413439,Chongqing
Changshou,重庆,长寿,15,0,2,29.960491,107.146615,Chongqing
Kaizhou,重庆,开州,18,0,2,31.2,108.4,Chongqing
Yongchuan,重庆,永川,5,0,1,29.296488,105.880358,Chongqing
Zhongxian,重庆,忠县,16,0,3,30.342003,107.921738,Chongqing
Wushan,重庆,巫山,8,0,4,31.121152,109.908611,Chongqing
Shizhu,重庆,石柱,12,0,0,29.9,108,Chongqing
Chongqing,重庆,重庆市区,99,1,3,29.59,106.54,Chongqing
Yubei,重庆,渝北,12,0,2,29.816264,106.753799,Chongqing
Dianjiang,重庆,垫江,19,0,1,30.259498,107.444445,Chongqing
Yunyang,重庆,云阳,20,0,7,31.042409,108.863186,Chongqing
Wuxi,重庆,巫溪,12,0,1,31.509161,109.360531,Chongqing
Hechuan,重庆,合川,17,0,1,30.118708,106.318029,Chongqing
Bishan,重庆,璧山,8,0,0,29.5,106.17,Chongqing
Fuling,重庆,涪陵,3,0,0,29.664671,107.3408,Chongqing
Fengjie,重庆,奉节,14,0,1,30.958553,109.355667,Chongqing
Xiushan,重庆,秀山,1,0,1,28.38,109.06,Chongqing
Liangping,重庆,梁平,4,0,0,30.65,107.8,Chongqing
Chengkou,重庆,城口,2,0,1,31.888131,108.741855,Chongqing
Dazu,重庆,大足,10,0,0,29.714,105.72,Chongqing
Fengdu,重庆,丰都,9,0,1,29.890596,107.837517,Chongqing
Qianjiang,重庆,黔江,2,0,0,29.53,108.76,Chongqing
Wansheng,重庆,万盛,1,0,0,28.962248,106.924888,Chongqing
Tongnan,重庆,潼南,13,0,0,30.19,105.84,Chongqing
Tongliang,重庆,铜梁,8,0,0,29.85,106.05,Chongqing
Qijiang,重庆,綦江,15,0,0,29.03,106.64,Chongqing
Jiangjin,重庆,江津,4,0,1,29.28,106.26,Chongqing
Banan,重庆,巴南,3,0,0,29.37,106.52,Chongqing
Wulong,重庆,武隆,1,0,0,29.33,107.75,Chongqing
Youyang,重庆,酉阳,1,0,0,28.844414,108.763426,Chongqing
Rongchang,重庆,荣昌,8,0,0,29.422,105.61,Chongqing
Pengshui,重庆,彭水,2,0,0,29.293585,108.165373,Chongqing
Beijing,北京,北京市区,211,1,29,39.92,116.46,Beijing
Changping,北京,昌平,17,0,0,40.221724,116.216456,Beijing
Tongzhou,北京,通州,15,0,0,32.081032,121.028859,Beijing
Daxing,北京,大兴,34,0,2,39.73,116.33,Beijing
Shunyi,北京,顺义,9,0,0,40.154951,116.728229,Beijing
Mentougou,北京,门头沟,3,0,0,39.94,116.1,Beijing
Fangshan,北京,房山,14,0,0,39.744,116.134254,Beijing
Yanqing,北京,延庆,1,0,0,40.4565,115.971,Beijing
Huairou,北京,怀柔,7,0,0,40.315,116.626,Beijing
Shanghai,上海,上海,292,1,41,31.2,121.560642,Shanghai
Linyi,山东,临沂,40,0,3,35.127031,118.517311,Shandong
Tsingtao,山东,青岛,46,0,7,36.284247,120.346326,Shandong
Weihai,山东,威海,33,0,5,37.399344,122.152075,Shandong
Rizhao,山东,日照,15,0,2,35.469377,119.377852,Shandong
Jining,山东,济宁,38,0,7,35.380135,116.572199,Shandong
Jinan,山东,济南,42,0,3,36.42857,116.803552,Shandong
Dezhou,山东,德州,29,0,4,37.457437,116.332912,Shandong
Weifang,山东,潍坊,31,0,0,36.691227,119.196972,Shandong
Yantai,山东,烟台,35,0,2,37.407476,121.451535,Shandong
Liaocheng,山东,聊城,27,0,1,36.45583,115.907706,Shandong
Binzhou,山东,滨州,11,0,4,37.424891,117.981211,Shandong
Heze,山东,菏泽,14,0,3,35.26244,115.46336,Shandong
Zibo,山东,淄博,15,0,1,36.771219,117.875108,Shandong
Zaozhuang,山东,枣庄,20,0,0,34.82,117.31,Shandong
Tai An,山东,泰安,20,0,1,36.189,117.1,Shandong
Hefei,安徽,合肥,136,0,11,31.790724,117.353913,Anhui
Fuyang,安徽,阜阳,118,0,11,33.07351,115.734026,Anhui
Bozhou,安徽,亳州,87,0,5,33.782924,115.812814,Anhui
Anqing,安徽,安庆,75,0,6,31.859252,117.216005,Anhui
Maanshan,安徽,马鞍山,31,0,2,31.659719,118.554558,Anhui
Tongling,安徽,铜陵,24,0,7,30.952359,117.918516,Anhui
Lu An,安徽,六安,54,0,2,31.753039,116.302573,Anhui
Chuzhou,安徽,滁州,11,0,2,32.310209,118.270828,Anhui
Chizhou,安徽,池州,12,0,1,30.514086,117.508478,Anhui
Bengbu,安徽,蚌埠,115,1,1,33.023815,117.388184,Anhui
Wuhu,安徽,芜湖,29,0,3,31.191699,118.532462,Anhui
Huangshan,安徽,黄山,9,0,1,29.7,118.314,Anhui
Huaibei,安徽,淮北,23,0,1,33.94,116.9,Anhui
Huainan,安徽,淮南,22,0,3,32.58,117,Anhui
Suzhou,安徽,宿州,28,0,1,33.639,116.96,Anhui
Susong,安徽,宿松,6,0,0,30.16,116.131,Anhui
Xuancheng,安徽,宣城,5,0,2,30.92,118.8,Anhui
Ganzhou,江西,赣州,69,0,2,25.838711,114.937365,Jiangxi
Fuzhou,江西,抚州,63,0,7,27.924732,116.362974,Jiangxi
Shangrao,江西,上饶,98,0,7,28.40568,117.944367,Jiangxi
Yichun,江西,宜春,74,0,6,27.839383,114.290358,Jiangxi
Nanchang,江西,南昌,179,0,27,28.620772,116.071261,Jiangxi
Pingxiang,江西,萍乡,24,0,1,27.53371,113.739818,Jiangxi
Jiujiang,江西,九江,100,0,6,29.64023,115.842035,Jiangxi
Ji An,江西,吉安,17,0,1,27.160925,114.960437,Jiangxi
Xinyu,江西,新余,100,0,13,27.850578,115.007851,Jiangxi
Jingdezhen,江西,景德镇,5,0,1,29.303231,117.234119,Jiangxi
Yingtan,江西,鹰潭,11,0,1,28.261751,117.023752,Jiangxi
Guilin,广西,桂林,29,0,5,25.112806,110.371485,Guangxi
Beihai,广西,北海,33,0,3,21.574915,109.422489,Guangxi
Liuzhou,广西,柳州,20,0,5,24.471743,109.413915,Guangxi
Hechi,广西,河池,19,1,0,24.660762,107.873444,Guangxi
Wuzhou,广西,梧州,5,0,3,23.5602,111.189914,Guangxi
Baise,广西,百色,3,0,0,23.941866,106.505596,Guangxi
Fangchenggang,广西,防城港,16,0,1,21.662036,108.449166,Guangxi
Nanning,广西,南宁,35,0,2,22.894927,108.573583,Guangxi
Yulin,广西,玉林,9,0,1,22.557213,110.064534,Guangxi
Hezhou,广西,贺州,4,0,0,24.415,111.54,Guangxi
Qinzhou,广西,钦州,8,0,0,21.97,108.617,Guangxi
Guigang,广西,贵港,7,0,0,23.1,109.59,Guangxi
Laibin,广西,来宾,7,0,0,23.746383,109.218231,Guangxi
Sanya,海南,三亚,40,1,10,18.397248,109.429348,Hainan
Wanning,海南,万宁,12,0,2,18.839886,110.292505,Hainan
Haikou,海南,海口,23,0,2,19.942909,110.507269,Hainan
Danzhou,海南,儋州,11,0,1,19.571153,109.413973,Hainan
Lingao,海南,临高,5,0,0,19.805922,109.724102,Hainan
Lingshui,海南,陵水,4,0,0,18.506,110.0375,Hainan
Chengmai,海南,澄迈,7,1,1,19.7,110,Hainan
Qiongzhong,海南,琼中,1,0,0,19.04,109.82,Hainan
Dongfang,海南,东方,3,0,0,19.09,108.66,Hainan
Qionghai,海南,琼海,6,0,0,19.256,110.468,Hainan
Ding An,海南,定安,3,0,0,19.68,110.36,Hainan
Changjiang,海南,昌江,5,0,0,19.298,109.04,Hainan
Ledong,海南,乐东,2,0,0,18.75,109.168,Hainan
Wenchang,海南,文昌,2,0,0,19.539,110.787,Hainan
Baoting,海南,保亭,3,0,0,18.64104,109.694892,Hainan
Fuzhou,福建,福州,59,0,10,26.221752,119.314923,Fujian
Xiamen,福建,厦门,25,0,2,24.675485,118.280803,Fujian
Quanzhou,福建,泉州,40,0,4,25.173479,118.819017,Fujian
Zhangzhou,福建,漳州,16,0,1,24.575089,117.633366,Fujian
Ningde,福建,宁德,21,0,4,26.763865,119.454559,Fujian
Sanming,福建,三明,12,0,1,26.173967,117.516896,Fujian
Putian,福建,莆田,47,0,1,25.41,119,Fujian
Nanping,福建,南平,14,0,1,26.63,118.18,Fujian
Longyan,福建,龙岩,5,0,0,25.1,117,Fujian
Changzhou,江苏,常州,31,0,5,31.672903,119.943432,Jiangsu
Nanjing,江苏,南京,71,0,20,32.40064,118.848166,Jiangsu
Suzhou,江苏,苏州,75,0,4,31.332306,120.630878,Jiangsu
Lianyungang,江苏,连云港,32,0,2,34.51416,119.162196,Jiangsu
Wuxi,江苏,无锡,38,0,3,31.466579,120.248502,Jiangsu
Nantong,江苏,南通,32,0,2,32.071256,120.823875,Jiangsu
Yangzhou,江苏,扬州,18,0,2,32.408505,119.427778,Jiangsu
Yancheng,江苏,盐城,17,0,3,33.265898,119.968501,Jiangsu
Suqian,江苏,宿迁,12,0,0,34.00953,118.343693,Jiangsu
Zhenjiang,江苏,镇江,12,0,1,32.198,119.46,Jiangsu
Huai An,江苏,淮安,44,0,2,33.589,119.03,Jiangsu
Taizhou,江苏,泰州,30,0,4,32.45,119.91,Jiangsu
Xuzhou,江苏,徐州,56,0,3,34.27,117.186999,Jiangsu
Shenyang,辽宁,沈阳,26,0,3,41.843551,123.242847,Liaoning
Dalian,辽宁,大连,16,0,3,38.92,121.62,Liaoning
Chaoyang,辽宁,朝阳,6,0,0,41.55,120.4,Liaoning
Tieling,辽宁,铁岭,3,0,0,42.222765,123.914529,Liaoning
Huludao,辽宁,葫芦岛,9,0,0,40.75,120.84,Liaoning
Benxi,辽宁,本溪,3,0,0,41.19567,124.158564,Liaoning
Panjin,辽宁,盘锦,11,0,0,41.112,122.06,Liaoning
Yingkou,辽宁,营口,1,0,0,40.55,122.248,Liaoning
Dandong,辽宁,丹东,7,0,1,40.008,124.3545,Liaoning
Liaoyang,辽宁,辽阳,3,0,0,41.26,123.164,Liaoning
Anshan,辽宁,鞍山,3,0,0,41.1,122.99,Liaoning
Jinzhou,辽宁,锦州,10,0,1,41.0959,121.11,Liaoning
Fuxin,辽宁,阜新,7,0,0,42.015173,121.645287,Liaoning
Xi An,陕西,西安,88,0,10,34.066899,108.874256,Shaanxi
Xianyang,陕西,咸阳,16,0,2,34.423853,108.817312,Shaanxi
Ankang,陕西,安康,21,0,1,32.814464,108.896243,Shaanxi
Tongchuan,陕西,铜川,8,0,4,35.032,108.8355,Shaanxi
Yan An,陕西,延安,8,0,0,36.575992,109.648602,Shaanxi
Shangluo,陕西,商洛,7,0,1,33.895485,109.873271,Shaanxi
Weinan,陕西,渭南,9,0,0,34.5,109.451,Shaanxi
Hanzhong,陕西,汉中,21,0,0,33.1,107,Shaanxi
Baoji,陕西,宝鸡,12,0,2,34.39,107.23,Shaanxi
Hancheng,陕西,韩城,1,0,0,35.474,110.447,Shaanxi
Yulin,陕西,榆林,3,0,0,38.23,109.75,Shaanxi
Yangling,陕西,杨凌,1,0,0,34.272,108.082123,Shaanxi
Kunming,云南,昆明,41,0,6,26.139329,103.078562,Yunnan
Lijiang,云南,丽江,7,0,1,26.8593,100.328596,Yunnan
Xishuangbanna,云南,西双版纳,15,0,2,22.009433,100.803038,Yunnan
Qujing,云南,曲靖,11,0,1,25.360057,103.913326,Yunnan
Yuxi,云南,玉溪,14,0,2,24.369854,102.499895,Yunnan
Honghe,云南,红河,5,0,1,23.250955,102.243348,Yunnan
Dali,云南,大理,11,0,2,25.693967,100.219209,Yunnan
Baoshan,云南,保山,9,0,0,25.16,99.176,Yunnan
Dehong,云南,德宏,5,0,0,24.43,98.596,Yunnan
Zhaotong,云南,昭通,12,0,1,27.32,103.72,Yunnan
Pu Er,云南,普洱,4,0,0,22.7,100.96,Yunnan
Lincang,云南,临沧,1,0,0,23.87,100.1,Yunnan
Wenshan,云南,文山,1,0,0,23.394,104.226,Yunnan
Chuxiong,云南,楚雄,4,0,0,25.025884,101.548734,Yunnan
Tianjin,天津,天津,88,1,4,39.13,117.2,Tianjin
Harbin,黑龙江,哈尔滨,114,0,9,45.995674,126.61077,Heilongjiang
Mudanjiang,黑龙江,牡丹江,12,0,1,44.491714,129.584924,Heilongjiang
Daqing,黑龙江,大庆,13,1,0,46.070051,124.699077,Heilongjiang
Suihua,黑龙江,绥化,35,3,1,46.747537,126.957863,Heilongjiang
Qiqihar,黑龙江,齐齐哈尔,27,0,0,47.28,123.94,Heilongjiang
Jiamusi,黑龙江,佳木斯,13,0,1,46.8,130.37,Heilongjiang
Shuangyashan,黑龙江,双鸭山,38,2,1,46.642,131.152,Heilongjiang
Qitaihe,黑龙江,七台河,13,0,0,45.6,131,Heilongjiang
Jixi,黑龙江,鸡西,34,0,0,45.3,130.96,Heilongjiang
Hegang,黑龙江,鹤岗,4,0,0,47.335,130.294,Heilongjiang
Greater Hinggan,黑龙江,大兴安岭,2,0,0,50.41,124.122,Heilongjiang
Heihe,黑龙江,黑河,2,0,0,50.235,127.51,Heilongjiang
Jinzhong,山西,晋中,32,0,6,37.650825,112.843737,Shanxi
Taiyuan,山西,太原,15,0,1,37.748675,112.481587,Shanxi
Yuncheng,山西,运城,18,0,4,35.063677,110.961931,Shanxi
Yangquan,山西,阳泉,4,0,0,37.911504,113.568086,Shanxi
Datong,山西,大同,11,0,3,40,113.3,Shanxi
Changzhi,山西,长治,7,0,0,36.02468,113.086194,Shanxi
Linfen,山西,临汾,2,0,1,36.1,111.52,Shanxi
Shuozhou,山西,朔州,6,0,1,39.35,112.43,Shanxi
Lyuliang,山西,吕梁,6,0,3,37.5,111.1,Shanxi
Xinzhou,山西,忻州,6,0,0,38.4,112.732,Shanxi
Jincheng,山西,晋城,8,0,2,35.498,112.857,Shanxi
Shijiazhuang,河北,石家庄,24,0,3,38.014621,114.586383,Hebei
Cangzhou,河北,沧州,28,1,6,38.314446,116.844854,Hebei
Baoding,河北,保定,21,0,8,38.821877,115.484784,Hebei
Chengde,河北,承德,7,0,0,40.973242,118.125718,Hebei
Langfang,河北,廊坊,22,0,4,39.47,116.7,Hebei
Xingtai,河北,邢台,21,1,4,37.04,114.57,Hebei
Hengshui,河北,衡水,8,0,0,37.73,115.699,Hebei
Tangshan,河北,唐山,27,0,2,39.59,118.2,Hebei
Handan,河北,邯郸,27,0,2,36.574,114.48,Hebei
Zhangjiakou,河北,张家口,14,0,1,40.81,114.89,Hebei
Qinhuangdao,河北,秦皇岛,7,0,0,39.95,119.59,Hebei
Xilingol - Xilinhot,内蒙古,锡林郭勒-锡林浩特,2,0,1,43.468238,114.415868,Inner Mongolia
Erenhot,内蒙古,二连浩特,1,0,0,43.63,112,Inner Mongolia
Ordos,内蒙古,鄂尔多斯,11,0,2,39.805586,109.764419,Inner Mongolia
Manzhouli,内蒙古,满洲里,1,0,0,49.500032,117.603687,Inner Mongolia
Chifeng,内蒙古,赤峰,4,0,1,42.268753,118.757106,Inner Mongolia
Hulun Buir,内蒙古,呼伦贝尔,5,0,1,49.22,119.76,Inner Mongolia
Yakeshi,内蒙古,牙克石,1,0,0,49.329996,121.512668,Inner Mongolia
Ulahot,内蒙古,乌兰浩特,2,0,1,46.05,122.1,Inner Mongolia
Ulanqab,内蒙古,乌兰察布,3,0,0,40.99,113.13,Inner Mongolia
Baotou,内蒙古,包头,10,0,0,40.65,109.8,Inner Mongolia
Bayannur,内蒙古,巴彦淖尔,4,0,0,40.75,107.38,Inner Mongolia
Tongliao,内蒙古,通辽,3,0,0,43.626,122.25,Inner Mongolia
Huhhot,内蒙古,呼和浩特,7,0,0,40.83,111.69,Inner Mongolia
Wuhai,内蒙古,乌海,2,0,0,39.639,106.779,Inner Mongolia
Hong Kong,香港,香港,26,1,0,22.293586,114.186124,Hong Kong SAR
Tongren,贵州,铜仁,7,0,2,27.674903,109.168558,Guizhou
Guiyang,贵州,贵阳,22,0,1,26.496945,106.70098,Guizhou
Qiannan,贵州,黔南州,7,0,3,26.254,107.522,Guizhou
Qianxinan,贵州,黔西南州,4,0,0,25.1,104.9,Guizhou
Liupanshui,贵州,六盘水,10,1,0,26.55,104.85,Guizhou
Qiandongnan,贵州,黔东南州,6,0,0,26.56,108,Guizhou
Zunyi,贵州,遵义,15,0,1,27.7478,106.91,Guizhou
Bijie,贵州,毕节,21,0,0,27.31,105.29,Guizhou
Anshun,贵州,安顺,4,0,0,26.25,105.93,Guizhou
Jilin,吉林,吉林市,5,0,2,43.87,126.57,Jilin
Changchun,吉林,长春,37,0,1,43.531747,125.712822,Jilin
Songyuan,吉林,松原,2,0,1,45.29271,124.867571,Jilin
Siping,吉林,四平,12,1,0,43.178,124.37,Jilin
Gongzhuling,吉林,公主岭,6,0,1,43.49,124.8,Jilin
Tonghua,吉林,通化,3,0,0,41.74,125.92,Jilin
Yanbian,吉林,延边,5,0,0,42.89,129.51,Jilin
Liaoyuan,吉林,辽源,6,0,0,42.895188,125.148648,Jilin
Meihekou,吉林,梅河口,1,0,0,42.537275,125.691833,Jilin
Baicheng,吉林,白城,1,0,0,45.614037,122.84704,Jilin
Lanzhou,甘肃,兰州,33,1,5,36.303488,103.060275,Gansu
Baiyin,甘肃,白银,4,0,0,36.69035,104.945609,Gansu
Linxia,甘肃,临夏,3,0,2,35.518719,103.050791,Gansu
Dingxi,甘肃,定西,8,0,1,35.58,104.62,Gansu
Zhangye,甘肃,张掖,2,0,0,38.93,100.46,Gansu
Longnan,甘肃,陇南,4,0,0,33.39,104.91,Gansu
Jinchang,甘肃,金昌,1,0,0,38.52,102.18,Gansu
Tianshui,甘肃,天水,12,0,1,34.58,105.73,Gansu
Pingliang,甘肃,平凉,4,0,0,35.53,106.67,Gansu
Gannan,甘肃,甘南,6,0,0,34.981,102.91,Gansu
Qingyang,甘肃,庆阳,2,0,0,35.7,107.65,Gansu
Yinchuan,宁夏,银川,28,0,5,38.478591,106.24265,Ningxia
Zhongwei,宁夏,中卫,3,0,2,37.360639,105.111278,Ningxia
Guyuan,宁夏,固原,2,0,2,36.206829,106.254011,Ningxia
Wuzhong,宁夏,吴忠,10,0,4,37.97,106.2,Ningxia
Ningdong Energy Chemical Industry Base Admin Committee,宁夏,宁东管委会,1,0,0,38.4,106.31,Ningxia
Shizuishan,宁夏,石嘴山,1,0,0,38.991988,106.37,Ningxia
__,台湾,地区,17,0,1,23.5,121,Taiwan (ROC)
Urumqi,新疆,乌鲁木齐,20,0,0,43.419108,87.360244,Xinjiang
Ili,新疆,伊犁,10,0,0,43.9,81.32,Xinjiang
Turpan,新疆,吐鲁番,1,0,0,42.95,89.15,Xinjiang
Shihezi (The 8th Division),新疆,第八师石河子,1,0,0,44.26,86.05,Xinjiang
Aksu,新疆,阿克苏,1,0,0,41.133,80.192,Xinjiang
Emin (The 9th Division),新疆,第九师额敏县,4,0,0,46.521076,83.620741,Xinjiang
Changji,新疆,昌吉,2,0,0,44,87.275,Xinjiang
Wujiaqu (The 6th Division),新疆,第六师五家渠,1,0,0,44.159797,87.538838,Xinjiang
Huyangh (The 7th Division),新疆,第七师胡杨河,1,0,0,44.710398,84.8254,Xinjiang
Bayingolin,新疆,巴音郭楞,3,0,0,41.771312,86.161609,Xinjiang
The 12th Division,新疆,第十二师,1,0,0,43.6,87,Xinjiang
Macau,澳门,澳门,10,0,1,22.204118,113.557519,Macau SAR
Xining,青海,西宁,15,0,3,36.686368,101.712664,Qinghai
Haibei,青海,海北州,3,0,0,36.899,100.997,Qinghai
Chengdu,四川,成都,120,1,33,30.67,104.06,Sichuan
Mianyang,四川,绵阳,20,0,3,31.46,104.73,Sichuan
Guang An,四川,广安,28,0,3,30.3,106,Sichuan
Suining,四川,遂宁,8,0,2,30.501934,105.569333,Sichuan
Luzhou,四川,泸州,16,0,2,27.88,106.27,Sichuan
Nanchong,四川,南充,32,0,2,30.84,106.12,Sichuan
Ganzi,四川,甘孜,17,0,0,31.62,99.99,Sichuan
Deyang,四川,德阳,16,0,0,31.33,104.23,Sichuan
Ya An,四川,雅安,6,0,1,30,103,Sichuan
Dazhou,四川,达州,25,0,5,31.2,107.5,Sichuan
Zigong,四川,自贡,9,0,2,29.34,104.78,Sichuan
Neijiang,四川,内江,17,0,2,29.6,105,Sichuan
Leshan,四川,乐山,3,0,0,29.2,103.63,Sichuan
Meishan,四川,眉山,7,0,1,29.9,103.5,Sichuan
Yibin,四川,宜宾,9,0,0,28.76,104.63,Sichuan
Liangshan,四川,凉山,9,0,0,27.88,102.28,Sichuan
Ziyang,四川,资阳,3,0,0,30.1,104.67,Sichuan
Guangyuan,四川,广元,6,0,0,30.46,106.64,Sichuan
Aba,四川,阿坝,1,0,0,32.9,101.71,Sichuan
Bazhong,四川,巴中,21,0,1,31.86,106.75,Sichuan
Panzhihua,四川,攀枝花,13,0,3,26.578,101.721,Sichuan
Lhasa,西藏,拉萨,1,0,0,29.65,91.577,Tibet
France,法国,_,11,0,0,46.83,2.48,_
Germany,德国,_,14,0,0,51.3,10.2,_
Sri Lanka,斯里兰卡,_,1,0,0,7.6,80.4,_
Vietnam,越南,_,10,0,1,15.56,108.05,_
Combodia,柬埔寨,_,1,0,0,12.57,104.9,_
Thailand,泰国,_,25,0,5,15.76,101.14,_
Malaysia,马来西亚,_,16,0,1,4.4,102.13,_
Singapore,新加坡,_,33,0,2,1.18,103.85,_
South Korea,韩国,_,24,0,1,36.86,127.8,_
Japan,日本,_,89,0,1,36.22,139,_
New South Wales,澳大利亚,新南威尔士州,4,0,2,-32.1,147.4,Australia
Victoria,澳大利亚,维多利亚州,4,0,0,-37,144.5,Australia
Queensland,澳大利亚,昆士兰州,5,0,0,-23.200961,146.260643,Australia
South Australia,澳大利亚,南澳大利亚州,2,0,0,-29.864316,134.736328,Australia
Seattle,美国,华盛顿州西雅图,1,0,0,47.582142,-122.255859,USA
Santa Clara,美国,加利福尼亚州圣克拉拉,2,0,0,37.370946,-121.967669,USA
San Benito,美国,加利福尼亚州圣本尼托,2,0,0,36.509685,-121.08186,USA
Los Angeles,美国,加利福尼亚州洛杉矶,1,0,0,33.906896,-118.270397,USA
Tempe,美国,亚利桑那州坦普,1,0,0,33.427564,-111.946564,USA
Chicago,美国,伊利诺伊州芝加哥,2,0,0,41.748,-87.6489,USA
Madison,美国,威斯康辛州麦迪逊,1,0,0,43.062382,-89.410129,USA
Boston,美国,马萨诸塞州波士顿,1,0,0,42.358544,-71.107678,USA
Orange,美国,加利福尼亚州奥兰治,1,0,0,33.64136,-117.76939,USA
Toronto,加拿大,安大略省多伦多,2,0,0,43.675818,-79.448919,Canada
London,加拿大,安大略省伦敦,1,0,0,42.995074,-81.254883,Canada
Nepal,尼泊尔,_,1,0,0,27.69,85.32,_
British Columbia,加拿大,不列颠哥伦比亚省,2,0,0,54.35,-123.66,Canada
Italy,意大利,_,3,0,0,43,12.62,_
Finland,芬兰,_,1,0,0,64.36,26.79,_
India,印度,_,3,0,0,21.56,78.2,_
UAE,阿联酋,_,7,0,0,23.69,54.43,_
Philippines,菲律宾,_,3,1,0,16.82048,121.421,_
Russia,俄罗斯,_,2,0,0,62.267923,57.3898,_
UK,英国,_,3,0,0,53.9,-1.64,_
Spain,西班牙,_,1,0,0,40.23,-3.7999,_
Sweden,瑞典,_,1,0,0,62.75,15.226,_
Belgium,比利时,_,1,0,0,50.814,4.42,_