,city_cn,province_cn,city,province,lat,lon,cure,death,case,remain
1,长沙,中国湖南,Changsha,Hunan China,28.322759,113.224946,216,2,242,24
2,岳阳,中国湖南,Yueyang,Hunan China,29.178499,113.237527,151,1,156,4
3,怀化,中国湖南,Huaihua,Hunan China,27.612024,109.945539,40,0,40,0
4,娄底,中国湖南,Loudi,Hunan China,27.766945,112.004619,74,0,76,2
5,永州,中国湖南,Yongzhou,Hunan China,26.560382,111.621586,44,0,44,0
6,益阳,中国湖南,Yiyang,Hunan China,28.588088,112.366547,60,0,60,0
7,衡阳,中国湖南,Hengyang,Hunan China,27.109626,112.351579,48,0,48,0
8,常德,中国湖南,Changde,Hunan China,28.995243,111.747796,82,0,82,0
9,湘潭,中国湖南,Xiangtan,Hunan China,27.669223,112.788805,36,0,36,0
10,邵阳,中国湖南,Shaoyang,Hunan China,26.984977,111.332372,100,1,102,1
11,株洲,中国湖南,Zhuzhou,Hunan China,27.535936,113.153348,76,0,80,4
12,郴州,中国湖南,Chenzhou,Hunan China,25.773515,113.051002,39,0,39,0
13,湘西自治州,中国湖南,Xiangxi,Hunan China,28.26,109.69,8,0,8,0
14,张家界,中国湖南,Zhangjiajie,Hunan China,29.13,110.48,5,0,5,0
15,武汉,中国湖北,Wuhan,Hubei China,30.581084,114.3162,30987,2389,49948,16572
16,黄冈,中国湖北,Huanggang,Hubei China,30.518802,114.949569,2641,125,2907,141
17,孝感,中国湖北,Xiaogan,Hubei China,30.944617,114.016142,3057,126,3518,335
18,咸宁,中国湖北,Xianning,Hubei China,29.85465,114.391867,806,14,836,16
19,荆门,中国湖北,Jingmen,Hubei China,30.932878,112.193923,767,39,928,122
20,随州,中国湖北,Suizhou,Hubei China,31.890024,113.294246,1104,44,1307,159
21,荆州,中国湖北,Jingzhou,Hubei China,30.396103,112.099857,1411,49,1580,120
22,黄石,中国湖北,Huangshi,Hubei China,30.218698,114.903009,897,37,1015,81
23,宜昌,中国湖北,Yichang,Hubei China,30.979971,111.310649,753,34,931,144
24,十堰,中国湖北,Shiyan,Hubei China,32.66384,110.717401,588,8,672,76
25,恩施,中国湖北,Enshi,Hubei China,32,109.5,233,6,252,13
26,仙桃,中国湖北,Xiantao,Hubei China,30.293966,113.387448,506,21,575,48
27,天门,中国湖北,Tianmen,Hubei China,30.649047,113.12623,461,15,496,20
28,襄阳,中国湖北,Xiangyang,Hubei China,32.229169,112.250093,1064,38,1175,73
29,鄂州,中国湖北,Ezhou,Hubei China,30.320603,114.901016,1030,54,1394,310
30,神农架,中国湖北,Shennongjia,Hubei China,31.74,110.684,11,0,11,0
31,黔江,中国湖北,Qianjiang,Hubei China,30.4,112.89,172,9,198,17
32,信阳,中国河南,Xinyang,Henan China,32.30784,114.139086,271,2,274,1
33,郑州,中国河南,Zhengzhou,Henan China,34.759791,113.62,152,5,157,0
34,南阳,中国河南,Nanyang,Henan China,33.009839,112.484267,152,3,156,1
35,驻马店,中国河南,Zhumadian,Henan China,32.968357,114.00829,139,0,139,0
36,周口,中国河南,Zhoukou,Henan China,33.630876,114.65795,74,1,76,1
37,新乡,中国河南,Xinxiang,Henan China,35.3,113.92,54,3,57,0
38,安阳,中国河南,Anyang,Henan China,36.056025,114.256604,53,0,53,0
39,漯河,中国河南,Luohe,Henan China,33.534755,113.923601,35,0,35,0
40,三门峡,中国河南,Sanmenxia,Henan China,34.771778,111.281295,6,1,7,0
41,巩义,中国河南,Gongyi,Henan China,34.703799,113.03959,NA,NA,NA,NA
42,平顶山,中国河南,Pingdingshan,Henan China,33.712341,113.278189,57,1,58,0
43,洛阳,中国河南,Luoyang,Henan China,34.638792,112.467093,30,1,31,0
44,商丘,中国河南,Shangqiu,Henan China,34.42,115.65,88,3,91,0
45,开封,中国河南,Kaifeng,Henan China,34.798,114.346,26,0,26,0
46,鹤壁,中国河南,Hebi,Henan China,35.74,114.295,19,0,19,0
47,许昌,中国河南,Xuchang,Henan China,34,113.8,38,1,39,0
48,焦作,中国河南,Jiaozuo,Henan China,35.2,113.257,31,1,32,0
49,濮阳,中国河南,Puyang,Henan China,35.76,115.02,17,0,17,0
50,济源,中国河南,Jiyuan,Henan China,35.1,112.58,5,0,5,0
51,深圳,中国广东,Shenzhen,Guangdong China,22.606981,114.278483,373,3,419,43
52,广州,中国广东,Guangzhou,Guangdong China,23.446661,113.220176,322,1,347,24
53,珠海,中国广东,Zhuhai,Guangdong China,22.047215,113.41759,95,1,98,2
54,佛山,中国广东,Foshan,Guangdong China,22.824523,112.683258,77,0,84,7
55,惠州,中国广东,Huizhou,Guangdong China,23.163063,114.485898,62,0,62,0
56,阳江,中国广东,Yangjiang,Guangdong China,21.762804,111.930036,14,0,14,0
57,韶关,中国广东,Shaoguan,Guangdong China,24.919162,113.57745,9,1,10,0
58,湛江,中国广东,Zhanjiang,Guangdong China,21.0941,110.338022,22,0,22,0
59,中山,中国广东,Zhongshan,Guangdong China,22.545178,113.42206,62,0,66,4
60,肇庆,中国广东,Zhaoqing,Guangdong China,23.208968,112.625249,18,1,19,0
61,清远,中国广东,Qingyuan,Guangdong China,23.625856,113.114585,12,0,12,0
62,东莞,中国广东,Dongguan,Guangdong China,23.043024,113.763434,96,1,99,2
63,汕头,中国广东,Shantou,Guangdong China,23.532997,116.814808,24,0,25,1
64,汕尾,中国广东,Shanwei,Guangdong China,22.8,115.38,5,0,5,0
65,梅州,中国广东,Meizhou,Guangdong China,24.3,116.119,15,0,16,1
66,揭阳,中国广东,Jieyang,Guangdong China,23.53,116.34,8,0,8,0
67,河源,中国广东,Heyuan,Guangdong China,23.74,114.69,4,0,4,0
68,茂名,中国广东,Maoming,Guangdong China,21.665,110.92,14,0,14,0
69,江门,中国广东,Jiangmen,Guangdong China,22.57,113.079,23,0,23,0
70,潮州,中国广东,Chaozhou,Guangdong China,23.656,116.62,5,0,5,0
71,泰州,中国浙江,Taizhou,Zhejiang China,28.548659,121.450242,139,0,146,7
72,杭州,中国浙江,Hangzhou,Zhejiang China,30.38812,119.998089,166,0,169,3
73,温州,中国浙江,Wenzhou,Zhejiang China,27.972177,120.558404,493,1,504,10
74,宁波,中国浙江,Ningbo,Zhejiang China,29.785459,121.537835,157,0,157,0
75,嘉兴,中国浙江,Jiaxing,Zhejiang China,30.777679,120.691907,43,0,45,2
76,绍兴,中国浙江,Shaoxing,Zhejiang China,29.968789,120.572451,39,0,42,3
77,舟山,中国浙江,Zhoushan,Zhejiang China,29.871101,122.278765,10,0,10,0
78,金华,中国浙江,Jinhua,Zhejiang China,29.155526,119.809227,54,0,55,1
79,衢州,中国浙江,Quzhou,Zhejiang China,28.941983,118.939044,14,0,14,0
80,丽水,中国浙江,Lishui,Zhejiang China,28.48,119.921,17,0,25,8
81,湖州,中国浙江,Huzhou,Zhejiang China,30.89,120.1,10,0,12,2
82,万州,中国重庆,Wanzhou,Chongqing China,30.710054,108.413439,111,4,118,3
83,长寿,中国重庆,Changshou,Chongqing China,29.960491,107.146615,18,0,22,4
84,开州,中国重庆,Kaizhou,Chongqing China,31.2,108.4,20,1,21,0
85,永川,中国重庆,Yongchuan,Chongqing China,29.296488,105.880358,5,0,5,0
86,忠县,中国重庆,Zhongxian,Chongqing China,30.342003,107.921738,21,0,21,0
87,巫山,中国重庆,Wushan,Chongqing China,31.121152,109.908611,10,0,10,0
88,石柱,中国重庆,Shizhu,Chongqing China,29.9,108,15,0,15,0
89,重庆市区,中国重庆,Chongqing,Chongqing China,29.59,106.54,888,10,1204,306
90,渝北,中国重庆,Yubei,Chongqing China,29.816264,106.753799,17,0,17,0
91,垫江,中国重庆,Dianjiang,Chongqing China,30.259498,107.444445,20,0,20,0
92,云阳,中国重庆,Yunyang,Chongqing China,31.042409,108.863186,25,0,25,0
93,无锡,中国重庆,Wuxi,Chongqing China,31.509161,109.360531,14,0,14,0
94,合川,中国重庆,Hechuan,Chongqing China,30.118708,106.318029,23,0,23,0
95,璧山,中国重庆,Bishan,Chongqing China,29.5,106.17,9,0,9,0
96,涪陵,中国重庆,Fuling,Chongqing China,29.664671,107.3408,5,0,5,0
97,奉节,中国重庆,Fengjie,Chongqing China,30.958553,109.355667,22,0,22,0
98,秀山,中国重庆,Xiushan,Chongqing China,28.38,109.06,1,0,1,0
99,梁平,中国重庆,Liangping,Chongqing China,30.65,107.8,4,0,4,0
100,城口,中国重庆,Chengkou,Chongqing China,31.888131,108.741855,2,0,2,0
101,大足,中国重庆,Dazu,Chongqing China,29.714,105.72,13,0,14,1
102,丰都,中国重庆,Fengdu,Chongqing China,29.890596,107.837517,8,0,10,2
103,黔江,中国重庆,Qianjiang,Chongqing China,29.53,108.76,2,0,2,0
104,万盛,中国重庆,Wansheng,Chongqing China,28.962248,106.924888,1,0,1,0
105,潼南,中国重庆,Tongnan,Chongqing China,30.19,105.84,15,0,18,3
106,铜梁,中国重庆,Tongliang,Chongqing China,29.85,106.05,9,0,10,1
107,綦江,中国重庆,Qijiang,Chongqing China,29.03,106.64,20,0,23,3
108,江津,中国重庆,Jiangjin,Chongqing China,29.28,106.26,4,0,4,0
109,巴南,中国重庆,Banan,Chongqing China,29.37,106.52,5,0,6,1
110,武隆,中国重庆,Wulong,Chongqing China,29.33,107.75,1,0,1,0
111,酉阳,中国重庆,Youyang,Chongqing China,28.844414,108.763426,1,0,1,0
112,荣昌,中国重庆,Rongchang,Chongqing China,29.422,105.61,8,0,9,1
113,彭水,中国重庆,Pengshui,Chongqing China,29.293585,108.165373,2,0,2,0
114,北京市区,中国北京,Beijing,Beijing China,39.92,116.46,70,0,2778,2708
115,昌平,中国北京,Changping,Beijing China,40.221724,116.216456,10,0,29,19
116,通州,中国北京,Tongzhou,Beijing China,32.081032,121.028859,1,0,19,18
117,大兴,中国北京,Daxing,Beijing China,39.73,116.33,16,0,39,23
118,顺义,中国北京,Shunyi,Beijing China,40.154951,116.728229,0,0,10,10
119,门头沟,中国北京,Mentougou,Beijing China,39.94,116.1,2,0,3,1
120,房山,中国北京,Fangshan,Beijing China,39.744,116.134254,3,0,16,13
121,延庆,中国北京,Yanqing,Beijing China,40.4565,115.971,0,0,1,1
122,密云,中国北京,Miyun,Beijing China,40.375043,116.83548,0,0,7,7
123,怀柔,中国北京,Huairou,Beijing China,40.315,116.626,0,0,7,7
124,上海,中国上海,Shanghai,Shanghai China,31.2,121.560642,315,3,342,24
125,临沂,中国山东,Linyi,Shandong China,35.127031,118.517311,48,0,49,1
126,青岛,中国山东,Tsingtao,Shandong China,36.284247,120.346326,58,1,60,1
127,威海,中国山东,Weihai,Shandong China,37.399344,122.152075,35,0,38,3
128,日照,中国山东,Rizhao,Shandong China,35.469377,119.377852,15,0,16,1
129,济宁,中国山东,Jining,Shandong China,35.380135,116.572199,229,0,260,31
130,济南,中国山东,Jinan,Shandong China,36.42857,116.803552,44,0,47,3
131,德州,中国山东,Dezhou,Shandong China,37.457437,116.332912,31,2,37,4
132,潍坊,中国山东,Weifang,Shandong China,36.691227,119.196972,44,0,44,0
133,烟台,中国山东,Yantai,Shandong China,37.407476,121.451535,43,0,47,4
134,聊城,中国山东,Liaocheng,Shandong China,36.45583,115.907706,38,0,38,0
135,滨州,中国山东,Binzhou,Shandong China,37.424891,117.981211,15,0,15,0
136,菏泽,中国山东,Heze,Shandong China,35.26244,115.46336,18,0,18,0
137,淄博,中国山东,Zibo,Shandong China,36.771219,117.875108,25,1,30,4
138,枣庄,中国山东,Zaozhuang,Shandong China,34.82,117.31,24,0,24,0
139,泰安,中国山东,Tai An,Shandong China,36.189,117.1,33,2,35,0
140,合肥,中国安徽,Hefei,Anhui China,31.790724,117.353913,173,1,174,0
141,阜阳,中国安徽,Fuyang,Anhui China,33.07351,115.734026,155,0,155,0
142,亳州,中国安徽,Bozhou,Anhui China,33.782924,115.812814,108,0,108,0
143,安庆,中国安徽,Anqing,Anhui China,31.859252,117.216005,83,0,83,0
144,马鞍山,中国安徽,Maanshan,Anhui China,31.659719,118.554558,38,0,38,0
145,铜陵,中国安徽,Tongling,Anhui China,30.952359,117.918516,29,0,29,0
146,六安,中国安徽,Lu An,Anhui China,31.753039,116.302573,69,0,69,0
147,滁州,中国安徽,Chuzhou,Anhui China,32.310209,118.270828,13,0,13,0
148,池州,中国安徽,Chizhou,Anhui China,30.514086,117.508478,17,0,17,0
149,蚌埠,中国安徽,Bengbu,Anhui China,33.023815,117.388184,155,5,160,0
150,芜湖,中国安徽,Wuhu,Anhui China,31.191699,118.532462,34,0,34,0
151,黄山,中国安徽,Huangshan,Anhui China,29.7,118.314,9,0,9,0
152,淮北,中国安徽,Huaibei,Anhui China,33.94,116.9,27,0,27,0
153,淮南,中国安徽,Huainan,Anhui China,32.58,117,27,0,27,0
154,苏州,中国安徽,Suzhou,Anhui China,33.639,116.96,41,0,41,0
155,宣城,中国安徽,Xuancheng,Anhui China,30.92,118.8,6,0,6,0
156,赣州,中国江西,Ganzhou,Jiangxi China,25.838711,114.937365,75,1,76,0
157,福州,中国江西,Fuzhou,Jiangxi China,27.924732,116.362974,72,0,72,0
158,上饶,中国江西,Shangrao,Jiangxi China,28.40568,117.944367,122,0,123,1
159,宜春,中国江西,Yichun,Jiangxi China,27.839383,114.290358,106,0,106,0
160,南昌,中国江西,Nanchang,Jiangxi China,28.620772,116.071261,225,0,230,5
161,萍乡,中国江西,Pingxiang,Jiangxi China,27.53371,113.739818,33,0,33,0
162,九江,中国江西,Jiujiang,Jiangxi China,29.64023,115.842035,113,0,118,5
163,吉安,中国江西,Ji An,Jiangxi China,27.160925,114.960437,22,0,22,0
164,新余,中国江西,Xinyu,Jiangxi China,27.850578,115.007851,130,0,130,0
165,景德镇,中国江西,Jingdezhen,Jiangxi China,29.303231,117.234119,6,0,6,0
166,鹰潭,中国江西,Yingtan,Jiangxi China,28.261751,117.023752,18,0,18,0
167,赣江新区,中国江西,Gan River New District,Jiangxi China,28.815514,115.946982,1,0,1,0
168,桂林,中国广西,Guilin,Guangxi China,25.112806,110.371485,31,0,32,1
169,北海,中国广西,Beihai,Guangxi China,21.574915,109.422489,41,1,44,2
170,柳州,中国广西,Liuzhou,Guangxi China,24.471743,109.413915,21,0,24,3
171,河池,中国广西,Hechi,Guangxi China,24.660762,107.873444,22,1,28,5
172,梧州,中国广西,Wuzhou,Guangxi China,23.5602,111.189914,5,0,5,0
173,百色,中国广西,Baise,Guangxi China,23.941866,106.505596,3,0,3,0
174,防城港,中国广西,Fangchenggang,Guangxi China,21.662036,108.449166,15,0,19,4
175,南宁,中国广西,Nanning,Guangxi China,22.894927,108.573583,54,0,55,1
176,榆林,中国广西,Yulin,Guangxi China,22.557213,110.064534,11,0,11,0
177,贺州,中国广西,Hezhou,Guangxi China,24.415,111.54,4,0,4,0
178,钦州,中国广西,Qinzhou,Guangxi China,21.97,108.617,8,0,8,0
179,贵港,中国广西,Guigang,Guangxi China,23.1,109.59,8,0,8,0
180,来宾,中国广西,Laibin,Guangxi China,23.746383,109.218231,7,0,11,4
181,三亚,中国海南,Sanya,Hainan China,18.397248,109.429348,53,1,54,0
182,万宁,中国海南,Wanning,Hainan China,18.839886,110.292505,13,0,13,0
183,海口,中国海南,Haikou,Hainan China,19.942909,110.507269,38,0,39,1
184,儋州,中国海南,Danzhou,Hainan China,19.571153,109.413973,12,1,15,2
185,临高,中国海南,Lingao,Hainan China,19.805922,109.724102,6,0,6,0
186,陵水,中国海南,Lingshui,Hainan China,18.506,110.0375,4,0,4,0
187,澄迈,中国海南,Chengmai,Hainan China,19.7,110,8,1,9,0
188,琼中,中国海南,Qiongzhong,Hainan China,19.04,109.82,1,0,1,0
189,东方,中国海南,Dongfang,Hainan China,19.09,108.66,2,1,3,0
190,琼海,中国海南,Qionghai,Hainan China,19.256,110.468,5,1,6,0
191,定安,中国海南,Ding An,Hainan China,19.68,110.36,2,1,3,0
192,昌江,中国海南,Changjiang,Hainan China,19.298,109.04,7,0,7,0
193,乐东,中国海南,Ledong,Hainan China,18.75,109.168,2,0,2,0
194,文昌,中国海南,Wenchang,Hainan China,19.539,110.787,3,0,3,0
195,保亭,中国海南,Baoting,Hainan China,18.64104,109.694892,3,0,3,0
196,福州,中国福建,Fuzhou,Fujian China,26.221752,119.314923,71,1,72,0
197,厦门,中国福建,Xiamen,Fujian China,24.675485,118.280803,35,0,35,0
198,泉州,中国福建,Quanzhou,Fujian China,25.173479,118.819017,47,0,47,0
199,漳州,中国福建,Zhangzhou,Fujian China,24.575089,117.633366,20,0,20,0
200,宁德,中国福建,Ningde,Fujian China,26.763865,119.454559,26,0,26,0
201,三明,中国福建,Sanming,Fujian China,26.173967,117.516896,14,0,14,0
202,莆田,中国福建,Putian,Fujian China,25.41,119,56,0,56,0
203,南平,中国福建,Nanping,Fujian China,26.63,118.18,20,0,20,0
204,龙岩,中国福建,Longyan,Fujian China,25.1,117,6,0,6,0
205,常州,中国江苏,Changzhou,Jiangsu China,31.672903,119.943432,51,0,51,0
206,南京,中国江苏,Nanjing,Jiangsu China,32.40064,118.848166,93,0,93,0
207,苏州,中国江苏,Suzhou,Jiangsu China,31.332306,120.630878,84,0,87,3
208,连云港,中国江苏,Lianyungang,Jiangsu China,34.51416,119.162196,47,0,48,1
209,无锡,中国江苏,Wuxi,Jiangsu China,31.466579,120.248502,52,0,55,3
210,南通,中国江苏,Nantong,Jiangsu China,32.071256,120.823875,40,0,40,0
211,扬州,中国江苏,Yangzhou,Jiangsu China,32.408505,119.427778,23,0,23,0
212,盐城,中国江苏,Yancheng,Jiangsu China,33.265898,119.968501,27,0,27,0
213,宿迁,中国江苏,Suqian,Jiangsu China,34.00953,118.343693,13,0,13,0
214,镇江,中国江苏,Zhenjiang,Jiangsu China,32.198,119.46,12,0,12,0
215,淮安,中国江苏,Huai An,Jiangsu China,33.589,119.03,66,0,66,0
216,泰州,中国江苏,Taizhou,Jiangsu China,32.45,119.91,37,0,37,0
217,徐州,中国江苏,Xuzhou,Jiangsu China,34.27,117.186999,76,0,79,3
218,沈阳,中国辽宁,Shenyang,Liaoning China,41.843551,123.242847,25,0,28,3
219,大连,中国辽宁,Dalian,Liaoning China,38.92,121.62,15,0,19,4
220,朝阳,中国辽宁,Chaoyang,Liaoning China,41.55,120.4,5,0,6,1
221,铁岭,中国辽宁,Tieling,Liaoning China,42.222765,123.914529,6,0,7,1
222,葫芦岛,中国辽宁,Huludao,Liaoning China,40.75,120.84,9,1,12,2
223,本溪,中国辽宁,Benxi,Liaoning China,41.19567,124.158564,3,0,3,0
224,盘锦,中国辽宁,Panjin,Liaoning China,41.112,122.06,11,0,11,0
225,营口,中国辽宁,Yingkou,Liaoning China,40.55,122.248,1,0,1,0
226,丹东,中国辽宁,Dandong,Liaoning China,40.008,124.3545,7,0,11,4
227,辽阳,中国辽宁,Liaoyang,Liaoning China,41.26,123.164,3,0,3,0
228,鞍山,中国辽宁,Anshan,Liaoning China,41.1,122.99,4,0,4,0
229,锦州,中国辽宁,Jinzhou,Liaoning China,41.0959,121.11,12,0,12,0
230,阜新,中国辽宁,Fuxin,Liaoning China,42.015173,121.645287,8,0,8,0
231,西安,中国陕西,Xi An,Shaanxi China,34.066899,108.874256,108,1,120,11
232,咸阳,中国陕西,Xianyang,Shaanxi China,34.423853,108.817312,16,0,17,1
233,安康,中国陕西,Ankang,Shaanxi China,32.814464,108.896243,25,0,26,1
234,铜川,中国陕西,Tongchuan,Shaanxi China,35.032,108.8355,7,0,8,1
235,延安,中国陕西,Yan An,Shaanxi China,36.575992,109.648602,8,0,8,0
236,商洛,中国陕西,Shangluo,Shaanxi China,33.895485,109.873271,7,0,7,0
237,渭南,中国陕西,Weinan,Shaanxi China,34.5,109.451,13,0,15,2
238,汉中,中国陕西,Hanzhong,Shaanxi China,33.1,107,25,0,26,1
239,宝鸡,中国陕西,Baoji,Shaanxi China,34.39,107.23,13,0,13,0
240,韩城,中国陕西,Hancheng,Shaanxi China,35.474,110.447,1,0,1,0
241,榆林,中国陕西,Yulin,Shaanxi China,38.23,109.75,3,0,3,0
242,杨凌,中国陕西,Yangling,Shaanxi China,34.272,108.082123,1,0,1,0
243,昆明,中国云南,Kunming,Yunnan China,26.139329,103.078562,53,0,53,0
244,丽江,中国云南,Lijiang,Yunnan China,26.8593,100.328596,7,0,7,0
245,西双版纳,中国云南,Xishuangbanna,Yunnan China,22.009433,100.803038,14,1,15,0
246,曲靖,中国云南,Qujing,Yunnan China,25.360057,103.913326,12,0,13,1
247,玉溪,中国云南,Yuxi,Yunnan China,24.369854,102.499895,13,1,14,0
248,红河,中国云南,Honghe,Yunnan China,23.250955,102.243348,9,0,9,0
249,大理,中国云南,Dali,Yunnan China,25.693967,100.219209,13,0,13,0
250,保山,中国云南,Baoshan,Yunnan China,25.16,99.176,9,0,9,0
251,德宏,中国云南,Dehong,Yunnan China,24.43,98.596,4,0,5,1
252,昭通,中国云南,Zhaotong,Yunnan China,27.32,103.72,25,0,25,0
253,普洱,中国云南,Pu Er,Yunnan China,22.7,100.96,4,0,4,0
254,临沧,中国云南,Lincang,Yunnan China,23.87,100.1,1,0,1,0
255,文山,中国云南,Wenshan,Yunnan China,23.394,104.226,2,0,2,0
256,楚雄,中国云南,Chuxiong,Yunnan China,25.025884,101.548734,4,0,4,0
257,天津,中国天津,Tianjin,Tianjin China,39.13,117.2,130,3,136,3
258,哈尔滨,中国黑龙江,Harbin,Heilongjiang China,45.995674,126.61077,173,4,198,21
259,牡丹江,中国黑龙江,Mudanjiang,Heilongjiang China,44.491714,129.584924,13,0,15,2
260,大庆,中国黑龙江,Daqing,Heilongjiang China,46.070051,124.699077,22,1,26,3
261,绥化,中国黑龙江,Suihua,Heilongjiang China,46.747537,126.957863,38,4,47,5
262,齐齐哈尔,中国黑龙江,Qiqihar,Heilongjiang China,47.28,123.94,38,1,43,4
263,佳木斯,中国黑龙江,Jiamusi,Heilongjiang China,46.8,130.37,15,0,15,0
264,双鸭山,中国黑龙江,Shuangyashan,Heilongjiang China,46.642,131.152,45,3,52,4
265,七台河,中国黑龙江,Qitaihe,Heilongjiang China,45.6,131,16,0,17,1
266,鸡西,中国黑龙江,Jixi,Heilongjiang China,45.3,130.96,43,0,46,3
267,鹤岗,中国黑龙江,Hegang,Heilongjiang China,47.335,130.294,4,0,5,1
268,大兴安岭,中国黑龙江,Greater Hinggan,Heilongjiang China,50.41,124.122,2,0,2,0
269,黑河,中国黑龙江,Heihe,Heilongjiang China,50.235,127.51,13,0,14,1
270,晋中,中国山西,Jinzhong,Shanxi China,37.650825,112.843737,33,0,37,4
271,太原,中国山西,Taiyuan,Shanxi China,37.748675,112.481587,20,0,20,0
272,运城,中国山西,Yuncheng,Shanxi China,35.063677,110.961931,18,0,19,1
273,阳泉,中国山西,Yangquan,Shanxi China,37.911504,113.568086,4,0,4,0
274,大同,中国山西,Datong,Shanxi China,40,113.3,11,0,12,1
275,长治,中国山西,Changzhi,Shanxi China,36.02468,113.086194,8,0,8,0
276,临汾,中国山西,Linfen,Shanxi China,36.1,111.52,2,0,2,0
277,朔州,中国山西,Shuozhou,Shanxi China,39.35,112.43,8,0,8,0
278,吕梁,中国山西,Lyuliang,Shanxi China,37.5,111.1,6,0,6,0
279,忻州,中国山西,Xinzhou,Shanxi China,38.4,112.732,7,0,7,0
280,晋城,中国山西,Jincheng,Shanxi China,35.498,112.857,10,0,10,0
281,石家庄,中国河北,Shijiazhuang,Hebei China,38.014621,114.586383,29,0,29,0
282,沧州,中国河北,Cangzhou,Hebei China,38.314446,116.844854,45,3,48,0
283,保定,中国河北,Baoding,Hebei China,38.821877,115.484784,32,0,32,0
284,承德,中国河北,Chengde,Hebei China,40.973242,118.125718,7,0,7,0
285,廊坊,中国河北,Langfang,Hebei China,39.47,116.7,30,0,30,0
286,邢台,中国河北,Xingtai,Hebei China,37.04,114.57,22,1,23,0
287,衡水,中国河北,Hengshui,Hebei China,37.73,115.699,8,0,8,0
288,唐山,中国河北,Tangshan,Hebei China,39.59,118.2,55,1,58,2
289,邯郸,中国河北,Handan,Hebei China,36.574,114.48,32,0,32,0
290,张家口,中国河北,Zhangjiakou,Hebei China,40.81,114.89,38,0,41,3
291,秦皇岛,中国河北,Qinhuangdao,Hebei China,39.95,119.59,9,1,10,0
292,锡林郭勒盟,中国内蒙古,Xilingol - Xilinhot,Inner Mongolia China,43.468238,114.415868,9,0,9,0
293,鄂尔多斯,中国内蒙古,Ordos,Inner Mongolia China,39.805586,109.764419,11,0,11,0
294,赤峰,中国内蒙古,Chifeng,Inner Mongolia China,42.268753,118.757106,9,0,9,0
295,呼伦贝尔,中国内蒙古,Hulun Buir,Inner Mongolia China,49.22,119.76,7,0,7,0
296,兴安盟,中国内蒙古,Ulahot,Inner Mongolia China,46.05,122.1,1,0,1,0
297,乌兰察布,中国内蒙古,Ulanqab,Inner Mongolia China,40.99,113.13,2,0,3,1
298,包头,中国内蒙古,Baotou,Inner Mongolia China,40.65,109.8,9,0,11,2
299,巴彦淖尔,中国内蒙古,Bayannur,Inner Mongolia China,40.75,107.38,7,1,8,0
300,通辽,中国内蒙古,Tongliao,Inner Mongolia China,43.626,122.25,7,0,7,0
301,呼和浩特,中国内蒙古,Huhhot,Inner Mongolia China,40.83,111.69,6,0,7,1
302,乌海,中国内蒙古,Wuhai,Inner Mongolia China,39.639,106.779,2,0,2,0
303,香港,中国香港特别行政区,Hong Kong,Hong Kong SAR China,22.293586,114.186124,59,3,115,53
304,铜仁,中国贵州,Tongren,Guizhou China,27.674903,109.168558,10,0,10,0
305,贵阳,中国贵州,Guiyang,Guizhou China,26.496945,106.70098,28,1,36,7
306,黔南州,中国贵州,Qiannan,Guizhou China,26.254,107.522,16,0,17,1
307,黔西南州,中国贵州,Qianxinan,Guizhou China,25.1,104.9,4,0,4,0
308,六盘水,中国贵州,Liupanshui,Guizhou China,26.55,104.85,8,1,10,1
309,黔东南州,中国贵州,Qiandongnan,Guizhou China,26.56,108,10,0,10,0
310,遵义,中国贵州,Zunyi,Guizhou China,27.7478,106.91,24,0,32,8
311,毕节,中国贵州,Bijie,Guizhou China,27.31,105.29,19,0,23,4
312,安顺,中国贵州,Anshun,Guizhou China,26.25,105.93,4,0,4,0
313,吉林市,中国吉林,Jilin,Jilin China,43.87,126.57,5,0,5,0
314,长春,中国吉林,Changchun,Jilin China,43.531747,125.712822,45,0,45,0
315,松原,中国吉林,Songyuan,Jilin China,45.29271,124.867571,2,0,2,0
316,四平,中国吉林,Siping,Jilin China,43.178,124.37,14,1,15,0
317,公主岭,中国吉林,Gongzhuling,Jilin China,43.49,124.8,6,0,6,0
318,通化,中国吉林,Tonghua,Jilin China,41.74,125.92,5,0,6,1
319,延边,中国吉林,Yanbian,Jilin China,42.89,129.51,5,0,5,0
320,辽源,中国吉林,Liaoyuan,Jilin China,42.895188,125.148648,7,0,7,0
321,梅河口,中国吉林,Meihekou,Jilin China,42.537275,125.691833,1,0,1,0
322,白城,中国吉林,Baicheng,Jilin China,45.614037,122.84704,1,0,1,0
323,兰州,中国甘肃,Lanzhou,Gansu China,36.0637,103.831,33,2,36,1
324,白银,中国甘肃,Baiyin,Gansu China,36.69035,104.945609,4,0,4,0
325,临夏,中国甘肃,Linxia,Gansu China,35.518719,103.050791,3,0,3,0
326,定西,中国甘肃,Dingxi,Gansu China,35.58,104.62,8,0,9,1
327,张掖,中国甘肃,Zhangye,Gansu China,38.93,100.46,2,0,2,0
328,陇南,中国甘肃,Longnan,Gansu China,33.39,104.91,4,0,4,0
329,金昌,中国甘肃,Jinchang,Gansu China,38.52,102.18,1,0,1,0
330,天水,中国甘肃,Tianshui,Gansu China,34.58,105.73,12,0,12,0
331,平凉,中国甘肃,Pingliang,Gansu China,35.53,106.67,9,0,9,0
332,甘南,中国甘肃,Gannan,Gansu China,34.981,102.91,8,0,8,0
333,庆阳,中国甘肃,Qingyang,Gansu China,35.7,107.65,3,0,3,0
334,银川,中国宁夏,Yinchuan,Ningxia China,38.478591,106.24265,34,0,36,2
335,中卫,中国宁夏,Zhongwei,Ningxia China,37.360639,105.111278,3,0,4,1
336,固原,中国宁夏,Guyuan,Ningxia China,36.206829,106.254011,5,0,5,0
337,吴忠,中国宁夏,Wuzhong,Ningxia China,37.97,106.2,27,0,28,1
338,宁东,中国宁夏,Ningdong Energy Chemical Industry Base Admin Committee,Ningxia China,38.4,106.31,1,0,1,0
339,石嘴山,中国宁夏,Shizuishan,Ningxia China,38.991988,106.37,1,0,1,0
340,地区,中国 台湾,Taiwan,ROC,23.5,121,15,1,45,29
341,乌鲁木齐,中国新疆,Urumqi,Xinjiang China,43.419108,87.360244,23,0,23,0
342,伊犁,中国新疆,Ili,Xinjiang China,43.9,81.32,18,0,18,0
343,吐鲁番,中国新疆,Turpan,Xinjiang China,42.95,89.15,3,0,3,0
344,第八师石河子,中国新疆,Shihezi (The 8th Division),Xinjiang China,44.26,86.05,3,1,4,0
345,阿克苏,中国新疆,Aksu,Xinjiang China,41.133,80.192,1,0,1,0
346,第九师额敏县,中国新疆,Emin (The 9th Division),Xinjiang China,46.521076,83.620741,3,1,4,0
347,第四师科克达拉,中国新疆,Cocodala (The 4th Division),Xinjiang China,43.9448,81.044,9,1,10,0
348,昌吉,中国新疆,Changji,Xinjiang China,44,87.275,4,0,4,0
349,第六师五家渠,中国新疆,Wujiaqu (The 6th Division),Xinjiang China,44.159797,87.538838,2,0,2,0
350,第七师胡杨河,中国新疆,Huyanghe (The 7th Division),Xinjiang China,44.710398,84.8254,1,0,1,0
351,巴音郭楞,中国新疆,Bayingolin,Xinjiang China,41.771312,86.161609,3,0,3,0
352,第十二师,中国新疆,The 12th Division,Xinjiang China,43.6,87,3,0,3,0
353,澳门,中国澳门特别行政区,Macau,Macau SAR China,22.204118,113.557519,10,0,10,0
354,西宁,中国青海,Xining,Qinghai China,36.686368,101.712664,15,0,15,0
355,海北州,中国青海,Haibei,Qinghai China,36.899,100.997,3,0,3,0
356,成都,中国四川,Chengdu,Sichuan China,30.67,104.06,102,3,144,39
357,绵阳,中国四川,Mianyang,Sichuan China,31.46,104.73,18,0,22,4
358,广安,中国四川,Guang An,Sichuan China,30.3,106,27,0,30,3
359,遂宁,中国四川,Suining,Sichuan China,30.501934,105.569333,15,0,17,2
360,泸州,中国四川,Luzhou,Sichuan China,27.88,106.27,24,0,24,0
361,南充,中国四川,Nanchong,Sichuan China,30.84,106.12,36,0,39,3
362,甘孜,中国四川,Ganzi,Sichuan China,31.62,99.99,71,0,78,7
363,德阳,中国四川,Deyang,Sichuan China,31.33,104.23,18,0,18,0
364,雅安,中国四川,Ya An,Sichuan China,30,103,6,0,7,1
365,达州,中国四川,Dazhou,Sichuan China,31.2,107.5,39,0,42,3
366,自贡,中国四川,Zigong,Sichuan China,29.34,104.78,9,0,9,0
367,内江,中国四川,Neijiang,Sichuan China,29.6,105,21,0,22,1
368,乐山,中国四川,Leshan,Sichuan China,29.2,103.63,3,0,3,0
369,眉山,中国四川,Meishan,Sichuan China,29.9,103.5,7,0,8,1
370,宜宾,中国四川,Yibin,Sichuan China,28.76,104.63,11,0,12,1
371,凉山,中国四川,Liangshan,Sichuan China,27.88,102.28,13,0,13,0
372,资阳,中国四川,Ziyang,Sichuan China,30.1,104.67,3,0,4,1
373,广元,中国四川,Guangyuan,Sichuan China,30.46,106.64,6,0,6,0
374,阿坝,中国四川,Aba,Sichuan China,32.9,101.71,1,0,1,0
375,巴中,中国四川,Bazhong,Sichuan China,31.86,106.75,20,0,24,4
376,攀枝花,中国四川,Panzhihua,Sichuan China,26.578,101.721,16,0,16,0
377,拉萨,中国西藏,Lhasa,Tibet China,29.65,91.577,1,0,1,0
378,法国,法国,France,France,46.83,2.48,12,25,1412,1375
379,德国,德国,Germany,Germany,51.3,10.2,14,0,1112,1098
380,斯里兰卡,斯里兰卡,Sri Lanka,Sri Lanka,7.6,80.4,1,0,1,0
381,越南,越南,Vietnam,Vietnam,15.56,108.05,16,0,21,5
382,柬埔寨,柬埔寨,Combodia,Combodia,12.57,104.9,1,0,2,1
383,泰国,泰国,Thailand,Thailand,15.76,101.14,31,1,50,18
384,马来西亚,马来西亚,Malaysia,Malaysia,4.4,102.13,23,0,117,94
385,新加坡,新加坡,Singapore,Singapore,1.18,103.85,82,0,138,56
386,韩国,韩国,South Korea,South Korea,36.86,127.8,166,53,7478,7259
387,日本,日本,Japan,Japan,36.22,139,46,9,514,459
388,尼泊尔,尼泊尔,Nepal,Nepal,27.69,85.32,1,0,1,0
389,意大利,意大利,Italy,Italy,43,12.62,622,366,7375,6387
390,芬兰,芬兰,Finland,Finland,64.36,26.79,1,0,30,29
391,印度,印度,India,India,21.56,78.2,3,0,39,36
392,阿联酋,阿联酋,UAE,UAE,23.69,54.43,7,0,45,38
393,菲律宾,菲律宾,Philippines,Philippines,16.82048,121.421,1,1,10,8
394,俄罗斯,俄罗斯,Russia,Russia,62.267923,57.3898,3,0,10,7
395,英国,英国,UK,UK,53.9,-1.64,8,2,206,196
396,西班牙,西班牙,Spain,Spain,40.23,-3.7999,2,28,1204,1174
397,瑞典,瑞典,Sweden,Sweden,62.75,15.226,0,0,213,213
398,比利时,比利时,Belgium,Belgium,50.814,4.42,1,0,239,238
399,埃及,埃及,Egypt,Egypt,29.882813,26.794042,12,0,55,43
400,钻石公主号邮轮,钻石公主号邮轮,Diamond Princess,Diamond Princess,35.262441,143.085938,0,6,696,690
401,伊朗,伊朗,Iran,Iran,32.546813,54.207916,2194,237,7161,4730
402,省十里丰监狱,浙江,Shilifeng Prison,Zhejiang,29.008326,119.118233,34,0,36,2
403,以色列,以色列,Israel,Israel,31.470473,34.936523,2,0,39,37
404,阿曼,阿曼,Oman,Oman,21.414719,56.601,2,0,16,14
405,黎巴嫩,黎巴嫩,Lebanon,Lebanon,33.765092,35.765305,1,0,32,31
406,伊拉克,伊拉克,Iraq,Iraq,32.694866,43.730392,0,6,61,55
407,科威特,科威特,Kuwait,Kuwait,29.142689,47.999153,0,0,58,58
408,巴林,巴林,Barin,Barin,26.091861,50.559082,14,0,109,95
409,阿富汗,阿富汗,Afghanistan,Afghanistan,34,66.5,0,0,4,4
410,北马其顿,北马其顿,North Marcedonia,North Marcedonia,41.52,21.6,0,0,3,3
411,阿尔及利亚,阿尔及利亚,Algeria,Algeria,29,3,0,0,19,19
412,尼日利亚,尼日利亚,Nigeria,Nigeria,10,7.5,0,0,2,2
413,立陶宛,立陶宛,Lietuva,Lietuva,55.038844,23.774414,0,0,1,1
414,冰岛,冰岛,Iceland,Iceland,64.65,-17.9,0,0,58,58
415,摩纳哥,摩纳哥,Monaco,Monaco,43.735996,7.425385,0,0,1,1
416,厄瓜多尔,厄瓜多尔,Ecuador,Ecuador,0,-77.8438,0,0,13,13
417,卢森堡,卢森堡,Luxembourg,Luxembourg,49.8074,6.106317,0,0,5,5
418,爱尔兰,爱尔兰,Ireland,Ireland,53.120405,-7.606702,0,0,21,21
419,圣马力诺,圣马力诺,San Marino,San Marino,43.94857,12.47,0,0,36,36
420,阿塞拜疆,阿塞拜疆,Azerbaijan,Azerbaijan,40.443746,47.801514,0,0,3,3
421,格鲁吉亚,格鲁吉亚,Georgia,Georgia,42.02832,43.471913,0,0,13,13
422,巴基斯坦,巴基斯坦,Pakistan,Pakistan,30.221102,70.279198,1,0,6,5
423,罗马尼亚,罗马尼亚,Romania,Romania,45.444717,25.035267,3,0,15,12
424,墨西哥,墨西哥,Mexico,Mexico,23.885838,-102.207184,1,0,7,6
425,爱沙尼亚,爱沙尼亚,Estonia,Estonia,58.64,25.603,0,0,10,10
426,巴西,巴西,Brazil,Brazil,-11.137982,-51.152344,0,0,25,25
427,克罗地亚,克罗地亚,Crotia,Crotia,45.460131,15.806751,0,0,12,12
428,新西兰,新西兰,New Zealand,New Zealand,-39.452631,175.78125,0,0,5,5
429,白俄罗斯,白俄罗斯,Belarus,Belarus,53.524085,27.913685,0,0,6,6
430,奥地利,奥地利,Austria,Austria,47.598061,14.315786,0,0,102,102
431,多米尼加,多米尼加,Dominican Republic,Dominican Republic,19.03031,-70.224609,0,0,1,1
432,安道尔,安道尔,Andorra,Andorra,42.533793,1.5271,0,0,1,1
433,捷克,捷克,Czech,Czech,49.474817,15.688477,0,0,32,32
434,丹麦,丹麦,Denmark,Denmark,56.428902,9.975586,1,0,35,34
435,希腊,希腊,Greece,Greece,38.91,22.631836,0,0,66,66
436,瑞士,瑞士,Switzerland,Switzerland,46.818,8.217773,3,2,312,307
437,亚美尼亚,亚美尼亚,Armenia,Armenia,40.38,44.530249,0,0,1,1
438,沙特阿拉伯,沙特阿拉伯,Saudi,Saudi,25,44.5,0,0,20,20
439,塞内加尔,塞内加尔,Senegal,Senegal,14.9971,-14.292526,0,0,4,4
440,突尼斯,突尼斯,Tunisia,Tunisia,34.0162,8.931541,0,0,2,2
441,列支敦士登,列支敦士登,Liechtenstein,Liechtenstein,47.1217,9.553664,0,0,1,1
442,智利,智利,Chile,Chile,-33.358,-71.048927,0,0,8,8
443,阿根廷,阿根廷,Argentina,Argentina,-36.21,-64.326324,0,1,12,11
444,摩洛哥,摩洛哥,Morocco,Morocco,31.503,-7.876511,0,0,1,1
445,乌克兰,乌克兰,Ukraine,Ukraine,48.026213,32.695313,0,0,1,1
446,挪威,挪威,Norway,Norway,63.1354,10.27874,0,0,169,169
447,哥斯达黎加,哥斯达黎加,Costa Rica,Costa Rica,9.8173,-83.688526,0,0,9,9
448,波黑,波黑,Bosnia and Herzegovina,Bosnia and Herzegovina,43.96718,17.591772,0,0,3,3
449,哥伦比亚,哥伦比亚,Colombia,Colombia,2.723,-73.070412,0,0,1,1
450,斯洛文尼亚,斯洛文尼亚,Slovenia,Slovenia,45.9464,14.875488,0,0,16,16
451,巴勒斯坦,巴勒斯坦,Palestine,Palestine,32.0005,35.304565,0,0,19,19
452,葡萄牙,葡萄牙,Portugal,Portugal,39.571822,-8.596,0,0,30,30
454,秘鲁,秘鲁,Peru,Peru,-10.43,-75.4,0,0,6,6
455,南非,南非,South Africa,South Africa,-31.539,23.7,0,0,2,2
456,塞尔维亚,塞尔维亚,Serbia,Serbia,44.2137,20.755835,0,0,1,1
457,梵蒂冈,梵蒂冈,Vatican,Vatican,41.903,12.453003,0,0,1,1
458,喀麦隆,喀麦隆,Cameroon,Cameroon,4.74,12.771,0,0,2,2
459,多哥,多哥,Togo,Togo,8.015,1.12592,0,0,1,1
460,波兰,波兰,Poland,Poland,51.719,19.254013,0,0,8,8
461,马耳他,马耳他,Malta,Malta,35.87,14.479,0,0,1,1
462,匈牙利,匈牙利,Hungary,Hungary,46.93,19.06394,0,0,9,9
463,拉脱维亚,拉脱维亚,Latvia,Latvia,57.07,25.839844,0,0,6,6
464,不丹,不丹,Bhutan,Bhutan,27.3327,90.46,0,0,1,1
465,巴拉圭,巴拉圭,Paraguay,Paraguay,-23.774,-58.183594,0,0,1,1
466,马尔代夫,马尔代夫,Maldives,Maldives,4.178,73.517761,0,0,4,4
467,斯洛伐克,斯洛伐克,Slovakia,Slovakia,48.83,19.5724,0,0,7,7
468,约旦,约旦,Jordan,Jordan,30.6,36.271,0,0,1,1
469,保加利亚,保加利亚,Bulgaria,Bulgaria,42.7339,25.4858,0,0,2,2
470,摩尔多瓦,摩尔多瓦,Moldova,Moldova,47.4116,28.3699,0,0,1,1
471,文莱,文莱,Brunei,Brunei,4.61,114.598,0,0,1,1
472,孟加拉国,孟加拉国,Bangladesh,Bangladesh,23.685,90.3563,0,0,1,1
473,阿尔巴尼亚,阿尔巴尼亚,Albania,Albania,40.626,20.17,0,0,2,2
474,直布罗陀,直布罗陀,Gibratar,Gibratar,36.1408,-5.3536,0,0,1,1
475,圣马丁,圣马丁,St Martin,St Martin,18.05,-63.06,0,0,2,2
476,法属圭亚那,法属圭亚那,French Guyana,French Guyana,3.9339,-53.1258,0,0,5,5
477,圣巴泰勒米,圣巴泰勒米,Saint Barthelemy,Saint Barthelemy,17.9,-62.83,0,0,3,3
478,法罗群岛,法罗群岛,Faroe Islands,Faroe Islands,62.1441,-6.981,0,0,1,1
479,马丁尼克,马丁尼克,Martinique,Martinique,14.633,-61.019,0,0,2,2
480,马萨诸塞州诺福克县,美国," Norfolk County, MA",US,42.1767,-71.1449,0,0,6,6
481,加利福尼亚州阿拉梅达县,美国,"Alameda County, CA",US,37.6017,-121.7195,0,0,2,2
482,新泽西州贝尔金县,美国,"Bergen County, NJ",US,40.9263,-74.077,0,0,4,4
483,马萨诸塞州伯克夏县,美国,"Berkshire County, MA",US,42.3118,-73.1822,0,0,1,1
484,佛罗里达州布罗沃德县,美国,"Broward County, FL",US,26.1901,-80.3659,0,0,2,2
485,南卡罗来纳州查尔斯顿,美国,"Charleston County, SC",US,32.7957,-79.7848,0,0,1,1
486,北卡罗来纳州查特汉姆县,美国,"Chatham County, NC",US,35.7211,-79.1781,0,0,1,1
487,内华达州拉斯维加斯,美国,"Clark County, NV",US,36.0796,-115.094,0,0,2,2
488,华盛顿州克拉克县,美国,"Clark County, WA",US,45.7466,-122.5194,0,0,1,1
489,佐治亚州科布县,美国,"Cobb County, GA",US,33.8999,-84.5641,0,0,1,1
490,加利福尼亚州康特拉科斯塔县,美国,"Contra Costa County, CA",US,37.8534,-121.9018,0,0,12,12
491,伊利诺伊州库克县(芝加哥),美国,"Cook County, IL",US,41.7377,-87.6976,2,0,7,5
492,田纳西州戴维森县,美国,"Davidson County, TN",US,36.1343,-86.822,0,0,1,1
493,犹他州戴维斯县,美国,"Davis County, UT",US,40.9629,-112.0953,0,0,1,1
494,宾夕法尼亚州特拉华县,美国,"Delaware County, PA",US,39.9078,-75.3879,0,0,1,1
495,科罗拉多州丹佛,美国,"Denver County, CO",US,39.7392,-104.9903,0,0,2,2
496,科罗拉多州道格拉斯县,美国,"Douglas County, CO",US,39.2587,-104.9389,0,0,3,3
497,内布拉斯加州道格拉斯县,美国,"Douglas County, NE",US,41.3148,-96.1951,0,0,1,1
498,俄勒冈州道格拉斯县,美国,"Douglas County, OR",US,43.1261,-123.2492,0,0,1,1
499,科罗拉多州厄尔帕索县,美国,"El Paso County, CO",US,38.9108,-104.4723,0,0,1,1
500,弗吉尼亚州费尔法克斯县,美国,"Fairfax County, VA",US,38.9085,-77.2405,0,0,2,2
501,康涅狄格州费尔菲尔德县,美国,"Fairfield County, CT",US,41.256,-73.3709,0,0,1,1
502,肯塔基州法耶特县,美国,"Fayette County, KY",US,38.0606,-84.4803,0,0,1,1
503,得克萨斯州本德堡县,美国,"Fort Bend County, TX",US,29.5693,-95.8143,0,0,6,6
504,加利福尼亚州弗雷斯诺,美国,"Fresno County, CA",US,36.9859,-119.2321,0,0,1,1
505,佐治亚州富尔顿县,美国,"Fulton County, GA",US,33.8034,-84.3963,0,0,3,3
506,新罕布夏州格拉夫顿县,美国,"Grafton County, NH",US,43.9088,-71.826,0,0,4,4
507,至尊公主号游轮,美国,Grand Princess Cruise Ship,US,37.6489,-122.6655,0,0,21,21
508,华盛顿州格兰特县,美国,"Grant County, WA",US,47.1981,-119.3732,0,0,1,1
509,马里兰州哈尔福德县,美国,"Harford County, MD",US,39.5839,-76.3637,0,0,1,1
510,得克萨斯州哈里斯县,美国,"Harris County, TX",US,29.7752,-95.3103,0,0,5,5
511,印第安纳州亨德里克斯县,美国,"Hendricks County, IN",US,39.8065,-86.5401,0,0,1,1
512,佛罗里达州希斯堡,美国,"Hillsborough, FL",US,27.9904,-82.3018,0,0,2,2
513,夏威夷州檀香山,美国,"Honolulu County, HI",US,21.307,-157.8584,0,0,1,1
514,新泽西州哈德逊县,美国,"Hudson County, NJ",US,40.7453,-74.0535,0,0,1,1
515,加利福尼亚州洪堡县,美国,"Humboldt County, CA",US,40.745,-123.8695,0,0,1,1
516,俄勒冈州杰克逊县,美国,"Jackson County, OR ",US,42.3345,-122.7647,0,0,2,2
517,华盛顿州杰斐逊县,美国,"Jefferson County, WA",US,47.7425,-123.304,0,0,1,1
518,堪萨斯州约翰逊县,美国,"Johnson County, KS",US,38.8454,-94.8521,0,0,1,1
519,南卡罗来纳州克尔肖县,美国,"Kershaw County, SC",US,34.3672,-80.5883,0,0,1,1
520,华盛顿州西雅图,美国,"King County, WA",US,47.6062,-122.3321,1,17,83,65
521,华盛顿州基提塔斯县,美国,"Kittitas County, WA",US,47.175,-120.9319,0,0,1,1
522,俄勒冈州克拉马斯县,美国,"Klamath County, OR",US,42.6953,-121.6142,0,0,1,1
523,得克萨斯州拉克兰,美国,"Lackland, TX (From Diamond Princess)",US,29.3829,-98.6134,0,0,0,0
524,佛罗里达州李县,美国,"Lee County, FL",US,26.663,-81.9535,0,1,2,1
525,加利福尼亚州洛杉矶,美国,"Los Angeles, CA",US,34.0522,-118.2437,1,0,14,13
526,加利福尼亚州马德拉县,美国,"Madera County, CA",US,37.2519,-119.6963,0,0,1,1
527,威斯康辛州麦迪逊,美国,"Madison, WI",US,43.0731,-89.4012,1,0,1,0
528,佛罗里达州马那提县,美国,"Manatee County, FL",US,27.4799,-82.3452,0,0,1,1
529,亚利桑那州马里科巴县,美国,"Maricopa County, AZ",US,33.2918,-112.4291,1,0,3,2
530,印第安纳州马里昂县,美国,"Marion County, IN",US,39.8362,-86.1752,0,0,1,1
531,俄勒冈州马里昂县,美国,"Marion County, OR",US,44.8446,-122.5927,0,0,1,1
532,马萨诸塞州中赛克斯县,美国,"Middlesex County, MA",US,42.4672,-71.2874,0,0,7,7
533,马里兰州蒙哥马利县,美国,"Montgomery County, MD",US,39.1547,-77.2405,0,0,4,4
534,宾夕法尼亚州蒙哥马利县,美国,"Montgomery County, PA",US,40.229,-75.3879,0,0,4,4
535,得克萨斯州蒙哥马利县,美国,"Montgomery County, TX",US,30.3213,-95.4778,0,0,0,0
536,纽约州拿骚县,美国,"Nassau County, NY",US,40.6546,-73.5594,0,0,5,5
537,纽约州纽约城,美国,"New York County, NY",US,40.7128,-74.006,0,0,12,12
538,佛罗里达州奥卡卢萨县,美国,"Okaloosa County, FL",US,30.5773,-86.6611,0,0,1,1
539,内布拉斯加州奥马哈,美国,"Omaha, NE (From Diamond Princess)",US,41.2545,-95.9758,0,0,0,0
540,加利福尼亚州奥兰治县,美国,"Orange County, CA",US,33.7879,-117.8531,1,0,3,2
541,华盛顿州皮尔斯县,美国,"Pierce County, WA",US,47.0676,-122.1295,0,0,4,4
542,压力三那种派纳尔县,美国,"Pinal County, AZ",US,32.8162,-111.2845,0,0,2,2
543,加利福尼亚州普拉瑟尔县,美国,"Placer County, CA",US,39.0916,-120.8039,0,1,5,4
544,马萨诸塞州普利茅斯县,美国,"Plymouth County, MA",US,42.1615,-70.7928,0,0,1,1
545,佐治亚州波尔克县,美国,"Polk County, GA",US,34.0132,-85.1479,0,0,1,1
546,罗德岛州普罗维登斯,美国,"Providence County, RI",US,41.8882,-71.4774,0,0,3,3
547,明尼苏达州明尼阿波利斯,美国,"Ramsey County, MN",US,44.9964,-93.0616,0,0,1,1
548,加利福尼亚州河滨,美国,"Riverside County, CA",US,33.9533,-117.3961,0,0,1,1
549,新罕布夏州罗金汉姆县,美国,"Rockingham County, NH",US,42.9931,-71.0498,0,0,2,2
550,纽约州洛克兰县,美国,"Rockland County, NY",US,41.1489,-73.983,0,0,2,2
551,加利福尼亚州萨克拉门托,美国,"Sacramento County, CA",US,38.4747,-121.3542,0,0,2,2
552,得克萨斯州圣安东尼奥,美国,"San Antonio, TX",US,29.4241,-98.4936,1,0,1,0
553,加利福尼亚州圣本尼托,美国,"San Benito, CA",US,36.5761,-120.9876,2,0,2,0
554,加利福尼亚州圣迭戈,美国,"San Diego County, CA",US,32.7157,-117.1611,2,0,3,1
555,加利福尼亚州旧金山,美国,"San Francisco County, CA",US,37.7749,-122.4194,0,0,9,9
556,加利福尼亚州圣马迪奥,美国,"San Mateo, CA",US,37.563,-122.3255,0,0,2,2
557,加利福尼亚州圣克拉拉,美国,"Santa Clara County, CA",US,37.3541,-121.9552,2,0,38,36
558,佛罗里达州圣塔罗萨县,美国,"Santa Rosa County, FL",US,30.769,-86.9824,0,1,1,0
559,佛罗里达州萨拉索塔,美国,"Sarasota, FL",US,27.3364,-82.5307,0,0,1,1
560,纽约州萨拉托加县,美国,"Saratoga County, NY",US,43.0324,-73.936,0,0,2,2
561,田纳西州谢尔比县,美国,"Shelby County, TN",US,35.1269,-89.9253,0,0,1,1
562,华盛顿州斯诺霍米什县,美国,"Snohomish County, WA",US,48.033,-121.8339,0,1,31,30
563,加利福尼亚州索诺玛县,美国,"Sonoma County, CA",US,38.578,-122.9888,0,0,1,1
564,华盛顿州斯波坎县,美国,"Spokane County, WA",US,47.6587,-117.4225,0,0,1,1
565,密苏里州圣路易斯,美国,"St. Louis County, MO",US,38.6103,-90.4125,0,0,1,1
566,马萨诸塞州萨佛克县,美国,"Suffolk County, MA",US,42.3601,-71.0589,1,0,8,7
567,纽约州萨佛克县,美国,"Suffolk County, NY",US,40.9849,-72.6151,0,0,1,1
568,科罗拉多州萨米特县,美国,"Summit County, CO",US,39.5912,-106.064,0,0,2,2
569,加利福尼亚州特拉维斯,美国,"Travis, CA (From Diamond Princess)",US,38.2721,-121.9399,0,0,0,0
570,俄克拉荷马州塔尔萨,美国,"Tulsa County, OK",US,36.1593,-95.941,0,0,1,1
571,纽约州乌尔斯特县,美国,"Ulster County, NY",US,41.8586,-74.3118,0,0,1,1
572,俄勒冈州巫马提拉,美国,"Umatilla, OR",US,45.775,-118.7606,0,0,1,1
573,钻石公主号邮轮,美国,Unassigned Location (From Diamond Princess),US,35.4437,139.638,0,0,45,45
574,佛蒙特州未知地点,美国,"Unassigned Location, VT",US,44.3378,-72.7563,0,0,1,1
575,华盛顿州未知地点,美国,"Unassigned Location, WA",US,47.7511,-120.7401,0,0,5,5
576,马萨诸塞州未知地点,美国,"Unknown Location, MA",US,42.4072,-71.3824,0,0,1,1
577,佛罗里达州沃卢西亚县,美国,"Volusia County, FL",US,29.028,-81.0755,0,0,1,1
578,北卡罗来纳州威克县,美国,"Wake County, NC",US,35.8032,-78.5661,0,0,1,1
579,俄勒冈州华盛顿县,美国,"Washington County, OR",US,45.547,-123.1386,0,0,8,8
580,华盛顿特区,美国,"Washington, D.C.",US,38.9072,-77.0369,0,0,2,2
581,内华达州沃休县,美国,"Washoe County, NV",US,40.5608,-119.6035,0,0,2,2
582,宾夕法尼亚州韦恩县,美国,"Wayne County, PA",US,41.6739,-75.2479,0,0,1,1
583,纽约州西切斯特县,美国,"Westchester County, NY",US,41.122,-73.7949,0,0,83,83
584,田纳西州威廉姆森县,美国,"Williamson County, TN",US,35.9179,-86.8622,0,0,1,1
585,加利福尼亚州约洛县,美国,"Yolo County, CA",US,38.7646,-121.9018,0,0,1,1
586,魁北克省蒙特利尔,加拿大," Montreal, QC",Canada,45.5017,-73.5673,0,0,4,4
587,英属哥伦比亚省温哥华,加拿大,British Columbia,Canada,49.2827,-123.1207,5,0,27,22
588,艾伯塔省卡尔加里,加拿大,"Calgary, Alberta",Canada,51.0447,-114.0719,0,0,1,1
589,艾伯塔省埃德蒙顿,加拿大,"Edmonton, Alberta",Canada,53.5461,-113.4938,0,0,3,3
590,安大略省伦敦,加拿大,"London, ON",Canada,42.9849,-81.2453,1,0,1,0
591,安大略省多伦多,加拿大,"Toronto, ON",Canada,43.6532,-79.3832,2,0,28,26
593,新南威尔士,澳大利亚,New South Wales,Australia,-33.8688,151.2093,4,3,38,31
594,北部地区,澳大利亚,Northern Territory,Australia,-12.4634,130.8456,0,0,0,0
595,昆士兰,澳大利亚,Queensland,Australia,-28.0167,153.4,5,0,15,10
596,南澳大利亚,澳大利亚,South Australia,Australia,-34.9285,138.6007,2,0,7,5
597,塔斯马尼亚,澳大利亚,Tasmania,Australia,-41.4545,145.9707,0,0,2,2
598,维多利亚,澳大利亚,Victoria,Australia,-37.8136,144.9631,4,0,11,7
599,西澳大利亚,澳大利亚,Western Australia,Australia,-31.9505,115.8605,0,1,3,2