,city_cn,province_cn,city,province,lat,lon,case,death,cure,remain,cure_rate,death_rate
1,长沙,中国湖南,Changsha,Hunan China,28.322759,113.224946,242,2,240,0,99.17355372,0.826446281
2,岳阳,中国湖南,Yueyang,Hunan China,29.178499,113.237527,156,1,155,0,99.35897436,0.641025641
3,怀化,中国湖南,Huaihua,Hunan China,27.612024,109.945539,40,0,40,0,100,0
4,娄底,中国湖南,Loudi,Hunan China,27.766945,112.004619,76,0,76,0,100,0
5,永州,中国湖南,Yongzhou,Hunan China,26.560382,111.621586,44,0,44,0,100,0
6,益阳,中国湖南,Yiyang,Hunan China,28.588088,112.366547,60,0,60,0,100,0
7,衡阳,中国湖南,Hengyang,Hunan China,27.109626,112.351579,48,0,48,0,100,0
8,常德,中国湖南,Changde,Hunan China,28.995243,111.747796,82,0,82,0,100,0
9,湘潭,中国湖南,Xiangtan,Hunan China,27.669223,112.788805,36,0,36,0,100,0
10,邵阳,中国湖南,Shaoyang,Hunan China,26.984977,111.332372,102,1,101,0,99.01960784,0.980392157
11,株洲,中国湖南,Zhuzhou,Hunan China,27.535936,113.153348,80,0,80,0,100,0
12,郴州,中国湖南,Chenzhou,Hunan China,25.773515,113.051002,39,0,39,0,100,0
13,湘西自治州,中国湖南,Xiangxi,Hunan China,28.26,109.69,8,0,8,0,100,0
14,张家界,中国湖南,Zhangjiajie,Hunan China,29.13,110.48,5,0,5,0,100,0
15,武汉,中国湖北,Wuhan,Hubei China,30.581084,114.3162,50004,2480,39220,8304,78.4337253,4.959603232
16,黄冈,中国湖北,Huanggang,Hubei China,30.518802,114.949569,2907,125,2756,26,94.80564155,4.2999656
17,孝感,中国湖北,Xiaogan,Hubei China,30.944617,114.016142,3518,127,3278,113,93.17794201,3.610005685
18,咸宁,中国湖北,Xianning,Hubei China,29.85465,114.391867,836,15,820,1,98.0861244,1.794258373
19,荆门,中国湖北,Jingmen,Hubei China,30.932878,112.193923,928,39,868,21,93.53448276,4.202586207
20,随州,中国湖北,Suizhou,Hubei China,31.890024,113.294246,1307,45,1221,41,93.42004591,3.442999235
21,荆州,中国湖北,Jingzhou,Hubei China,30.396103,112.099857,1580,50,1498,32,94.81012658,3.164556962
22,黄石,中国湖北,Huangshi,Hubei China,30.218698,114.903009,1015,38,960,17,94.58128079,3.743842365
23,宜昌,中国湖北,Yichang,Hubei China,30.979971,111.310649,931,36,873,22,93.77013963,3.866809882
24,十堰,中国湖北,Shiyan,Hubei China,32.66384,110.717401,672,8,638,26,94.94047619,1.19047619
25,恩施,中国湖北,Enshi,Hubei China,32,109.5,252,6,233,13,92.46031746,2.380952381
26,仙桃,中国湖北,Xiantao,Hubei China,30.293966,113.387448,575,22,531,22,92.34782609,3.826086957
27,天门,中国湖北,Tianmen,Hubei China,30.649047,113.12623,496,15,477,4,96.16935484,3.024193548
28,襄阳,中国湖北,Xiangyang,Hubei China,32.229169,112.250093,1175,38,1129,8,96.08510638,3.234042553
29,鄂州,中国湖北,Ezhou,Hubei China,30.320603,114.901016,1394,57,1280,57,91.82209469,4.088952654
30,神农架,中国湖北,Shennongjia,Hubei China,31.74,110.684,11,0,11,0,100,0
31,黔江,中国湖北,Qianjiang,Hubei China,30.4,112.89,198,9,172,17,86.86868687,4.545454545
32,信阳,中国河南,Xinyang,Henan China,32.30784,114.139086,274,2,272,0,99.27007299,0.729927007
33,郑州,中国河南,Zhengzhou,Henan China,34.759791,113.62,157,5,152,0,96.81528662,3.184713376
34,南阳,中国河南,Nanyang,Henan China,33.009839,112.484267,156,3,153,0,98.07692308,1.923076923
35,驻马店,中国河南,Zhumadian,Henan China,32.968357,114.00829,139,0,139,0,100,0
36,周口,中国河南,Zhoukou,Henan China,33.630876,114.65795,76,1,75,0,98.68421053,1.315789474
37,新乡,中国河南,Xinxiang,Henan China,35.3,113.92,57,3,54,0,94.73684211,5.263157895
38,安阳,中国河南,Anyang,Henan China,36.056025,114.256604,53,0,53,0,100,0
39,漯河,中国河南,Luohe,Henan China,33.534755,113.923601,35,0,35,0,100,0
40,三门峡,中国河南,Sanmenxia,Henan China,34.771778,111.281295,7,1,6,0,85.71428571,14.28571429
41,巩义,中国河南,Gongyi,Henan China,34.703799,113.03959,NA,NA,NA,#VALUE!,#VALUE!,#VALUE!
42,平顶山,中国河南,Pingdingshan,Henan China,33.712341,113.278189,58,1,57,0,98.27586207,1.724137931
43,洛阳,中国河南,Luoyang,Henan China,34.638792,112.467093,31,1,30,0,96.77419355,3.225806452
44,商丘,中国河南,Shangqiu,Henan China,34.42,115.65,91,3,88,0,96.7032967,3.296703297
45,开封,中国河南,Kaifeng,Henan China,34.798,114.346,26,0,26,0,100,0
46,鹤壁,中国河南,Hebi,Henan China,35.74,114.295,19,0,19,0,100,0
47,许昌,中国河南,Xuchang,Henan China,34,113.8,39,1,38,0,97.43589744,2.564102564
48,焦作,中国河南,Jiaozuo,Henan China,35.2,113.257,32,1,31,0,96.875,3.125
49,濮阳,中国河南,Puyang,Henan China,35.76,115.02,17,0,17,0,100,0
50,济源,中国河南,Jiyuan,Henan China,35.1,112.58,5,0,5,0,100,0
51,深圳,中国广东,Shenzhen,Guangdong China,22.606981,114.278483,423,3,401,19,94.79905437,0.709219858
52,广州,中国广东,Guangzhou,Guangdong China,23.446661,113.220176,351,1,330,20,94.01709402,0.284900285
53,珠海,中国广东,Zhuhai,Guangdong China,22.047215,113.41759,98,1,97,0,98.97959184,1.020408163
54,佛山,中国广东,Foshan,Guangdong China,22.824523,112.683258,85,0,81,4,95.29411765,0
55,惠州,中国广东,Huizhou,Guangdong China,23.163063,114.485898,62,0,62,0,100,0
56,阳江,中国广东,Yangjiang,Guangdong China,21.762804,111.930036,14,0,14,0,100,0
57,韶关,中国广东,Shaoguan,Guangdong China,24.919162,113.57745,10,1,9,0,90,10
58,湛江,中国广东,Zhanjiang,Guangdong China,21.0941,110.338022,22,0,22,0,100,0
59,中山,中国广东,Zhongshan,Guangdong China,22.545178,113.42206,68,0,64,4,94.11764706,0
60,肇庆,中国广东,Zhaoqing,Guangdong China,23.208968,112.625249,19,1,18,0,94.73684211,5.263157895
61,清远,中国广东,Qingyuan,Guangdong China,23.625856,113.114585,12,0,12,0,100,0
62,东莞,中国广东,Dongguan,Guangdong China,23.043024,113.763434,100,1,97,2,97,1
63,汕头,中国广东,Shantou,Guangdong China,23.532997,116.814808,25,0,24,1,96,0
64,汕尾,中国广东,Shanwei,Guangdong China,22.8,115.38,5,0,5,0,100,0
65,梅州,中国广东,Meizhou,Guangdong China,24.3,116.119,16,0,16,0,100,0
66,揭阳,中国广东,Jieyang,Guangdong China,23.53,116.34,8,0,8,0,100,0
67,河源,中国广东,Heyuan,Guangdong China,23.74,114.69,4,0,4,0,100,0
68,茂名,中国广东,Maoming,Guangdong China,21.665,110.92,14,0,14,0,100,0
69,江门,中国广东,Jiangmen,Guangdong China,22.57,113.079,23,0,23,0,100,0
70,潮州,中国广东,Chaozhou,Guangdong China,23.656,116.62,5,0,5,0,100,0
71,泰州,中国浙江,Taizhou,Zhejiang China,28.548659,121.450242,37,0,37,0,100,0
72,杭州,中国浙江,Hangzhou,Zhejiang China,30.38812,119.998089,183,0,181,2,98.90710383,0
73,温州,中国浙江,Wenzhou,Zhejiang China,27.972177,120.558404,504,1,503,0,99.8015873,0.198412698
74,宁波,中国浙江,Ningbo,Zhejiang China,29.785459,121.537835,157,0,157,0,100,0
75,嘉兴,中国浙江,Jiaxing,Zhejiang China,30.777679,120.691907,45,0,44,1,97.77777778,0
76,绍兴,中国浙江,Shaoxing,Zhejiang China,29.968789,120.572451,42,0,42,0,100,0
77,舟山,中国浙江,Zhoushan,Zhejiang China,29.871101,122.278765,10,0,10,0,100,0
78,金华,中国浙江,Jinhua,Zhejiang China,29.155526,119.809227,55,0,55,0,100,0
79,衢州,中国浙江,Quzhou,Zhejiang China,28.941983,118.939044,14,0,14,0,100,0
80,丽水,中国浙江,Lishui,Zhejiang China,28.48,119.921,28,0,18,10,64.28571429,0
81,湖州,中国浙江,Huzhou,Zhejiang China,30.89,120.1,12,0,10,2,83.33333333,0
82,万州,中国重庆,Wanzhou,Chongqing China,30.710054,108.413439,118,4,111,3,94.06779661,3.389830508
83,长寿,中国重庆,Changshou,Chongqing China,29.960491,107.146615,22,0,18,4,81.81818182,0
84,开州,中国重庆,Kaizhou,Chongqing China,31.2,108.4,21,1,20,0,95.23809524,4.761904762
85,永川,中国重庆,Yongchuan,Chongqing China,29.296488,105.880358,5,0,5,0,100,0
86,忠县,中国重庆,Zhongxian,Chongqing China,30.342003,107.921738,21,0,21,0,100,0
87,巫山,中国重庆,Wushan,Chongqing China,31.121152,109.908611,10,0,10,0,100,0
88,石柱,中国重庆,Shizhu,Chongqing China,29.9,108,15,0,15,0,100,0
89,重庆市区,中国重庆,Chongqing,Chongqing China,29.59,106.54,605,5,600,0,99.17355372,0.826446281
90,渝北,中国重庆,Yubei,Chongqing China,29.816264,106.753799,17,0,17,0,100,0
91,垫江,中国重庆,Dianjiang,Chongqing China,30.259498,107.444445,20,0,20,0,100,0
92,云阳,中国重庆,Yunyang,Chongqing China,31.042409,108.863186,25,0,25,0,100,0
93,无锡,中国重庆,Wuxi,Chongqing China,31.509161,109.360531,55,0,55,0,100,0
94,合川,中国重庆,Hechuan,Chongqing China,30.118708,106.318029,23,0,23,0,100,0
95,璧山,中国重庆,Bishan,Chongqing China,29.5,106.17,9,0,9,0,100,0
96,涪陵,中国重庆,Fuling,Chongqing China,29.664671,107.3408,5,0,5,0,100,0
97,奉节,中国重庆,Fengjie,Chongqing China,30.958553,109.355667,22,0,22,0,100,0
98,秀山,中国重庆,Xiushan,Chongqing China,28.38,109.06,1,0,1,0,100,0
99,梁平,中国重庆,Liangping,Chongqing China,30.65,107.8,4,0,4,0,100,0
100,城口,中国重庆,Chengkou,Chongqing China,31.888131,108.741855,2,0,2,0,100,0
101,大足,中国重庆,Dazu,Chongqing China,29.714,105.72,14,0,13,1,92.85714286,0
102,丰都,中国重庆,Fengdu,Chongqing China,29.890596,107.837517,10,0,8,2,80,0
103,黔江,中国重庆,Qianjiang,Chongqing China,29.53,108.76,2,0,2,0,100,0
104,万盛,中国重庆,Wansheng,Chongqing China,28.962248,106.924888,1,0,1,0,100,0
105,潼南,中国重庆,Tongnan,Chongqing China,30.19,105.84,18,0,15,3,83.33333333,0
106,铜梁,中国重庆,Tongliang,Chongqing China,29.85,106.05,10,0,9,1,90,0
107,綦江,中国重庆,Qijiang,Chongqing China,29.03,106.64,23,0,20,3,86.95652174,0
108,江津,中国重庆,Jiangjin,Chongqing China,29.28,106.26,4,0,4,0,100,0
109,巴南,中国重庆,Banan,Chongqing China,29.37,106.52,6,0,5,1,83.33333333,0
110,武隆,中国重庆,Wulong,Chongqing China,29.33,107.75,1,0,1,0,100,0
111,酉阳,中国重庆,Youyang,Chongqing China,28.844414,108.763426,1,0,1,0,100,0
112,荣昌,中国重庆,Rongchang,Chongqing China,29.422,105.61,9,0,8,1,88.88888889,0
113,彭水,中国重庆,Pengshui,Chongqing China,29.293585,108.165373,2,0,2,0,100,0
114,北京市区,中国北京,Beijing,Beijing China,39.92,116.46,1420,0,35,1385,2.464788732,0
115,昌平,中国北京,Changping,Beijing China,40.221724,116.216456,29,0,10,19,34.48275862,0
116,通州,中国北京,Tongzhou,Beijing China,32.081032,121.028859,19,0,1,18,5.263157895,0
117,大兴,中国北京,Daxing,Beijing China,39.73,116.33,39,0,16,23,41.02564103,0
118,顺义,中国北京,Shunyi,Beijing China,40.154951,116.728229,10,0,0,10,0,0
119,门头沟,中国北京,Mentougou,Beijing China,39.94,116.1,3,0,2,1,66.66666667,0
120,房山,中国北京,Fangshan,Beijing China,39.744,116.134254,16,0,3,13,18.75,0
121,延庆,中国北京,Yanqing,Beijing China,40.4565,115.971,1,0,0,1,0,0
122,密云,中国北京,Miyun,Beijing China,40.375043,116.83548,7,0,0,7,0,0
123,怀柔,中国北京,Huairou,Beijing China,40.315,116.626,7,0,0,7,0,0
124,上海,中国上海,Shanghai,Shanghai China,31.2,121.560642,358,3,325,30,90.78212291,0.837988827
125,临沂,中国山东,Linyi,Shandong China,35.127031,118.517311,49,0,49,0,100,0
126,青岛,中国山东,Tsingtao,Shandong China,36.284247,120.346326,61,1,59,1,96.72131148,1.639344262
127,威海,中国山东,Weihai,Shandong China,37.399344,122.152075,38,1,37,0,97.36842105,2.631578947
128,日照,中国山东,Rizhao,Shandong China,35.469377,119.377852,16,0,16,0,100,0
129,济宁,中国山东,Jining,Shandong China,35.380135,116.572199,260,0,256,4,98.46153846,0
130,济南,中国山东,Jinan,Shandong China,36.42857,116.803552,47,0,46,1,97.87234043,0
131,德州,中国山东,Dezhou,Shandong China,37.457437,116.332912,37,2,35,0,94.59459459,5.405405405
132,潍坊,中国山东,Weifang,Shandong China,36.691227,119.196972,44,0,44,0,100,0
133,烟台,中国山东,Yantai,Shandong China,37.407476,121.451535,47,0,47,0,100,0
134,聊城,中国山东,Liaocheng,Shandong China,36.45583,115.907706,38,0,38,0,100,0
135,滨州,中国山东,Binzhou,Shandong China,37.424891,117.981211,15,0,15,0,100,0
136,菏泽,中国山东,Heze,Shandong China,35.26244,115.46336,18,0,18,0,100,0
137,淄博,中国山东,Zibo,Shandong China,36.771219,117.875108,30,1,29,0,96.66666667,3.333333333
138,枣庄,中国山东,Zaozhuang,Shandong China,34.82,117.31,24,0,24,0,100,0
139,泰安,中国山东,Tai An,Shandong China,36.189,117.1,35,2,33,0,94.28571429,5.714285714
140,合肥,中国安徽,Hefei,Anhui China,31.790724,117.353913,174,1,173,0,99.42528736,0.574712644
141,阜阳,中国安徽,Fuyang,Anhui China,33.07351,115.734026,155,0,155,0,100,0
142,亳州,中国安徽,Bozhou,Anhui China,33.782924,115.812814,108,0,108,0,100,0
143,安庆,中国安徽,Anqing,Anhui China,31.859252,117.216005,83,0,83,0,100,0
144,马鞍山,中国安徽,Maanshan,Anhui China,31.659719,118.554558,38,0,38,0,100,0
145,铜陵,中国安徽,Tongling,Anhui China,30.952359,117.918516,29,0,29,0,100,0
146,六安,中国安徽,Lu An,Anhui China,31.753039,116.302573,69,0,69,0,100,0
147,滁州,中国安徽,Chuzhou,Anhui China,32.310209,118.270828,13,0,13,0,100,0
148,池州,中国安徽,Chizhou,Anhui China,30.514086,117.508478,17,0,17,0,100,0
149,蚌埠,中国安徽,Bengbu,Anhui China,33.023815,117.388184,160,5,155,0,96.875,3.125
150,芜湖,中国安徽,Wuhu,Anhui China,31.191699,118.532462,34,0,34,0,100,0
151,黄山,中国安徽,Huangshan,Anhui China,29.7,118.314,9,0,9,0,100,0
152,淮北,中国安徽,Huaibei,Anhui China,33.94,116.9,27,0,27,0,100,0
153,淮南,中国安徽,Huainan,Anhui China,32.58,117,27,0,27,0,100,0
154,苏州,中国安徽,Suzhou,Anhui China,33.639,116.96,87,0,87,0,100,0
155,宣城,中国安徽,Xuancheng,Anhui China,30.92,118.8,6,0,6,0,100,0
156,赣州,中国江西,Ganzhou,Jiangxi China,25.838711,114.937365,76,1,75,0,98.68421053,1.315789474
157,福州,中国江西,Fuzhou,Jiangxi China,27.924732,116.362974,72,1,71,0,98.61111111,1.388888889
158,上饶,中国江西,Shangrao,Jiangxi China,28.40568,117.944367,123,0,123,0,100,0
159,宜春,中国江西,Yichun,Jiangxi China,27.839383,114.290358,106,0,106,0,100,0
160,南昌,中国江西,Nanchang,Jiangxi China,28.620772,116.071261,230,0,230,0,100,0
161,萍乡,中国江西,Pingxiang,Jiangxi China,27.53371,113.739818,33,0,33,0,100,0
162,九江,中国江西,Jiujiang,Jiangxi China,29.64023,115.842035,118,0,118,0,100,0
163,吉安,中国江西,Ji An,Jiangxi China,27.160925,114.960437,22,0,22,0,100,0
164,新余,中国江西,Xinyu,Jiangxi China,27.850578,115.007851,130,0,130,0,100,0
165,景德镇,中国江西,Jingdezhen,Jiangxi China,29.303231,117.234119,6,0,6,0,100,0
166,鹰潭,中国江西,Yingtan,Jiangxi China,28.261751,117.023752,18,0,18,0,100,0
167,赣江新区,中国江西,Gan River New District,Jiangxi China,28.815514,115.946982,1,0,1,0,100,0
168,桂林,中国广西,Guilin,Guangxi China,25.112806,110.371485,32,0,32,0,100,0
169,北海,中国广西,Beihai,Guangxi China,21.574915,109.422489,44,1,41,2,93.18181818,2.272727273
170,柳州,中国广西,Liuzhou,Guangxi China,24.471743,109.413915,24,0,24,0,100,0
171,河池,中国广西,Hechi,Guangxi China,24.660762,107.873444,28,1,27,0,96.42857143,3.571428571
172,梧州,中国广西,Wuzhou,Guangxi China,23.5602,111.189914,5,0,5,0,100,0
173,百色,中国广西,Baise,Guangxi China,23.941866,106.505596,3,0,3,0,100,0
174,防城港,中国广西,Fangchenggang,Guangxi China,21.662036,108.449166,19,0,19,0,100,0
175,南宁,中国广西,Nanning,Guangxi China,22.894927,108.573583,55,0,55,0,100,0
176,榆林,中国广西,Yulin,Guangxi China,22.557213,110.064534,3,0,3,0,100,0
177,贺州,中国广西,Hezhou,Guangxi China,24.415,111.54,4,0,4,0,100,0
178,钦州,中国广西,Qinzhou,Guangxi China,21.97,108.617,8,0,8,0,100,0
179,贵港,中国广西,Guigang,Guangxi China,23.1,109.59,8,0,8,0,100,0
180,来宾,中国广西,Laibin,Guangxi China,23.746383,109.218231,11,0,11,0,100,0
181,三亚,中国海南,Sanya,Hainan China,18.397248,109.429348,54,1,53,0,98.14814815,1.851851852
182,万宁,中国海南,Wanning,Hainan China,18.839886,110.292505,13,0,13,0,100,0
183,海口,中国海南,Haikou,Hainan China,19.942909,110.507269,39,0,38,1,97.43589744,0
184,儋州,中国海南,Danzhou,Hainan China,19.571153,109.413973,15,1,13,1,86.66666667,6.666666667
185,临高,中国海南,Lingao,Hainan China,19.805922,109.724102,6,0,6,0,100,0
186,陵水,中国海南,Lingshui,Hainan China,18.506,110.0375,4,0,4,0,100,0
187,澄迈,中国海南,Chengmai,Hainan China,19.7,110,9,1,8,0,88.88888889,11.11111111
188,琼中,中国海南,Qiongzhong,Hainan China,19.04,109.82,1,0,1,0,100,0
189,东方,中国海南,Dongfang,Hainan China,19.09,108.66,3,1,2,0,66.66666667,33.33333333
190,琼海,中国海南,Qionghai,Hainan China,19.256,110.468,6,1,5,0,83.33333333,16.66666667
191,定安,中国海南,Ding An,Hainan China,19.68,110.36,3,1,2,0,66.66666667,33.33333333
192,昌江,中国海南,Changjiang,Hainan China,19.298,109.04,7,0,7,0,100,0
193,乐东,中国海南,Ledong,Hainan China,18.75,109.168,2,0,2,0,100,0
194,文昌,中国海南,Wenchang,Hainan China,19.539,110.787,3,0,3,0,100,0
195,保亭,中国海南,Baoting,Hainan China,18.64104,109.694892,3,0,3,0,100,0
196,福州,中国福建,Fuzhou,Fujian China,26.221752,119.314923,72,1,71,0,98.61111111,1.388888889
197,厦门,中国福建,Xiamen,Fujian China,24.675485,118.280803,35,0,35,0,100,0
198,泉州,中国福建,Quanzhou,Fujian China,25.173479,118.819017,47,0,47,0,100,0
199,漳州,中国福建,Zhangzhou,Fujian China,24.575089,117.633366,20,0,20,0,100,0
200,宁德,中国福建,Ningde,Fujian China,26.763865,119.454559,26,0,26,0,100,0
201,三明,中国福建,Sanming,Fujian China,26.173967,117.516896,14,0,14,0,100,0
202,莆田,中国福建,Putian,Fujian China,25.41,119,56,0,56,0,100,0
203,南平,中国福建,Nanping,Fujian China,26.63,118.18,20,0,20,0,100,0
204,龙岩,中国福建,Longyan,Fujian China,25.1,117,6,0,6,0,100,0
205,常州,中国江苏,Changzhou,Jiangsu China,31.672903,119.943432,51,0,51,0,100,0
206,南京,中国江苏,Nanjing,Jiangsu China,32.40064,118.848166,93,0,93,0,100,0
207,苏州,中国江苏,Suzhou,Jiangsu China,31.332306,120.630878,87,0,87,0,100,0
208,连云港,中国江苏,Lianyungang,Jiangsu China,34.51416,119.162196,48,0,48,0,100,0
209,无锡,中国江苏,Wuxi,Jiangsu China,31.466579,120.248502,55,0,55,0,100,0
210,南通,中国江苏,Nantong,Jiangsu China,32.071256,120.823875,40,0,40,0,100,0
211,扬州,中国江苏,Yangzhou,Jiangsu China,32.408505,119.427778,23,0,23,0,100,0
212,盐城,中国江苏,Yancheng,Jiangsu China,33.265898,119.968501,27,0,27,0,100,0
213,宿迁,中国江苏,Suqian,Jiangsu China,34.00953,118.343693,13,0,13,0,100,0
214,镇江,中国江苏,Zhenjiang,Jiangsu China,32.198,119.46,12,0,12,0,100,0
215,淮安,中国江苏,Huai An,Jiangsu China,33.589,119.03,66,0,66,0,100,0
216,泰州,中国江苏,Taizhou,Jiangsu China,32.45,119.91,37,0,37,0,100,0
217,徐州,中国江苏,Xuzhou,Jiangsu China,34.27,117.186999,79,0,79,0,100,0
218,沈阳,中国辽宁,Shenyang,Liaoning China,41.843551,123.242847,28,0,26,2,92.85714286,0
219,大连,中国辽宁,Dalian,Liaoning China,38.92,121.62,19,0,19,0,100,0
220,朝阳,中国辽宁,Chaoyang,Liaoning China,41.55,120.4,6,0,5,1,83.33333333,0
221,铁岭,中国辽宁,Tieling,Liaoning China,42.222765,123.914529,7,0,7,0,100,0
222,葫芦岛,中国辽宁,Huludao,Liaoning China,40.75,120.84,12,1,11,0,91.66666667,8.333333333
223,本溪,中国辽宁,Benxi,Liaoning China,41.19567,124.158564,3,0,3,0,100,0
224,盘锦,中国辽宁,Panjin,Liaoning China,41.112,122.06,11,0,11,0,100,0
225,营口,中国辽宁,Yingkou,Liaoning China,40.55,122.248,1,0,1,0,100,0
226,丹东,中国辽宁,Dandong,Liaoning China,40.008,124.3545,11,0,9,2,81.81818182,0
227,辽阳,中国辽宁,Liaoyang,Liaoning China,41.26,123.164,3,0,3,0,100,0
228,鞍山,中国辽宁,Anshan,Liaoning China,41.1,122.99,4,0,4,0,100,0
229,锦州,中国辽宁,Jinzhou,Liaoning China,41.0959,121.11,12,0,12,0,100,0
230,阜新,中国辽宁,Fuxin,Liaoning China,42.015173,121.645287,8,0,8,0,100,0
231,西安,中国陕西,Xi An,Shaanxi China,34.066899,108.874256,120,3,110,7,91.66666667,2.5
232,咸阳,中国陕西,Xianyang,Shaanxi China,34.423853,108.817312,17,0,16,1,94.11764706,0
233,安康,中国陕西,Ankang,Shaanxi China,32.814464,108.896243,26,0,26,0,100,0
234,铜川,中国陕西,Tongchuan,Shaanxi China,35.032,108.8355,8,0,8,0,100,0
235,延安,中国陕西,Yan An,Shaanxi China,36.575992,109.648602,8,0,8,0,100,0
236,商洛,中国陕西,Shangluo,Shaanxi China,33.895485,109.873271,7,0,7,0,100,0
237,渭南,中国陕西,Weinan,Shaanxi China,34.5,109.451,15,0,14,1,93.33333333,0
238,汉中,中国陕西,Hanzhong,Shaanxi China,33.1,107,26,0,26,0,100,0
239,宝鸡,中国陕西,Baoji,Shaanxi China,34.39,107.23,13,0,13,0,100,0
240,韩城,中国陕西,Hancheng,Shaanxi China,35.474,110.447,1,0,1,0,100,0
241,榆林,中国陕西,Yulin,Shaanxi China,38.23,109.75,3,0,3,0,100,0
242,杨凌,中国陕西,Yangling,Shaanxi China,34.272,108.082123,1,0,1,0,100,0
243,昆明,中国云南,Kunming,Yunnan China,26.139329,103.078562,53,0,53,0,100,0
244,丽江,中国云南,Lijiang,Yunnan China,26.8593,100.328596,7,0,7,0,100,0
245,西双版纳,中国云南,Xishuangbanna,Yunnan China,22.009433,100.803038,15,1,14,0,93.33333333,6.666666667
246,曲靖,中国云南,Qujing,Yunnan China,25.360057,103.913326,13,0,13,0,100,0
247,玉溪,中国云南,Yuxi,Yunnan China,24.369854,102.499895,14,1,13,0,92.85714286,7.142857143
248,红河,中国云南,Honghe,Yunnan China,23.250955,102.243348,9,0,9,0,100,0
249,大理,中国云南,Dali,Yunnan China,25.693967,100.219209,13,0,13,0,100,0
250,保山,中国云南,Baoshan,Yunnan China,25.16,99.176,9,0,9,0,100,0
251,德宏,中国云南,Dehong,Yunnan China,24.43,98.596,5,0,4,1,80,0
252,昭通,中国云南,Zhaotong,Yunnan China,27.32,103.72,25,0,25,0,100,0
253,普洱,中国云南,Pu Er,Yunnan China,22.7,100.96,4,0,4,0,100,0
254,临沧,中国云南,Lincang,Yunnan China,23.87,100.1,1,0,1,0,100,0
255,文山,中国云南,Wenshan,Yunnan China,23.394,104.226,2,0,2,0,100,0
256,楚雄,中国云南,Chuxiong,Yunnan China,25.025884,101.548734,4,0,4,0,100,0
257,天津,中国天津,Tianjin,Tianjin China,39.13,117.2,136,3,133,0,97.79411765,2.205882353
258,哈尔滨,中国黑龙江,Harbin,Heilongjiang China,45.995674,126.61077,198,4,189,5,95.45454545,2.02020202
259,牡丹江,中国黑龙江,Mudanjiang,Heilongjiang China,44.491714,129.584924,15,0,15,0,100,0
260,大庆,中国黑龙江,Daqing,Heilongjiang China,46.070051,124.699077,26,1,23,2,88.46153846,3.846153846
261,绥化,中国黑龙江,Suihua,Heilongjiang China,46.747537,126.957863,47,4,42,1,89.36170213,8.510638298
262,齐齐哈尔,中国黑龙江,Qiqihar,Heilongjiang China,47.28,123.94,43,1,40,2,93.02325581,2.325581395
263,佳木斯,中国黑龙江,Jiamusi,Heilongjiang China,46.8,130.37,15,0,15,0,100,0
264,双鸭山,中国黑龙江,Shuangyashan,Heilongjiang China,46.642,131.152,52,3,48,1,92.30769231,5.769230769
265,七台河,中国黑龙江,Qitaihe,Heilongjiang China,45.6,131,17,0,17,0,100,0
266,鸡西,中国黑龙江,Jixi,Heilongjiang China,45.3,130.96,46,0,46,0,100,0
267,鹤岗,中国黑龙江,Hegang,Heilongjiang China,47.335,130.294,5,0,5,0,100,0
268,大兴安岭,中国黑龙江,Greater Hinggan,Heilongjiang China,50.41,124.122,3,0,2,1,66.66666667,0
269,黑河,中国黑龙江,Heihe,Heilongjiang China,50.235,127.51,14,0,13,1,92.85714286,0
270,晋中,中国山西,Jinzhong,Shanxi China,37.650825,112.843737,37,0,37,0,100,0
271,太原,中国山西,Taiyuan,Shanxi China,37.748675,112.481587,20,0,20,0,100,0
272,运城,中国山西,Yuncheng,Shanxi China,35.063677,110.961931,19,0,19,0,100,0
273,阳泉,中国山西,Yangquan,Shanxi China,37.911504,113.568086,4,0,4,0,100,0
274,大同,中国山西,Datong,Shanxi China,40,113.3,12,0,12,0,100,0
275,长治,中国山西,Changzhi,Shanxi China,36.02468,113.086194,8,0,8,0,100,0
276,临汾,中国山西,Linfen,Shanxi China,36.1,111.52,2,0,2,0,100,0
277,朔州,中国山西,Shuozhou,Shanxi China,39.35,112.43,8,0,8,0,100,0
278,吕梁,中国山西,Lyuliang,Shanxi China,37.5,111.1,6,0,6,0,100,0
279,忻州,中国山西,Xinzhou,Shanxi China,38.4,112.732,7,0,7,0,100,0
280,晋城,中国山西,Jincheng,Shanxi China,35.498,112.857,10,0,10,0,100,0
281,石家庄,中国河北,Shijiazhuang,Hebei China,38.014621,114.586383,29,0,29,0,100,0
282,沧州,中国河北,Cangzhou,Hebei China,38.314446,116.844854,48,3,45,0,93.75,6.25
283,保定,中国河北,Baoding,Hebei China,38.821877,115.484784,32,0,32,0,100,0
284,承德,中国河北,Chengde,Hebei China,40.973242,118.125718,7,0,7,0,100,0
285,廊坊,中国河北,Langfang,Hebei China,39.47,116.7,30,0,30,0,100,0
286,邢台,中国河北,Xingtai,Hebei China,37.04,114.57,23,1,22,0,95.65217391,4.347826087
287,衡水,中国河北,Hengshui,Hebei China,37.73,115.699,8,0,8,0,100,0
288,唐山,中国河北,Tangshan,Hebei China,39.59,118.2,58,1,55,2,94.82758621,1.724137931
289,邯郸,中国河北,Handan,Hebei China,36.574,114.48,32,0,32,0,100,0
290,张家口,中国河北,Zhangjiakou,Hebei China,40.81,114.89,41,0,41,0,100,0
291,秦皇岛,中国河北,Qinhuangdao,Hebei China,39.95,119.59,10,1,9,0,90,10
292,锡林郭勒盟,中国内蒙古,Xilingol - Xilinhot,Inner Mongolia China,43.468238,114.415868,9,0,9,0,100,0
293,鄂尔多斯,中国内蒙古,Ordos,Inner Mongolia China,39.805586,109.764419,11,0,11,0,100,0
294,赤峰,中国内蒙古,Chifeng,Inner Mongolia China,42.268753,118.757106,9,0,9,0,100,0
295,呼伦贝尔,中国内蒙古,Hulun Buir,Inner Mongolia China,49.22,119.76,7,0,7,0,100,0
296,兴安盟,中国内蒙古,Ulahot,Inner Mongolia China,46.05,122.1,1,0,1,0,100,0
297,乌兰察布,中国内蒙古,Ulanqab,Inner Mongolia China,40.99,113.13,3,0,3,0,100,0
298,包头,中国内蒙古,Baotou,Inner Mongolia China,40.65,109.8,11,0,10,1,90.90909091,0
299,巴彦淖尔,中国内蒙古,Bayannur,Inner Mongolia China,40.75,107.38,8,1,7,0,87.5,12.5
300,通辽,中国内蒙古,Tongliao,Inner Mongolia China,43.626,122.25,7,0,7,0,100,0
301,呼和浩特,中国内蒙古,Huhhot,Inner Mongolia China,40.83,111.69,7,0,7,0,100,0
302,乌海,中国内蒙古,Wuhai,Inner Mongolia China,39.639,106.779,2,0,2,0,100,0
303,香港,中国香港特别行政区,Hong Kong,Hong Kong SAR China,22.293586,114.186124,157,4,88,65,56.05095541,2.547770701
304,铜仁,中国贵州,Tongren,Guizhou China,27.674903,109.168558,10,0,10,0,100,0
305,贵阳,中国贵州,Guiyang,Guizhou China,26.496945,106.70098,36,1,35,0,97.22222222,2.777777778
306,黔南州,中国贵州,Qiannan,Guizhou China,26.254,107.522,17,0,17,0,100,0
307,黔西南州,中国贵州,Qianxinan,Guizhou China,25.1,104.9,4,0,4,0,100,0
308,六盘水,中国贵州,Liupanshui,Guizhou China,26.55,104.85,10,1,9,0,90,10
309,黔东南州,中国贵州,Qiandongnan,Guizhou China,26.56,108,10,0,10,0,100,0
310,遵义,中国贵州,Zunyi,Guizhou China,27.7478,106.91,32,0,32,0,100,0
311,毕节,中国贵州,Bijie,Guizhou China,27.31,105.29,23,0,23,0,100,0
312,安顺,中国贵州,Anshun,Guizhou China,26.25,105.93,4,0,4,0,100,0
313,吉林市,中国吉林,Jilin,Jilin China,43.87,126.57,5,0,5,0,100,0
314,长春,中国吉林,Changchun,Jilin China,43.531747,125.712822,45,0,45,0,100,0
315,松原,中国吉林,Songyuan,Jilin China,45.29271,124.867571,2,0,2,0,100,0
316,四平,中国吉林,Siping,Jilin China,43.178,124.37,15,1,14,0,93.33333333,6.666666667
317,公主岭,中国吉林,Gongzhuling,Jilin China,43.49,124.8,6,0,6,0,100,0
318,通化,中国吉林,Tonghua,Jilin China,41.74,125.92,6,0,6,0,100,0
319,延边,中国吉林,Yanbian,Jilin China,42.89,129.51,5,0,5,0,100,0
320,辽源,中国吉林,Liaoyuan,Jilin China,42.895188,125.148648,7,0,7,0,100,0
321,梅河口,中国吉林,Meihekou,Jilin China,42.537275,125.691833,1,0,1,0,100,0
322,白城,中国吉林,Baicheng,Jilin China,45.614037,122.84704,1,0,1,0,100,0
323,兰州,中国甘肃,Lanzhou,Gansu China,36.0637,103.831,36,2,34,0,94.44444444,5.555555556
324,白银,中国甘肃,Baiyin,Gansu China,36.69035,104.945609,4,0,4,0,100,0
325,临夏,中国甘肃,Linxia,Gansu China,35.518719,103.050791,3,0,3,0,100,0
326,定西,中国甘肃,Dingxi,Gansu China,35.58,104.62,9,0,9,0,100,0
327,张掖,中国甘肃,Zhangye,Gansu China,38.93,100.46,2,0,2,0,100,0
328,陇南,中国甘肃,Longnan,Gansu China,33.39,104.91,4,0,4,0,100,0
329,金昌,中国甘肃,Jinchang,Gansu China,38.52,102.18,1,0,1,0,100,0
330,天水,中国甘肃,Tianshui,Gansu China,34.58,105.73,12,0,12,0,100,0
331,平凉,中国甘肃,Pingliang,Gansu China,35.53,106.67,9,0,9,0,100,0
332,甘南,中国甘肃,Gannan,Gansu China,34.981,102.91,8,0,8,0,100,0
333,庆阳,中国甘肃,Qingyang,Gansu China,35.7,107.65,3,0,3,0,100,0
334,银川,中国宁夏,Yinchuan,Ningxia China,38.478591,106.24265,36,0,36,0,100,0
335,中卫,中国宁夏,Zhongwei,Ningxia China,37.360639,105.111278,4,0,4,0,100,0
336,固原,中国宁夏,Guyuan,Ningxia China,36.206829,106.254011,5,0,5,0,100,0
337,吴忠,中国宁夏,Wuzhong,Ningxia China,37.97,106.2,28,0,28,0,100,0
338,宁东,中国宁夏,Ningdong Energy Chemical Industry Base Admin Committee,Ningxia China,38.4,106.31,1,0,1,0,100,0
339,石嘴山,中国宁夏,Shizuishan,Ningxia China,38.991988,106.37,1,0,1,0,100,0
340,地区,中国 台湾,Taiwan,A Chinese Territory,23.5,121,67,1,22,44,32.8358209,1.492537313
341,乌鲁木齐,中国新疆,Urumqi,Xinjiang China,43.419108,87.360244,23,0,23,0,100,0
342,伊犁,中国新疆,Ili,Xinjiang China,43.9,81.32,18,0,18,0,100,0
343,吐鲁番,中国新疆,Turpan,Xinjiang China,42.95,89.15,3,0,3,0,100,0
344,第八师石河子,中国新疆,Shihezi (The 8th Division),Xinjiang China,44.26,86.05,4,1,3,0,75,25
345,阿克苏,中国新疆,Aksu,Xinjiang China,41.133,80.192,1,0,1,0,100,0
346,第九师额敏县,中国新疆,Emin (The 9th Division),Xinjiang China,46.521076,83.620741,4,1,3,0,75,25
347,第四师科克达拉,中国新疆,Cocodala (The 4th Division),Xinjiang China,43.9448,81.044,10,1,9,0,90,10
348,昌吉,中国新疆,Changji,Xinjiang China,44,87.275,4,0,4,0,100,0
349,第六师五家渠,中国新疆,Wujiaqu (The 6th Division),Xinjiang China,44.159797,87.538838,2,0,2,0,100,0
350,第七师胡杨河,中国新疆,Huyanghe (The 7th Division),Xinjiang China,44.710398,84.8254,1,0,1,0,100,0
351,巴音郭楞,中国新疆,Bayingolin,Xinjiang China,41.771312,86.161609,3,0,3,0,100,0
352,第十二师,中国新疆,The 12th Division,Xinjiang China,43.6,87,3,0,3,0,100,0
353,澳门,中国澳门特别行政区,Macau,Macau SAR China,22.204118,113.557519,11,0,10,1,90.90909091,0
354,西宁,中国青海,Xining,Qinghai China,36.686368,101.712664,15,0,15,0,100,0
355,海北州,中国青海,Haibei,Qinghai China,36.899,100.997,3,0,3,0,100,0
356,成都,中国四川,Chengdu,Sichuan China,30.67,104.06,144,3,126,15,87.5,2.083333333
357,绵阳,中国四川,Mianyang,Sichuan China,31.46,104.73,22,0,22,0,100,0
358,广安,中国四川,Guang An,Sichuan China,30.3,106,30,0,30,0,100,0
359,遂宁,中国四川,Suining,Sichuan China,30.501934,105.569333,17,0,17,0,100,0
360,泸州,中国四川,Luzhou,Sichuan China,27.88,106.27,24,0,24,0,100,0
361,南充,中国四川,Nanchong,Sichuan China,30.84,106.12,39,0,39,0,100,0
362,甘孜,中国四川,Ganzi,Sichuan China,31.62,99.99,78,0,71,7,91.02564103,0
363,德阳,中国四川,Deyang,Sichuan China,31.33,104.23,18,0,18,0,100,0
364,雅安,中国四川,Ya An,Sichuan China,30,103,7,0,7,0,100,0
365,达州,中国四川,Dazhou,Sichuan China,31.2,107.5,42,0,42,0,100,0
366,自贡,中国四川,Zigong,Sichuan China,29.34,104.78,9,0,9,0,100,0
367,内江,中国四川,Neijiang,Sichuan China,29.6,105,22,0,22,0,100,0
368,乐山,中国四川,Leshan,Sichuan China,29.2,103.63,3,0,3,0,100,0
369,眉山,中国四川,Meishan,Sichuan China,29.9,103.5,8,0,8,0,100,0
370,宜宾,中国四川,Yibin,Sichuan China,28.76,104.63,12,0,12,0,100,0
371,凉山,中国四川,Liangshan,Sichuan China,27.88,102.28,13,0,13,0,100,0
372,资阳,中国四川,Ziyang,Sichuan China,30.1,104.67,4,0,4,0,100,0
373,广元,中国四川,Guangyuan,Sichuan China,30.46,106.64,6,0,6,0,100,0
374,阿坝,中国四川,Aba,Sichuan China,32.9,101.71,1,0,1,0,100,0
375,巴中,中国四川,Bazhong,Sichuan China,31.86,106.75,24,0,24,0,100,0
376,攀枝花,中国四川,Panzhihua,Sichuan China,26.578,101.721,16,0,16,0,100,0
377,拉萨,中国西藏,Lhasa,Tibet China,29.65,91.577,1,0,1,0,100,0
378,,阿富汗,,Afghanistan,33.9391,67.71,22,0,1,21,4.545454545,0
379,,阿尔巴尼亚,,Albania,41.1533,20.1683,55,1,0,54,0,1.818181818
380,,阿尔及利亚,,Algeria,28.0339,1.6596,60,4,12,44,20,6.666666667
381,,安道尔,,Andorra,42.5063,1.5218,39,0,1,38,2.564102564,0
382,,安提瓜和巴布达,,Antigua and Barbuda,17.0608,-61.7964,1,0,0,1,0,0
383,,阿根廷,,Argentina,-38.4161,-63.6167,68,2,3,63,4.411764706,2.941176471
384,,亚美尼亚,,Armenia,40.0691,45.0382,78,0,1,77,1.282051282,0
385,阿鲁巴,荷兰,,Aruba,12.5211,-69.9683,3,0,0,3,0,0
386,新南威尔士州,澳大利亚,New South Wales,Australia,-33.8688,151.2093,210,4,4,202,1.904761905,1.904761905
387,维多利亚州,澳大利亚,Victoria,Australia,-37.8136,144.9631,94,0,8,86,8.510638298,0
388,昆士兰州,澳大利亚,Queensland,Australia,-28.0167,153.4,78,0,8,70,10.25641026,0
389,南澳州,澳大利亚,Western Australia,Australia,-31.9505,115.8605,31,1,0,30,0,3.225806452
390,西澳洲,澳大利亚,South Australia,Australia,-34.9285,138.6007,29,0,3,26,10.34482759,0
391,塔斯马尼亚岛,澳大利亚,Tasmania,Australia,-41.4545,145.9707,7,0,0,7,0,0
392,堪培拉,澳大利亚,Australian Capital Territory,Australia,-35.4735,149.0124,2,0,0,2,0,0
393,北部地区,澳大利亚,Northern Territory,Australia,-12.4634,130.8456,1,0,0,1,0,0
394,钻石公主号撤离,澳大利亚,From Diamond Princess,Australia,35.4437,139.638,0,0,0,0,#DIV/0!,#DIV/0!
395,,奥地利,,Austria,47.5162,14.5501,1332,3,1,1328,0.075075075,0.225225225
396,,阿塞拜疆,,Azerbaijan,40.1431,47.5769,28,1,6,21,21.42857143,3.571428571
397,,巴林,,Bahrain,26.0667,50.5577,228,1,81,146,35.52631579,0.438596491
398,,孟加拉国,,Bangladesh,23.685,90.3563,10,0,3,7,30,0
399,,巴巴多斯,,Barbados,13.1939,-59.5432,2,0,0,2,0,0
400,,白俄罗斯,,Belarus,53.7098,27.9534,36,0,3,33,8.333333333,0
401,,比利时,,Belgium,50.5039,4.4699,1243,10,1,1232,0.080450523,0.804505229
402,,贝宁,,Benin,9.3077,2.3158,1,0,0,1,0,0
403,,不丹,,Bhutan,27.5142,90.4336,1,0,0,1,0,0
404,,玻利维亚,,Bolivia,-16.2902,-63.5887,11,0,0,11,0,0
405,,波黑,,Bosnia and Herzegovina,43.9159,17.6791,26,0,2,24,7.692307692,0
406,,巴西,,Brazil,-14.235,-51.9253,321,1,2,318,0.62305296,0.31152648
407,,文莱,,Brunei,4.5353,114.7277,56,0,0,56,0,0
408,,保加利亚,,Bulgaria,42.7339,25.4858,67,2,0,65,0,2.985074627
409,,布基纳法索,,Burkina Faso,12.2383,-1.5616,15,0,0,15,0,0
410,,柬埔寨,,Cambodia,12.5657,104.991,33,0,1,32,3.03030303,0
411,,喀麦隆,,Cameroon,3.848,11.5021,10,0,0,10,0,0
412,安大略,加拿大,Ontario,Canada,51.2538,-85.3232,185,1,5,179,2.702702703,0.540540541
413,英属哥伦比亚,加拿大,British Columbia,Canada,53.7267,-127.6476,103,4,4,95,3.883495146,3.883495146
414,艾伯塔,加拿大,Alberta,Canada,53.9333,-116.5765,74,0,0,74,0,0
415,魁北克,加拿大,Quebec,Canada,52.9399,-73.5491,74,0,0,74,0,0
416,马尼托巴,加拿大,Grand Princess,Canada,37.6489,-122.6655,8,0,0,8,0,0
417,萨斯卡彻万,加拿大,Manitoba,Canada,53.7609,-98.8139,8,0,0,8,0,0
418,新布拉姆那个是威克,加拿大,New Brunswick,Canada,46.5653,-66.4619,8,0,0,8,0,0
419,爱德华王子岛,加拿大,Nova Scotia,Canada,44.682,-63.7443,7,0,0,7,0,0
420,纽芬兰和拉布拉多,加拿大,Saskatchewan,Canada,52.9399,-106.4509,7,0,0,7,0,0
421,,加拿大,Newfoundland and Labrador,Canada,53.1355,-57.6604,3,0,0,3,0,0
422,,加拿大,Prince Edward Island,Canada,46.5107,-63.4168,1,0,0,1,0,0
423,,中非,,Central African Republic,6.6111,20.9394,1,0,0,1,0,0
424,,智利,,Chile,-35.6751,-71.543,201,0,0,201,0,0
425,,哥伦比亚,,Colombia,4.5709,-74.2973,65,0,1,64,1.538461538,0
426,,刚果 (布),,Congo (Brazzaville),-0.228,15.8277,1,0,0,1,0,0
427,,刚果 (金),,Congo (Kinshasa),-4.0383,21.7587,3,0,0,3,0,0
428,,哥斯达黎加,,Costa Rica,9.7489,-83.7534,41,0,0,41,0,0
429,,科特迪瓦,,Cote d'Ivoire,7.54,-5.5471,5,0,1,4,20,0
430,,克罗地亚,,Croatia,45.1,15.2,65,0,4,61,6.153846154,0
431,,钻石公主号,Diamond Princess,Cruise Ship,35.4498,139.6649,696,7,325,364,46.6954023,1.005747126
432,,古巴,,Cuba,21.5218,-77.7812,5,0,0,5,0,0
433,,塞浦路斯,,Cyprus,35.1264,33.4299,46,0,0,46,0,0
434,,捷克,,Czechia,49.8175,15.473,396,0,3,393,0.757575758,0
435,本土,丹麦,,Denmark,56.2639,9.5018,977,4,1,972,0.102354145,0.409416581
436,法罗群岛,丹麦,Faroe Islands,Denmark,61.8926,-6.9118,47,0,0,47,0,0
437,,多米尼加,,Dominican Republic,18.7357,-70.1627,21,1,0,20,0,4.761904762
438,,厄瓜多尔,,Ecuador,-1.8312,-78.1834,58,2,0,56,0,3.448275862
439,,埃及,,Egypt,26.8206,30.8025,196,4,32,160,16.32653061,2.040816327
440,,赤道几内亚,,Equatorial Guinea,1.5,10,1,0,0,1,0,0
441,,爱沙尼亚,,Estonia,58.5953,25.0136,225,0,1,224,0.444444444,0
442,,斯威士兰,,Eswatini,-26.5225,31.4659,1,0,0,1,0,0
443,,埃塞俄比亚,,Ethiopia,9.145,40.4897,5,0,0,5,0,0
444,,芬兰,,Finland,61.9241,25.7482,321,0,10,311,3.115264798,0
445,本土,法国,France,France,46.2276,2.2137,7652,148,12,7492,0.156821746,1.934134867
446,留尼汪,法国,Reunion,France,-21.1351,55.2471,9,0,0,9,0,0
447,法属波利尼西亚,法国,French Guiana,France,4,-53,7,0,0,7,0,0
448,瓜达卢佩,法国,Guadeloupe,France,16.25,-61.5833,6,0,0,6,0,0
449,圣巴瑟勒米,法国,French Polynesia,France,-17.6797,-149.4068,3,0,0,3,0,0
450,圣马丁,法国,Saint Barthelemy,France,17.9,-62.8333,3,0,0,3,0,0
451,马约特,法国,St Martin,France,18.0708,-63.0501,2,0,0,2,0,0
452,,法国,Mayotte,France,-12.8431,45.1383,1,0,0,1,0,0
454,,加蓬,,Gabon,-0.8037,11.6094,1,0,0,1,0,0
455,,格鲁吉亚,,Georgia,42.3154,43.3569,34,0,1,33,2.941176471,0
456,,德国,,Germany,51.1657,10.4515,9257,24,67,9166,0.723776601,0.25926326
457,,加纳,,Ghana,7.9465,-1.0232,7,0,0,7,0,0
458,,希腊,,Greece,39.0742,21.8243,387,5,8,374,2.067183463,1.291989664
459,格陵兰岛,丹麦,,Greenland,71.7069,-42.6043,1,0,0,1,0,0
462,,危地马拉,,Guatemala,15.7835,-90.2308,6,1,0,5,0,16.66666667
463,根西岛,英国皇室私人领地,Guernsey,UK,49.45,-2.58,0,0,0,0,#DIV/0!,#DIV/0!
464,,几内亚,,Guinea,9.9456,-9.6966,1,0,0,1,0,0
465,,圭亚那,,Guyana,4.8604,-58.9302,7,1,0,6,0,14.28571429
466,,梵蒂冈,,Vatican,41.9029,12.4534,1,0,0,1,0,0
467,,洪都拉斯,,Honduras,15.2,-86.2419,8,0,0,8,0,0
468,,匈牙利,,Hungary,47.1625,19.5033,50,1,2,47,4,2
469,,冰岛,,Iceland,64.9631,-19.0208,220,1,0,219,0,0.454545455
470,,印度,,India,20.5937,78.9629,142,3,14,125,9.85915493,2.112676056
471,,印尼,,Indonesia,-0.7893,113.9213,172,5,8,159,4.651162791,2.906976744
472,,伊朗,,Iran,32.4279,53.688,16169,988,5389,9792,33.32921022,6.110458284
473,,伊拉克,,Iraq,33.2232,43.6793,154,11,32,111,20.77922078,7.142857143
474,,爱尔兰,,Ireland,53.1424,-7.6921,223,2,5,216,2.242152466,0.896860987
475,,以色列,,Israel,31.0461,34.8516,337,0,11,326,3.264094955,0
476,,意大利,,Italy,41.8719,12.5674,31506,2503,2941,26062,9.334729893,7.944518504
477,,牙买加,,Jamaica,18.1096,-77.2975,12,0,2,10,16.66666667,0
478,,日本,,Japan,36.2048,138.2529,878,29,144,705,16.40091116,3.302961276
479,泽西岛,英国皇室私人领地,Jersey,UK,49.19,-2.11,0,0,0,0,#DIV/0!,#DIV/0!
480,,约旦,,Jordan,30.5852,36.2384,34,0,1,33,2.941176471,0
481,,哈萨克斯坦,,Kazakhstan,48.0196,66.9237,33,0,0,33,0,0
482,,肯尼亚,,Kenya,-0.0236,37.9062,3,0,0,3,0,0
483,,韩国,,South Korea,35.9078,127.7669,8320,81,1407,6832,16.91105769,0.973557692
484,,科索沃地区,,Kosovo,42.6026,20.903,2,0,0,2,0,0
485,,科威特,,Kuwait,29.3117,47.4818,130,0,9,121,6.923076923,0
486,,拉脱维亚,,Latvia,56.8796,24.6032,49,0,1,48,2.040816327,0
487,,黎巴嫩,,Lebanon,33.8547,35.8623,120,3,3,114,2.5,2.5
488,,利比里亚,,Liberia,6.4281,-9.4295,1,0,0,1,0,0
489,,列支敦士登,,Liechtenstein,47.166,9.5554,7,0,0,7,0,0
490,,立陶宛,,Lithuania,55.1694,23.8813,25,0,1,24,4,0
491,,卢森堡,,Luxembourg,49.8153,6.1296,140,1,0,139,0,0.714285714
492,,马来西亚,,Malaysia,4.2105,101.9758,673,2,49,622,7.280832095,0.29717682
493,,马尔代夫,,Maldives,3.2028,73.2207,13,0,0,13,0,0
494,,马耳他,,Malta,35.9375,14.3754,38,0,2,36,5.263157895,0
495,马丁尼克,法国,,Martinique,14.6415,-61.0242,16,1,0,15,0,6.25
496,,毛里塔尼亚,,Mauritania,21.0079,-10.9408,1,0,0,1,0,0
498,,墨西哥,,Mexico,23.6345,-102.5528,82,0,4,78,4.87804878,0
499,,摩尔多瓦,,Moldova,47.4116,28.3699,30,0,1,29,3.333333333,0
500,,摩纳哥,,Monaco,43.7384,7.4246,7,0,0,7,0,0
501,,蒙古国,,Mongolia,46.8625,103.8467,5,0,0,5,0,0
502,,黑山,,Montenegro,42.5,19.3,2,0,0,2,0,0
503,,摩洛哥,,Morocco,31.7917,-7.0926,38,2,1,35,2.631578947,5.263157895
504,,纳米比亚,,Namibia,-22.9576,18.4904,2,0,0,2,0,0
505,,尼泊尔,,Nepal,28.3949,84.124,1,0,1,0,100,0
506,本土,荷兰,,Netherlands,52.1326,5.2913,1705,43,2,1660,0.117302053,2.521994135
507,库拉索,荷兰,Curacao,Netherlands,12.1696,-68.99,3,0,0,3,0,0
508,,新西兰,,New Zealand,-40.9006,174.886,12,0,0,12,0,0
509,,尼日利亚,,Nigeria,9.082,8.6753,3,0,0,3,0,0
510,,北马其顿,,North Macedonia,41.6086,21.7453,26,0,1,25,3.846153846,0
511,,挪威,,Norway,60.472,8.4689,1463,3,1,1459,0.0683527,0.2050581
512,,巴勒斯坦,,occupied Palestinian territory,31.9522,35.2332,0,0,0,0,#DIV/0!,#DIV/0!
513,,阿曼,,Oman,21.4735,55.9754,24,0,9,15,37.5,0
514,,巴基斯坦,,Pakistan,30.3753,69.3451,236,0,2,234,0.847457627,0
515,,巴拿马,,Panama,8.538,-80.7821,69,1,0,68,0,1.449275362
516,,巴拉圭,,Paraguay,-23.4425,-58.4438,9,0,0,9,0,0
517,,秘鲁,,Peru,-9.19,-75.0152,117,0,1,116,0.854700855,0
518,,菲律宾,,Philippines,12.8797,121.774,187,12,5,170,2.673796791,6.417112299
519,,波兰,,Poland,51.9194,19.1451,238,5,13,220,5.462184874,2.100840336
520,,葡萄牙,,Portugal,39.3999,-8.2245,448,1,3,444,0.669642857,0.223214286
522,,卡塔尔,,Qatar,25.3548,51.1839,439,0,4,435,0.911161731,0
525,,罗马尼亚,,Romania,45.9432,24.9668,184,0,16,168,8.695652174,0
526,,俄罗斯,,Russia,61.524,105.3188,114,0,8,106,7.01754386,0
527,,卢旺达,,Rwanda,-1.9403,29.8739,7,0,0,7,0,0
528,,圣卢西亚,,Saint Lucia,13.9094,-60.9789,2,0,0,2,0,0
529,,圣文森特和格林纳丁斯,,Saint Vincent and the Grenadines,12.9843,-61.2872,1,0,0,1,0,0
530,,圣马力诺,,San Marino,43.9424,12.4578,109,7,4,98,3.669724771,6.422018349
531,,沙特,,Saudi Arabia,23.8859,45.0792,171,0,6,165,3.50877193,0
532,,塞内加尔,,Senegal,14.4974,-14.4524,26,0,2,24,7.692307692,0
533,,塞尔维亚,,Serbia,44.0165,21.0059,65,0,1,64,1.538461538,0
534,,塞舌尔,,Seychelles,-4.6796,55.492,4,0,0,4,0,0
535,,新加坡,,Singapore,1.3521,103.8198,266,0,114,152,42.85714286,0
536,,斯洛伐克,,Slovakia,48.669,19.699,72,0,0,72,0,0
537,,斯洛文尼亚,,Slovenia,46.1512,14.9955,275,1,0,274,0,0.363636364
538,,索马里,,Somalia,5.1521,46.1996,1,0,0,1,0,0
539,,南非,,South Africa,-30.5595,22.9375,62,0,0,62,0,0
540,,西班牙,,Spain,40.4637,-3.7492,11748,533,1028,10187,8.750425604,4.536942458
541,,斯里兰卡,,Sri Lanka,7.8731,80.7718,44,0,1,43,2.272727273,0
542,,苏丹,,Sudan,12.8628,30.2176,1,1,0,0,0,100
543,,苏里南,,Suriname,3.9193,-56.0278,1,0,0,1,0,0
544,,瑞典,,Sweden,60.1282,18.6435,1190,7,1,1182,0.084033613,0.588235294
545,,瑞士,,Switzerland,46.8182,8.2275,2700,27,4,2669,0.148148148,1
546,,坦桑尼亚,,Tanzania,-6.369,34.8888,1,0,0,1,0,0
547,,泰国,,Thailand,15.87,100.9925,177,1,41,135,23.16384181,0.564971751
548,,巴哈马,,The Bahamas,24.25,-76,1,0,0,1,0,0
549,,冈比亚,,The Gambia,13.4667,-16.6,1,0,0,1,0,0
550,,多哥,,Togo,8.6195,0.8248,1,0,0,1,0,0
551,,特立尼达和多巴哥,,Trinidad and Tobago,10.6918,-61.2225,5,0,0,5,0,0
552,,突尼斯,,Tunisia,33.8869,9.5375,24,0,0,24,0,0
553,,土耳其,,Turkey,38.9637,35.2433,47,1,0,46,0,2.127659574
554,,乌克兰,,Ukraine,48.3794,31.1656,14,2,0,12,0,14.28571429
555,,阿联酋,,UAE,23.4241,53.8478,98,0,23,75,23.46938776,0
556,本土,英国,,UK,55.3781,-3.436,1950,55,52,1843,2.666666667,2.820512821
557,海峡群岛,英国,Channel Islands,UK,49.3723,-2.3644,6,0,0,6,0,0
558,直布罗陀,英国,Gibraltar,UK,36.1408,-5.3536,3,0,1,2,33.33333333,0
559,开曼群岛,英国,Cayman Islands,UK,19.3133,-81.2546,1,1,0,0,0,100
560,,乌拉圭,,Uruguay,-32.5228,-55.7658,29,0,0,29,0,0
561,纽约州,美国,New York,US,42.1657,-74.9481,1706,13,0,1693,0,0.762016413
562,华盛顿州,美国,Washington,US,47.4009,-121.4905,1076,55,1,1020,0.092936803,5.111524164
563,加利福尼亚州,美国,California,US,36.1162,-119.6816,698,12,6,680,0.859598854,1.719197708
564,新泽西州,美国,New Jersey,US,40.2989,-74.521,267,3,1,263,0.374531835,1.123595506
565,马萨诸塞州,美国,Massachusetts,US,42.2302,-71.5301,218,0,1,217,0.458715596,0
566,佛罗里达州,美国,Florida,US,27.7663,-81.6868,216,6,0,210,0,2.777777778
567,路易斯安那州,美国,Louisiana,US,31.1695,-91.8678,196,4,0,192,0,2.040816327
568,伊利诺伊州,美国,Illinois,US,40.3495,-88.9861,161,1,2,158,1.242236025,0.621118012
569,科罗拉多州,美国,Colorado,US,39.0598,-105.3111,160,2,0,158,0,1.25
570,乔治亚州,美国,Georgia,US,33.0406,-83.6431,146,1,0,145,0,0.684931507
571,宾夕法尼亚州,美国,Pennsylvania,US,40.5908,-77.2098,112,0,0,112,0,0
572,得克萨斯州,美国,Texas,US,31.0545,-97.5635,110,1,0,109,0,0.909090909
573,田纳西州,美国,Tennessee,US,35.7478,-86.6923,74,0,0,74,0,0
574,威斯康辛州,美国,Wisconsin,US,44.2685,-89.6165,72,0,1,71,1.388888889,0
575,康涅狄格州,美国,Connecticut,US,41.5978,-72.7554,68,0,0,68,0,0
576,俄亥俄州,美国,Ohio,US,40.3888,-82.7649,67,0,0,67,0,0
577,弗吉尼亚州,美国,Virginia,US,37.7693,-78.17,67,2,0,65,0,2.985074627
578,俄勒冈州,美国,Oregon,US,44.572,-122.0709,66,1,0,65,0,1.515151515
579,密歇根州,美国,Michigan,US,43.3266,-84.5361,65,0,0,65,0,0
580,北卡罗来纳州,美国,North Carolina,US,35.6301,-79.8064,64,0,0,64,0,0
581,马里兰州,美国,Maryland,US,39.0639,-76.8021,60,0,3,57,5,0
582,明尼苏达在,美国,Minnesota,US,45.6945,-93.9002,60,0,0,60,0,0
583,内华达州,美国,Nevada,US,38.3135,-117.0554,56,1,0,55,0,1.785714286
584,犹他州,美国,Utah,US,40.15,-111.8624,51,0,0,51,0,0
585,钻石公主号撤离,美国,Diamond Princess,US,35.4437,139.638,47,0,0,47,0,0
586,南卡罗来纳州,美国,South Carolina,US,33.8569,-80.945,47,1,0,46,0,2.127659574
587,亚拉巴马州,美国,Alabama,US,32.3182,-86.9023,39,0,0,39,0,0
588,缅因州,美国,Maine,US,44.6939,-69.3819,32,0,0,32,0,0
589,印第安纳州,美国,Indiana,US,39.8494,-86.2583,30,2,0,28,0,6.666666667
590,肯塔基州,美国,Kentucky,US,37.6681,-84.6701,26,1,1,24,3.846153846,3.846153846
591,新罕布夏州,美国,New Hampshire,US,43.4525,-71.5639,26,0,0,26,0,0
592,艾奥瓦州,美国,Iowa,US,42.0115,-93.2105,23,0,0,23,0,0
593,新墨西哥州,美国,New Mexico,US,34.8405,-106.2485,23,0,0,23,0,0
594,罗德岛州,美国,Rhode Island,US,41.6809,-71.5118,23,0,0,23,0,0
595,阿肯色州,美国,Arkansas,US,34.9697,-92.3731,22,0,0,22,0,0
596,哥伦比亚特区,美国,District of Columbia,US,38.8974,-77.0268,22,0,0,22,0,0
597,至尊公主号,,Grand Princess,,37.6489,-122.6655,21,0,0,21,0,0
598,密西西比州,美国,Mississippi,US,32.7416,-89.6787,21,0,0,21,0,0
599,内布拉斯加州,美国,Nebraska,US,41.1254,-98.2681,21,0,0,21,0,0
600,亚利桑那州,美国,Arizona,US,33.7298,-111.4312,20,0,1,19,5,0
601,俄克拉荷马州,美国,Oklahoma,US,35.5653,-96.9289,19,0,0,19,0,0
602,堪萨斯州,美国,Kansas,US,38.5266,-96.7265,18,1,0,17,0,5.555555556
603,德拉瓦州,美国,Delaware,US,39.3185,-75.5071,16,0,0,16,0,0
604,佛蒙特州,美国,Vermont,US,44.0459,-72.7107,12,0,0,12,0,0
605,密苏里州,美国,Missouri,US,38.4561,-92.2884,11,0,0,11,0,0
606,南达科他州,美国,South Dakota,US,44.2998,-99.4388,11,1,0,10,0,9.090909091
607,怀俄明州,美国,Wyoming,US,42.756,-107.3025,11,0,0,11,0,0
608,夏威夷州,美国,Hawaii,US,21.0943,-157.4983,10,0,0,10,0,0
609,蒙大拿州,美国,Montana,US,46.9219,-110.4544,9,0,0,9,0,0
610,爱达荷州,美国,Idaho,US,44.2405,-114.4788,8,0,0,8,0,0
611,波多黎各,美国,Puerto Rico,US,18.2208,-66.5901,5,0,0,5,0,0
612,阿拉斯加州,美国,Alaska,US,61.3707,-152.4044,3,0,0,3,0,0
613,关岛,美国,Guam,US,13.4443,144.7937,3,0,0,3,0,0
614,北达科他州,美国,North Dakota,US,47.5289,-99.784,3,0,0,3,0,0
615,美属维京群岛,美国,Virgin Islands,US,18.3358,-64.8963,2,0,0,2,0,0
616,西弗吉尼亚州,美国,West Virginia,US,38.4912,-80.9545,1,0,0,1,0,0
617,,乌兹别克斯坦,,Uzbekistan,41.3775,64.5853,10,0,0,10,0,0
618,,委内瑞拉,,Venezuela,6.4238,-66.5897,33,0,0,33,0,0
619,,越南,,Vietnam,14.0583,108.2772,66,0,16,50,24.24242424,0