{
   "type": "FeatureCollection",
   "features": [
  {
    "type": "Feature",
    "geometry": {
       "type": "Point",
       "coordinates":  [ -1.27023005,54.67615891 ]
    },
    "properties": {
    "ctyua16cd":"E06000001",
    "county":"Hartlepool",
    "case":75
    }
  },
  {
    "type": "Feature",
    "geometry": {
       "type": "Point",
       "coordinates":  [ -1.21098995,54.5446701 ]
    },
    "properties": {
    "ctyua16cd":"E06000002",
    "county":"Middlesbrough",
    "case":302
    }
  },
  {
    "type": "Feature",
    "geometry": {
       "type": "Point",
       "coordinates":  [ -1.00610995,54.56752014 ]
    },
    "properties": {
    "ctyua16cd":"E06000003",
    "county":"Redcar and Cleveland",
    "case":184
    }
  },
  {
    "type": "Feature",
    "geometry": {
       "type": "Point",
       "coordinates":  [ -1.30668998,54.55691147 ]
    },
    "properties": {
    "ctyua16cd":"E06000004",
    "county":"Stockton-on-Tees",
    "case":209
    }
  },
  {
    "type": "Feature",
    "geometry": {
       "type": "Point",
       "coordinates":  [ -1.56834996,54.5353508 ]
    },
    "properties": {
    "ctyua16cd":"E06000005",
    "county":"Darlington",
    "case":151
    }
  },
  {
    "type": "Feature",
    "geometry": {
       "type": "Point",
       "coordinates":  [ -2.68852997,53.33423996 ]
    },
    "properties": {
    "ctyua16cd":"E06000006",
    "county":"Halton",
    "case":215
    }
  },
  {
    "type": "Feature",
    "geometry": {
       "type": "Point",
       "coordinates":  [ -2.56167006,53.39162827 ]
    },
    "properties": {
    "ctyua16cd":"E06000007",
    "county":"Warrington",
    "case":363
    }
  },
  {
    "type": "Feature",
    "geometry": {
       "type": "Point",
       "coordinates":  [ -2.46359992,53.70080185 ]
    },
    "properties": {
    "ctyua16cd":"E06000008",
    "county":"Blackburn with Darwen",
    "case":173
    }
  },
  {
    "type": "Feature",
    "geometry": {
       "type": "Point",
       "coordinates":  [ -3.02284002,53.8216095 ]
    },
    "properties": {
    "ctyua16cd":"E06000009",
    "county":"Blackpool",
    "case":174
    }
  },
  {
    "type": "Feature",
    "geometry": {
       "type": "Point",
       "coordinates":  [ -0.30379999,53.76979065 ]
    },
    "properties": {
    "ctyua16cd":"E06000010",
    "county":"Kingston upon Hull, City of",
    "case":150
    }
  },
  {
    "type": "Feature",
    "geometry": {
       "type": "Point",
       "coordinates":  [ -0.66202998,53.88122177 ]
    },
    "properties": {
    "ctyua16cd":"E06000011",
    "county":"East Riding of Yorkshire",
    "case":248
    }
  },
  {
    "type": "Feature",
    "geometry": {
       "type": "Point",
       "coordinates":  [ -0.13926999,53.52336121 ]
    },
    "properties": {
    "ctyua16cd":"E06000012",
    "county":"North East Lincolnshire",
    "case":84
    }
  },
  {
    "type": "Feature",
    "geometry": {
       "type": "Point",
       "coordinates":  [ -0.52410001,53.58644867 ]
    },
    "properties": {
    "ctyua16cd":"E06000013",
    "county":"North Lincolnshire",
    "case":136
    }
  },
  {
    "type": "Feature",
    "geometry": {
       "type": "Point",
       "coordinates":  [ -1.07375002,53.96582031 ]
    },
    "properties": {
    "ctyua16cd":"E06000014",
    "county":"York",
    "case":149
    }
  },
  {
    "type": "Feature",
    "geometry": {
       "type": "Point",
       "coordinates":  [ -1.47188997,52.91463852 ]
    },
    "properties": {
    "ctyua16cd":"E06000015",
    "county":"Derby",
    "case":374
    }
  },
  {
    "type": "Feature",
    "geometry": {
       "type": "Point",
       "coordinates":  [ -1.13039994,52.63592148 ]
    },
    "properties": {
    "ctyua16cd":"E06000016",
    "county":"Leicester",
    "case":416
    }
  },
  {
    "type": "Feature",
    "geometry": {
       "type": "Point",
       "coordinates":  [ -0.62629998,52.66764832 ]
    },
    "properties": {
    "ctyua16cd":"E06000017",
    "county":"Rutland",
    "case":12
    }
  },
  {
    "type": "Feature",
    "geometry": {
       "type": "Point",
       "coordinates":  [ -1.16666996,52.9541893 ]
    },
    "properties": {
    "ctyua16cd":"E06000018",
    "county":"Nottingham",
    "case":334
    }
  },
  {
    "type": "Feature",
    "geometry": {
       "type": "Point",
       "coordinates":  [ -2.73931003,52.08153915 ]
    },
    "properties": {
    "ctyua16cd":"E06000019",
    "county":"Herefordshire, County of",
    "case":122
    }
  },
  {
    "type": "Feature",
    "geometry": {
       "type": "Point",
       "coordinates":  [ -2.48940992,52.71416855 ]
    },
    "properties": {
    "ctyua16cd":"E06000020",
    "county":"Telford and Wrekin",
    "case":139
    }
  },
  {
    "type": "Feature",
    "geometry": {
       "type": "Point",
       "coordinates":  [ -2.15888,53.01707077 ]
    },
    "properties": {
    "ctyua16cd":"E06000021",
    "county":"Stoke-on-Trent",
    "case":230
    }
  },
  {
    "type": "Feature",
    "geometry": {
       "type": "Point",
       "coordinates":  [ -2.48654008,51.35604095 ]
    },
    "properties": {
    "ctyua16cd":"E06000022",
    "county":"Bath and North East Somerset",
    "case":139
    }
  },
  {
    "type": "Feature",
    "geometry": {
       "type": "Point",
       "coordinates":  [ -2.57742,51.47114944 ]
    },
    "properties": {
    "ctyua16cd":"E06000023",
    "county":"Bristol, City of",
    "case":369
    }
  },
  {
    "type": "Feature",
    "geometry": {
       "type": "Point",
       "coordinates":  [ -2.75439,51.39707184 ]
    },
    "properties": {
    "ctyua16cd":"E06000024",
    "county":"North Somerset",
    "case":124
    }
  },
  {
    "type": "Feature",
    "geometry": {
       "type": "Point",
       "coordinates":  [ -2.46921992,51.54671097 ]
    },
    "properties": {
    "ctyua16cd":"E06000025",
    "county":"South Gloucestershire",
    "case":222
    }
  },
  {
    "type": "Feature",
    "geometry": {
       "type": "Point",
       "coordinates":  [ -4.1129899,50.40494156 ]
    },
    "properties": {
    "ctyua16cd":"E06000026",
    "county":"Plymouth",
    "case":163
    }
  },
  {
    "type": "Feature",
    "geometry": {
       "type": "Point",
       "coordinates":  [ -3.5552299,50.4708786 ]
    },
    "properties": {
    "ctyua16cd":"E06000027",
    "county":"Torbay",
    "case":103
    }
  },
  {
    "type": "Feature",
    "geometry": {
       "type": "Point",
       "coordinates":  [ -1.85863996,50.7448616 ]
    },
    "properties": {
    "ctyua16cd":"E06000028",
    "county":"Bournemouth",
    "case":null
    }
  },
  {
    "type": "Feature",
    "geometry": {
       "type": "Point",
       "coordinates":  [ -1.95326996,50.74077988 ]
    },
    "properties": {
    "ctyua16cd":"E06000029",
    "county":"Poole",
    "case":null
    }
  },
  {
    "type": "Feature",
    "geometry": {
       "type": "Point",
       "coordinates":  [ -1.73367,51.57762909 ]
    },
    "properties": {
    "ctyua16cd":"E06000030",
    "county":"Swindon",
    "case":199
    }
  },
  {
    "type": "Feature",
    "geometry": {
       "type": "Point",
       "coordinates":  [ -0.26874,52.5921402 ]
    },
    "properties": {
    "ctyua16cd":"E06000031",
    "county":"Peterborough",
    "case":108
    }
  },
  {
    "type": "Feature",
    "geometry": {
       "type": "Point",
       "coordinates":  [ -0.67540997,51.48033905 ]
    },
    "properties": {
    "ctyua16cd":"E06000040",
    "county":"Windsor and Maidenhead",
    "case":162
    }
  },
  {
    "type": "Feature",
    "geometry": {
       "type": "Point",
       "coordinates":  [ -0.89934999,51.42295837 ]
    },
    "properties": {
    "ctyua16cd":"E06000041",
    "county":"Wokingham",
    "case":193
    }
  },
  {
    "type": "Feature",
    "geometry": {
       "type": "Point",
       "coordinates":  [ -0.74070001,52.07241058 ]
    },
    "properties": {
    "ctyua16cd":"E06000042",
    "county":"Milton Keynes",
    "case":316
    }
  },
  {
    "type": "Feature",
    "geometry": {
       "type": "Point",
       "coordinates":  [ -0.15079001,50.84648895 ]
    },
    "properties": {
    "ctyua16cd":"E06000043",
    "county":"Brighton and Hove",
    "case":227
    }
  },
  {
    "type": "Feature",
    "geometry": {
       "type": "Point",
       "coordinates":  [ -1.07023001,50.80804825 ]
    },
    "properties": {
    "ctyua16cd":"E06000044",
    "county":"Portsmouth",
    "case":193
    }
  },
  {
    "type": "Feature",
    "geometry": {
       "type": "Point",
       "coordinates":  [ -0.42319,51.89102173 ]
    },
    "properties": {
    "ctyua16cd":"E06000032",
    "county":"Luton",
    "case":367
    }
  },
  {
    "type": "Feature",
    "geometry": {
       "type": "Point",
       "coordinates":  [ 0.70690602,51.54914093 ]
    },
    "properties": {
    "ctyua16cd":"E06000033",
    "county":"Southend-on-Sea",
    "case":224
    }
  },
  {
    "type": "Feature",
    "geometry": {
       "type": "Point",
       "coordinates":  [ 0.33490199,51.5099411 ]
    },
    "properties": {
    "ctyua16cd":"E06000034",
    "county":"Thurrock",
    "case":201
    }
  },
  {
    "type": "Feature",
    "geometry": {
       "type": "Point",
       "coordinates":  [ 0.563173,51.44770813 ]
    },
    "properties": {
    "ctyua16cd":"E06000035",
    "county":"Medway",
    "case":409
    }
  },
  {
    "type": "Feature",
    "geometry": {
       "type": "Point",
       "coordinates":  [ -0.73363,51.41130066 ]
    },
    "properties": {
    "ctyua16cd":"E06000036",
    "county":"Bracknell Forest",
    "case":134
    }
  },
  {
    "type": "Feature",
    "geometry": {
       "type": "Point",
       "coordinates":  [ -1.27364004,51.44559097 ]
    },
    "properties": {
    "ctyua16cd":"E06000037",
    "county":"West Berkshire",
    "case":180
    }
  },
  {
    "type": "Feature",
    "geometry": {
       "type": "Point",
       "coordinates":  [ -1.40024996,50.92037964 ]
    },
    "properties": {
    "ctyua16cd":"E06000045",
    "county":"Southampton",
    "case":283
    }
  },
  {
    "type": "Feature",
    "geometry": {
       "type": "Point",
       "coordinates":  [ -1.33361995,50.67129898 ]
    },
    "properties": {
    "ctyua16cd":"E06000046",
    "county":"Isle of Wight",
    "case":55
    }
  },
  {
    "type": "Feature",
    "geometry": {
       "type": "Point",
       "coordinates":  [ -1.8405,54.68513107 ]
    },
    "properties": {
    "ctyua16cd":"E06000047",
    "county":"County Durham",
    "case":728
    }
  },
  {
    "type": "Feature",
    "geometry": {
       "type": "Point",
       "coordinates":  [ -2.29298997,53.1679306 ]
    },
    "properties": {
    "ctyua16cd":"E06000049",
    "county":"Cheshire East",
    "case":449
    }
  },
  {
    "type": "Feature",
    "geometry": {
       "type": "Point",
       "coordinates":  [ -2.70298004,53.1633606 ]
    },
    "properties": {
    "ctyua16cd":"E06000050",
    "county":"Cheshire West and Chester",
    "case":461
    }
  },
  {
    "type": "Feature",
    "geometry": {
       "type": "Point",
       "coordinates":  [ -2.73667002,52.6221199 ]
    },
    "properties": {
    "ctyua16cd":"E06000051",
    "county":"Shropshire",
    "case":265
    }
  },
  {
    "type": "Feature",
    "geometry": {
       "type": "Point",
       "coordinates":  [ -4.64248991,50.45022964 ]
    },
    "properties": {
    "ctyua16cd":"E06000052",
    "county":"Cornwall",
    "case":339
    }
  },
  {
    "type": "Feature",
    "geometry": {
       "type": "Point",
       "coordinates":  [ -6.3021698,49.92332077 ]
    },
    "properties": {
    "ctyua16cd":"E06000053",
    "county":"Isles of Scilly",
    "case":null
    }
  },
  {
    "type": "Feature",
    "geometry": {
       "type": "Point",
       "coordinates":  [ -1.92660999,51.32883072 ]
    },
    "properties": {
    "ctyua16cd":"E06000054",
    "county":"Wiltshire",
    "case":256
    }
  },
  {
    "type": "Feature",
    "geometry": {
       "type": "Point",
       "coordinates":  [ -0.45462999,52.19628143 ]
    },
    "properties": {
    "ctyua16cd":"E06000055",
    "county":"Bedford",
    "case":239
    }
  },
  {
    "type": "Feature",
    "geometry": {
       "type": "Point",
       "coordinates":  [ -0.47753999,51.99903107 ]
    },
    "properties": {
    "ctyua16cd":"E06000056",
    "county":"Central Bedfordshire",
    "case":291
    }
  },
  {
    "type": "Feature",
    "geometry": {
       "type": "Point",
       "coordinates":  [ -2.07521009,55.30036926 ]
    },
    "properties": {
    "ctyua16cd":"E06000057",
    "county":"Northumberland",
    "case":450
    }
  },
  {
    "type": "Feature",
    "geometry": {
       "type": "Point",
       "coordinates":  [ -2.47952008,53.58449173 ]
    },
    "properties": {
    "ctyua16cd":"E08000001",
    "county":"Bolton",
    "case":424
    }
  },
  {
    "type": "Feature",
    "geometry": {
       "type": "Point",
       "coordinates":  [ -2.30879998,53.5931015 ]
    },
    "properties": {
    "ctyua16cd":"E08000002",
    "county":"Bury",
    "case":256
    }
  },
  {
    "type": "Feature",
    "geometry": {
       "type": "Point",
       "coordinates":  [ -2.23358989,53.47008896 ]
    },
    "properties": {
    "ctyua16cd":"E08000003",
    "county":"Manchester",
    "case":724
    }
  },
  {
    "type": "Feature",
    "geometry": {
       "type": "Point",
       "coordinates":  [ -2.0527401,53.55767822 ]
    },
    "properties": {
    "ctyua16cd":"E08000004",
    "county":"Oldham",
    "case":370
    }
  },
  {
    "type": "Feature",
    "geometry": {
       "type": "Point",
       "coordinates":  [ -2.14784002,53.60741043 ]
    },
    "properties": {
    "ctyua16cd":"E08000005",
    "county":"Rochdale",
    "case":275
    }
  },
  {
    "type": "Feature",
    "geometry": {
       "type": "Point",
       "coordinates":  [ -2.38485003,53.47927094 ]
    },
    "properties": {
    "ctyua16cd":"E08000006",
    "county":"Salford",
    "case":368
    }
  },
  {
    "type": "Feature",
    "geometry": {
       "type": "Point",
       "coordinates":  [ -2.12467003,53.39115906 ]
    },
    "properties": {
    "ctyua16cd":"E08000007",
    "county":"Stockport",
    "case":511
    }
  },
  {
    "type": "Feature",
    "geometry": {
       "type": "Point",
       "coordinates":  [ -2.0769999,53.47866821 ]
    },
    "properties": {
    "ctyua16cd":"E08000008",
    "county":"Tameside",
    "case":308
    }
  },
  {
    "type": "Feature",
    "geometry": {
       "type": "Point",
       "coordinates":  [ -2.36572003,53.4167099 ]
    },
    "properties": {
    "ctyua16cd":"E08000009",
    "county":"Trafford",
    "case":388
    }
  },
  {
    "type": "Feature",
    "geometry": {
       "type": "Point",
       "coordinates":  [ -2.57246995,53.51445007 ]
    },
    "properties": {
    "ctyua16cd":"E08000010",
    "county":"Wigan",
    "case":330
    }
  },
  {
    "type": "Feature",
    "geometry": {
       "type": "Point",
       "coordinates":  [ -2.8329699,53.43788147 ]
    },
    "properties": {
    "ctyua16cd":"E08000011",
    "county":"Knowsley",
    "case":329
    }
  },
  {
    "type": "Feature",
    "geometry": {
       "type": "Point",
       "coordinates":  [ -2.91364002,53.40829849 ]
    },
    "properties": {
    "ctyua16cd":"E08000012",
    "county":"Liverpool",
    "case":979
    }
  },
  {
    "type": "Feature",
    "geometry": {
       "type": "Point",
       "coordinates":  [ -2.70309997,53.45861816 ]
    },
    "properties": {
    "ctyua16cd":"E08000013",
    "county":"St. Helens",
    "case":399
    }
  },
  {
    "type": "Feature",
    "geometry": {
       "type": "Point",
       "coordinates":  [ -2.99203992,53.48210144 ]
    },
    "properties": {
    "ctyua16cd":"E08000014",
    "county":"Sefton",
    "case":532
    }
  },
  {
    "type": "Feature",
    "geometry": {
       "type": "Point",
       "coordinates":  [ -3.06502008,53.37453842 ]
    },
    "properties": {
    "ctyua16cd":"E08000015",
    "county":"Wirral",
    "case":593
    }
  },
  {
    "type": "Feature",
    "geometry": {
       "type": "Point",
       "coordinates":  [ -1.54925001,53.52576828 ]
    },
    "properties": {
    "ctyua16cd":"E08000016",
    "county":"Barnsley",
    "case":379
    }
  },
  {
    "type": "Feature",
    "geometry": {
       "type": "Point",
       "coordinates":  [ -1.10894001,53.52696991 ]
    },
    "properties": {
    "ctyua16cd":"E08000017",
    "county":"Doncaster",
    "case":210
    }
  },
  {
    "type": "Feature",
    "geometry": {
       "type": "Point",
       "coordinates":  [ -1.28650999,53.3955307 ]
    },
    "properties": {
    "ctyua16cd":"E08000018",
    "county":"Rotherham",
    "case":383
    }
  },
  {
    "type": "Feature",
    "geometry": {
       "type": "Point",
       "coordinates":  [ -0.99071002,51.45301819 ]
    },
    "properties": {
    "ctyua16cd":"E06000038",
    "county":"Reading",
    "case":224
    }
  },
  {
    "type": "Feature",
    "geometry": {
       "type": "Point",
       "coordinates":  [ -0.57617003,51.50350189 ]
    },
    "properties": {
    "ctyua16cd":"E06000039",
    "county":"Slough",
    "case":256
    }
  },
  {
    "type": "Feature",
    "geometry": {
       "type": "Point",
       "coordinates":  [ -1.54253995,53.40357971 ]
    },
    "properties": {
    "ctyua16cd":"E08000019",
    "county":"Sheffield",
    "case":1365
    }
  },
  {
    "type": "Feature",
    "geometry": {
       "type": "Point",
       "coordinates":  [ -1.65296996,55.02101135 ]
    },
    "properties": {
    "ctyua16cd":"E08000021",
    "county":"Newcastle upon Tyne",
    "case":611
    }
  },
  {
    "type": "Feature",
    "geometry": {
       "type": "Point",
       "coordinates":  [ -1.50923002,55.02896118 ]
    },
    "properties": {
    "ctyua16cd":"E08000022",
    "county":"North Tyneside",
    "case":321
    }
  },
  {
    "type": "Feature",
    "geometry": {
       "type": "Point",
       "coordinates":  [ -1.44695997,54.96987915 ]
    },
    "properties": {
    "ctyua16cd":"E08000023",
    "county":"South Tyneside",
    "case":233
    }
  },
  {
    "type": "Feature",
    "geometry": {
       "type": "Point",
       "coordinates":  [ -1.43343997,54.85720062 ]
    },
    "properties": {
    "ctyua16cd":"E08000024",
    "county":"Sunderland",
    "case":690
    }
  },
  {
    "type": "Feature",
    "geometry": {
       "type": "Point",
       "coordinates":  [ -1.88141,52.48403931 ]
    },
    "properties": {
    "ctyua16cd":"E08000025",
    "county":"Birmingham",
    "case":1931
    }
  },
  {
    "type": "Feature",
    "geometry": {
       "type": "Point",
       "coordinates":  [ -1.51908004,52.41423035 ]
    },
    "properties": {
    "ctyua16cd":"E08000026",
    "county":"Coventry",
    "case":408
    }
  },
  {
    "type": "Feature",
    "geometry": {
       "type": "Point",
       "coordinates":  [ -2.10171008,52.49512863 ]
    },
    "properties": {
    "ctyua16cd":"E08000027",
    "county":"Dudley",
    "case":475
    }
  },
  {
    "type": "Feature",
    "geometry": {
       "type": "Point",
       "coordinates":  [ -2.00770998,52.51477051 ]
    },
    "properties": {
    "ctyua16cd":"E08000028",
    "county":"Sandwell",
    "case":593
    }
  },
  {
    "type": "Feature",
    "geometry": {
       "type": "Point",
       "coordinates":  [ -1.71557999,52.43099976 ]
    },
    "properties": {
    "ctyua16cd":"E08000029",
    "county":"Solihull",
    "case":364
    }
  },
  {
    "type": "Feature",
    "geometry": {
       "type": "Point",
       "coordinates":  [ -1.97044003,52.60503006 ]
    },
    "properties": {
    "ctyua16cd":"E08000030",
    "county":"Walsall",
    "case":582
    }
  },
  {
    "type": "Feature",
    "geometry": {
       "type": "Point",
       "coordinates":  [ -2.12746,52.59788132 ]
    },
    "properties": {
    "ctyua16cd":"E08000031",
    "county":"Wolverhampton",
    "case":473
    }
  },
  {
    "type": "Feature",
    "geometry": {
       "type": "Point",
       "coordinates":  [ -1.87389004,53.84381866 ]
    },
    "properties": {
    "ctyua16cd":"E08000032",
    "county":"Bradford",
    "case":493
    }
  },
  {
    "type": "Feature",
    "geometry": {
       "type": "Point",
       "coordinates":  [ -1.96182001,53.72048187 ]
    },
    "properties": {
    "ctyua16cd":"E08000033",
    "county":"Calderdale",
    "case":160
    }
  },
  {
    "type": "Feature",
    "geometry": {
       "type": "Point",
       "coordinates":  [ -1.78085005,53.64233017 ]
    },
    "properties": {
    "ctyua16cd":"E08000034",
    "county":"Kirklees",
    "case":369
    }
  },
  {
    "type": "Feature",
    "geometry": {
       "type": "Point",
       "coordinates":  [ -1.50735998,53.82273102 ]
    },
    "properties": {
    "ctyua16cd":"E08000035",
    "county":"Leeds",
    "case":779
    }
  },
  {
    "type": "Feature",
    "geometry": {
       "type": "Point",
       "coordinates":  [ -1.42092001,53.65922165 ]
    },
    "properties": {
    "ctyua16cd":"E08000036",
    "county":"Wakefield",
    "case":353
    }
  },
  {
    "type": "Feature",
    "geometry": {
       "type": "Point",
       "coordinates":  [ -1.6868,54.93119812 ]
    },
    "properties": {
    "ctyua16cd":"E08000037",
    "county":"Gateshead",
    "case":466
    }
  },
  {
    "type": "Feature",
    "geometry": {
       "type": "Point",
       "coordinates":  [ -0.09351,51.51564026 ]
    },
    "properties": {
    "ctyua16cd":"E09000001",
    "county":"City of London",
    "case":13
    }
  },
  {
    "type": "Feature",
    "geometry": {
       "type": "Point",
       "coordinates":  [ 0.12950601,51.54552078 ]
    },
    "properties": {
    "ctyua16cd":"E09000002",
    "county":"Barking and Dagenham",
    "case":347
    }
  },
  {
    "type": "Feature",
    "geometry": {
       "type": "Point",
       "coordinates":  [ -0.21821,51.61108017 ]
    },
    "properties": {
    "ctyua16cd":"E09000003",
    "county":"Barnet",
    "case":977
    }
  },
  {
    "type": "Feature",
    "geometry": {
       "type": "Point",
       "coordinates":  [ 0.146212,51.45820999 ]
    },
    "properties": {
    "ctyua16cd":"E09000004",
    "county":"Bexley",
    "case":446
    }
  },
  {
    "type": "Feature",
    "geometry": {
       "type": "Point",
       "coordinates":  [ 0.050108,51.46395874 ]
    },
    "properties": {
    "ctyua16cd":"E09000011",
    "county":"Greenwich",
    "case":503
    }
  },
  {
    "type": "Feature",
    "geometry": {
       "type": "Point",
       "coordinates":  [ -0.27568001,51.56441116 ]
    },
    "properties": {
    "ctyua16cd":"E09000005",
    "county":"Brent",
    "case":1063
    }
  },
  {
    "type": "Feature",
    "geometry": {
       "type": "Point",
       "coordinates":  [ 0.039246,51.37266922 ]
    },
    "properties": {
    "ctyua16cd":"E09000006",
    "county":"Bromley",
    "case":785
    }
  },
  {
    "type": "Feature",
    "geometry": {
       "type": "Point",
       "coordinates":  [ -0.16289,51.5430603 ]
    },
    "properties": {
    "ctyua16cd":"E09000007",
    "county":"Camden",
    "case":443
    }
  },
  {
    "type": "Feature",
    "geometry": {
       "type": "Point",
       "coordinates":  [ -0.07761,51.36597824 ]
    },
    "properties": {
    "ctyua16cd":"E09000008",
    "county":"Croydon",
    "case":1006
    }
  },
  {
    "type": "Feature",
    "geometry": {
       "type": "Point",
       "coordinates":  [ -0.31406999,51.52442932 ]
    },
    "properties": {
    "ctyua16cd":"E09000009",
    "county":"Ealing",
    "case":772
    }
  },
  {
    "type": "Feature",
    "geometry": {
       "type": "Point",
       "coordinates":  [ -4.2111001,51.89495087 ]
    },
    "properties": {
    "ctyua16cd":"W06000010",
    "county":"Carmarthenshire",
    "case":null
    }
  },
  {
    "type": "Feature",
    "geometry": {
       "type": "Point",
       "coordinates":  [ -3.96723008,51.65805817 ]
    },
    "properties": {
    "ctyua16cd":"W06000011",
    "county":"Swansea",
    "case":null
    }
  },
  {
    "type": "Feature",
    "geometry": {
       "type": "Point",
       "coordinates":  [ -3.74638009,51.64450073 ]
    },
    "properties": {
    "ctyua16cd":"W06000012",
    "county":"Neath Port Talbot",
    "case":null
    }
  },
  {
    "type": "Feature",
    "geometry": {
       "type": "Point",
       "coordinates":  [ -3.61359,51.56058121 ]
    },
    "properties": {
    "ctyua16cd":"W06000013",
    "county":"Bridgend",
    "case":null
    }
  },
  {
    "type": "Feature",
    "geometry": {
       "type": "Point",
       "coordinates":  [ -3.39803004,51.44837952 ]
    },
    "properties": {
    "ctyua16cd":"W06000014",
    "county":"Vale of Glamorgan",
    "case":null
    }
  },
  {
    "type": "Feature",
    "geometry": {
       "type": "Point",
       "coordinates":  [ -3.22212005,51.50254059 ]
    },
    "properties": {
    "ctyua16cd":"W06000015",
    "county":"Cardiff",
    "case":null
    }
  },
  {
    "type": "Feature",
    "geometry": {
       "type": "Point",
       "coordinates":  [ -3.41358995,51.62184906 ]
    },
    "properties": {
    "ctyua16cd":"W06000016",
    "county":"Rhondda Cynon Taf",
    "case":null
    }
  },
  {
    "type": "Feature",
    "geometry": {
       "type": "Point",
       "coordinates":  [ -3.19753003,51.65000916 ]
    },
    "properties": {
    "ctyua16cd":"W06000018",
    "county":"Caerphilly",
    "case":null
    }
  },
  {
    "type": "Feature",
    "geometry": {
       "type": "Point",
       "coordinates":  [ -3.18592,51.75363922 ]
    },
    "properties": {
    "ctyua16cd":"W06000019",
    "county":"Blaenau Gwent",
    "case":null
    }
  },
  {
    "type": "Feature",
    "geometry": {
       "type": "Point",
       "coordinates":  [ -3.05100989,51.69836044 ]
    },
    "properties": {
    "ctyua16cd":"W06000020",
    "county":"Torfaen",
    "case":null
    }
  },
  {
    "type": "Feature",
    "geometry": {
       "type": "Point",
       "coordinates":  [ -2.90280008,51.77827072 ]
    },
    "properties": {
    "ctyua16cd":"W06000021",
    "county":"Monmouthshire",
    "case":null
    }
  },
  {
    "type": "Feature",
    "geometry": {
       "type": "Point",
       "coordinates":  [ -2.89769006,51.58232117 ]
    },
    "properties": {
    "ctyua16cd":"W06000022",
    "county":"Newport",
    "case":null
    }
  },
  {
    "type": "Feature",
    "geometry": {
       "type": "Point",
       "coordinates":  [ -3.43532991,52.348629 ]
    },
    "properties": {
    "ctyua16cd":"W06000023",
    "county":"Powys",
    "case":null
    }
  },
  {
    "type": "Feature",
    "geometry": {
       "type": "Point",
       "coordinates":  [ -3.36424994,51.74858093 ]
    },
    "properties": {
    "ctyua16cd":"W06000024",
    "county":"Merthyr Tydfil",
    "case":null
    }
  },
  {
    "type": "Feature",
    "geometry": {
       "type": "Point",
       "coordinates":  [ -0.08147,51.64888 ]
    },
    "properties": {
    "ctyua16cd":"E09000010",
    "county":"Enfield",
    "case":562
    }
  },
  {
    "type": "Feature",
    "geometry": {
       "type": "Point",
       "coordinates":  [ -0.06045,51.5549202 ]
    },
    "properties": {
    "ctyua16cd":"E09000012",
    "county":"Hackney",
    "case":516
    }
  },
  {
    "type": "Feature",
    "geometry": {
       "type": "Point",
       "coordinates":  [ -0.21736,51.48736954 ]
    },
    "properties": {
    "ctyua16cd":"E09000013",
    "county":"Hammersmith and Fulham",
    "case":395
    }
  },
  {
    "type": "Feature",
    "geometry": {
       "type": "Point",
       "coordinates":  [ -0.10667,51.58771133 ]
    },
    "properties": {
    "ctyua16cd":"E09000014",
    "county":"Haringey",
    "case":419
    }
  },
  {
    "type": "Feature",
    "geometry": {
       "type": "Point",
       "coordinates":  [ -0.33603001,51.59466934 ]
    },
    "properties": {
    "ctyua16cd":"E09000015",
    "county":"Harrow",
    "case":684
    }
  },
  {
    "type": "Feature",
    "geometry": {
       "type": "Point",
       "coordinates":  [ 0.235368,51.56518936 ]
    },
    "properties": {
    "ctyua16cd":"E09000016",
    "county":"Havering",
    "case":491
    }
  },
  {
    "type": "Feature",
    "geometry": {
       "type": "Point",
       "coordinates":  [ -0.44182,51.53662872 ]
    },
    "properties": {
    "ctyua16cd":"E09000017",
    "county":"Hillingdon",
    "case":530
    }
  },
  {
    "type": "Feature",
    "geometry": {
       "type": "Point",
       "coordinates":  [ -0.37843999,51.46242905 ]
    },
    "properties": {
    "ctyua16cd":"E09000018",
    "county":"Hounslow",
    "case":495
    }
  },
  {
    "type": "Feature",
    "geometry": {
       "type": "Point",
       "coordinates":  [ -0.10992,51.54547882 ]
    },
    "properties": {
    "ctyua16cd":"E09000019",
    "county":"Islington",
    "case":331
    }
  },
  {
    "type": "Feature",
    "geometry": {
       "type": "Point",
       "coordinates":  [ -0.18976,51.49644089 ]
    },
    "properties": {
    "ctyua16cd":"E09000020",
    "county":"Kensington and Chelsea",
    "case":367
    }
  },
  {
    "type": "Feature",
    "geometry": {
       "type": "Point",
       "coordinates":  [ -0.28367001,51.39295959 ]
    },
    "properties": {
    "ctyua16cd":"E09000021",
    "county":"Kingston upon Thames",
    "case":301
    }
  },
  {
    "type": "Feature",
    "geometry": {
       "type": "Point",
       "coordinates":  [ -0.11385,51.46442032 ]
    },
    "properties": {
    "ctyua16cd":"E09000022",
    "county":"Lambeth",
    "case":926
    }
  },
  {
    "type": "Feature",
    "geometry": {
       "type": "Point",
       "coordinates":  [ -0.01733,51.44231033 ]
    },
    "properties": {
    "ctyua16cd":"E09000023",
    "county":"Lewisham",
    "case":721
    }
  },
  {
    "type": "Feature",
    "geometry": {
       "type": "Point",
       "coordinates":  [ -0.18866999,51.41056824 ]
    },
    "properties": {
    "ctyua16cd":"E09000024",
    "county":"Merton",
    "case":504
    }
  },
  {
    "type": "Feature",
    "geometry": {
       "type": "Point",
       "coordinates":  [ 0.027369,51.53131866 ]
    },
    "properties": {
    "ctyua16cd":"E09000025",
    "county":"Newham",
    "case":796
    }
  },
  {
    "type": "Feature",
    "geometry": {
       "type": "Point",
       "coordinates":  [ 0.070085,51.58589172 ]
    },
    "properties": {
    "ctyua16cd":"E09000026",
    "county":"Redbridge",
    "case":534
    }
  },
  {
    "type": "Feature",
    "geometry": {
       "type": "Point",
       "coordinates":  [ -0.28913999,51.44033051 ]
    },
    "properties": {
    "ctyua16cd":"E09000027",
    "county":"Richmond upon Thames",
    "case":286
    }
  },
  {
    "type": "Feature",
    "geometry": {
       "type": "Point",
       "coordinates":  [ -0.07309,51.46588898 ]
    },
    "properties": {
    "ctyua16cd":"E09000028",
    "county":"Southwark",
    "case":972
    }
  },
  {
    "type": "Feature",
    "geometry": {
       "type": "Point",
       "coordinates":  [ -0.17227,51.3575592 ]
    },
    "properties": {
    "ctyua16cd":"E09000029",
    "county":"Sutton",
    "case":436
    }
  },
  {
    "type": "Feature",
    "geometry": {
       "type": "Point",
       "coordinates":  [ -0.0364,51.51552963 ]
    },
    "properties": {
    "ctyua16cd":"E09000030",
    "county":"Tower Hamlets",
    "case":509
    }
  },
  {
    "type": "Feature",
    "geometry": {
       "type": "Point",
       "coordinates":  [ -0.01881,51.59460831 ]
    },
    "properties": {
    "ctyua16cd":"E09000031",
    "county":"Waltham Forest",
    "case":574
    }
  },
  {
    "type": "Feature",
    "geometry": {
       "type": "Point",
       "coordinates":  [ -0.20021001,51.45238876 ]
    },
    "properties": {
    "ctyua16cd":"E09000032",
    "county":"Wandsworth",
    "case":748
    }
  },
  {
    "type": "Feature",
    "geometry": {
       "type": "Point",
       "coordinates":  [ -0.15295,51.51221085 ]
    },
    "properties": {
    "ctyua16cd":"E09000033",
    "county":"Westminster",
    "case":499
    }
  },
  {
    "type": "Feature",
    "geometry": {
       "type": "Point",
       "coordinates":  [ -0.80568999,51.76966095 ]
    },
    "properties": {
    "ctyua16cd":"E10000002",
    "county":"Buckinghamshire",
    "case":521
    }
  },
  {
    "type": "Feature",
    "geometry": {
       "type": "Point",
       "coordinates":  [ -0.23506001,52.34965897 ]
    },
    "properties": {
    "ctyua16cd":"E10000003",
    "county":"Cambridgeshire",
    "case":408
    }
  },
  {
    "type": "Feature",
    "geometry": {
       "type": "Point",
       "coordinates":  [ -2.90217996,54.63825989 ]
    },
    "properties": {
    "ctyua16cd":"E10000006",
    "county":"Cumbria",
    "case":1278
    }
  },
  {
    "type": "Feature",
    "geometry": {
       "type": "Point",
       "coordinates":  [ -1.60210001,53.07857895 ]
    },
    "properties": {
    "ctyua16cd":"E10000007",
    "county":"Derbyshire",
    "case":777
    }
  },
  {
    "type": "Feature",
    "geometry": {
       "type": "Point",
       "coordinates":  [ -3.65701008,50.72555923 ]
    },
    "properties": {
    "ctyua16cd":"E10000008",
    "county":"Devon",
    "case":426
    }
  },
  {
    "type": "Feature",
    "geometry": {
       "type": "Point",
       "coordinates":  [ -2.41466999,50.79697037 ]
    },
    "properties": {
    "ctyua16cd":"E10000009",
    "county":"Dorset",
    "case":null
    }
  },
  {
    "type": "Feature",
    "geometry": {
       "type": "Point",
       "coordinates":  [ 0.33453,50.93832016 ]
    },
    "properties": {
    "ctyua16cd":"E10000011",
    "county":"East Sussex",
    "case":373
    }
  },
  {
    "type": "Feature",
    "geometry": {
       "type": "Point",
       "coordinates":  [ 0.54104602,51.80981827 ]
    },
    "properties": {
    "ctyua16cd":"E10000012",
    "county":"Essex",
    "case":1589
    }
  },
  {
    "type": "Feature",
    "geometry": {
       "type": "Point",
       "coordinates":  [ -2.15234995,51.81970978 ]
    },
    "properties": {
    "ctyua16cd":"E10000013",
    "county":"Gloucestershire",
    "case":737
    }
  },
  {
    "type": "Feature",
    "geometry": {
       "type": "Point",
       "coordinates":  [ -1.24735999,51.04473114 ]
    },
    "properties": {
    "ctyua16cd":"E10000014",
    "county":"Hampshire",
    "case":1802
    }
  },
  {
    "type": "Feature",
    "geometry": {
       "type": "Point",
       "coordinates":  [ -0.27699,51.8087883 ]
    },
    "properties": {
    "ctyua16cd":"E10000015",
    "county":"Hertfordshire",
    "case":1552
    }
  },
  {
    "type": "Feature",
    "geometry": {
       "type": "Point",
       "coordinates":  [ 0.72155303,51.19290161 ]
    },
    "properties": {
    "ctyua16cd":"E10000016",
    "county":"Kent",
    "case":1802
    }
  },
  {
    "type": "Feature",
    "geometry": {
       "type": "Point",
       "coordinates":  [ -2.46091008,53.86215973 ]
    },
    "properties": {
    "ctyua16cd":"E10000017",
    "county":"Lancashire",
    "case":1692
    }
  },
  {
    "type": "Feature",
    "geometry": {
       "type": "Point",
       "coordinates":  [ -1.3779,52.68778992 ]
    },
    "properties": {
    "ctyua16cd":"E10000018",
    "county":"Leicestershire",
    "case":564
    }
  },
  {
    "type": "Feature",
    "geometry": {
       "type": "Point",
       "coordinates":  [ -0.23882,53.11104965 ]
    },
    "properties": {
    "ctyua16cd":"E10000019",
    "county":"Lincolnshire",
    "case":503
    }
  },
  {
    "type": "Feature",
    "geometry": {
       "type": "Point",
       "coordinates":  [ 0.96466202,52.67110825 ]
    },
    "properties": {
    "ctyua16cd":"E10000020",
    "county":"Norfolk",
    "case":754
    }
  },
  {
    "type": "Feature",
    "geometry": {
       "type": "Point",
       "coordinates":  [ -0.86668003,52.31105042 ]
    },
    "properties": {
    "ctyua16cd":"E10000021",
    "county":"Northamptonshire",
    "case":767
    }
  },
  {
    "type": "Feature",
    "geometry": {
       "type": "Point",
       "coordinates":  [ -1.55032003,54.09371185 ]
    },
    "properties": {
    "ctyua16cd":"E10000023",
    "county":"North Yorkshire",
    "case":532
    }
  },
  {
    "type": "Feature",
    "geometry": {
       "type": "Point",
       "coordinates":  [ -1.00655997,53.12850189 ]
    },
    "properties": {
    "ctyua16cd":"E10000024",
    "county":"Nottinghamshire",
    "case":693
    }
  },
  {
    "type": "Feature",
    "geometry": {
       "type": "Point",
       "coordinates":  [ -1.29146004,51.77154922 ]
    },
    "properties": {
    "ctyua16cd":"E10000025",
    "county":"Oxfordshire",
    "case":948
    }
  },
  {
    "type": "Feature",
    "geometry": {
       "type": "Point",
       "coordinates":  [ -3.29605007,51.07186127 ]
    },
    "properties": {
    "ctyua16cd":"E10000027",
    "county":"Somerset",
    "case":233
    }
  },
  {
    "type": "Feature",
    "geometry": {
       "type": "Point",
       "coordinates":  [ -2.02756,52.90930176 ]
    },
    "properties": {
    "ctyua16cd":"E10000028",
    "county":"Staffordshire",
    "case":1008
    }
  },
  {
    "type": "Feature",
    "geometry": {
       "type": "Point",
       "coordinates":  [ 1.04914796,52.2538681 ]
    },
    "properties": {
    "ctyua16cd":"E10000029",
    "county":"Suffolk",
    "case":499
    }
  },
  {
    "type": "Feature",
    "geometry": {
       "type": "Point",
       "coordinates":  [ -0.33910999,51.26802826 ]
    },
    "properties": {
    "ctyua16cd":"E10000030",
    "county":"Surrey",
    "case":1649
    }
  },
  {
    "type": "Feature",
    "geometry": {
       "type": "Point",
       "coordinates":  [ -1.56874001,52.17977142 ]
    },
    "properties": {
    "ctyua16cd":"E10000031",
    "county":"Warwickshire",
    "case":673
    }
  },
  {
    "type": "Feature",
    "geometry": {
       "type": "Point",
       "coordinates":  [ -0.45932999,50.95133972 ]
    },
    "properties": {
    "ctyua16cd":"E10000032",
    "county":"West Sussex",
    "case":487
    }
  },
  {
    "type": "Feature",
    "geometry": {
       "type": "Point",
       "coordinates":  [ -2.20935011,52.21287155 ]
    },
    "properties": {
    "ctyua16cd":"E10000034",
    "county":"Worcestershire",
    "case":693
    }
  },
  {
    "type": "Feature",
    "geometry": {
       "type": "Point",
       "coordinates":  [ -4.32290983,53.27944946 ]
    },
    "properties": {
    "ctyua16cd":"W06000001",
    "county":"Isle of Anglesey",
    "case":null
    }
  },
  {
    "type": "Feature",
    "geometry": {
       "type": "Point",
       "coordinates":  [ -3.8155899,52.89825821 ]
    },
    "properties": {
    "ctyua16cd":"W06000002",
    "county":"Gwynedd",
    "case":null
    }
  },
  {
    "type": "Feature",
    "geometry": {
       "type": "Point",
       "coordinates":  [ -3.74645996,53.14738846 ]
    },
    "properties": {
    "ctyua16cd":"W06000003",
    "county":"Conwy",
    "case":null
    }
  },
  {
    "type": "Feature",
    "geometry": {
       "type": "Point",
       "coordinates":  [ -3.34761,53.08832932 ]
    },
    "properties": {
    "ctyua16cd":"W06000004",
    "county":"Denbighshire",
    "case":null
    }
  },
  {
    "type": "Feature",
    "geometry": {
       "type": "Point",
       "coordinates":  [ -3.17604995,53.21498108 ]
    },
    "properties": {
    "ctyua16cd":"W06000005",
    "county":"Flintshire",
    "case":null
    }
  },
  {
    "type": "Feature",
    "geometry": {
       "type": "Point",
       "coordinates":  [ -2.99202991,53.00167084 ]
    },
    "properties": {
    "ctyua16cd":"W06000006",
    "county":"Wrexham",
    "case":null
    }
  },
  {
    "type": "Feature",
    "geometry": {
       "type": "Point",
       "coordinates":  [ -3.94993997,52.29795074 ]
    },
    "properties": {
    "ctyua16cd":"W06000008",
    "county":"Ceredigion",
    "case":null
    }
  },
  {
    "type": "Feature",
    "geometry": {
       "type": "Point",
       "coordinates":  [ -4.90818024,51.85512161 ]
    },
    "properties": {
    "ctyua16cd":"W06000009",
    "county":"Pembrokeshire",
    "case":null
    }
  }
]
}