{
   "type": "FeatureCollection",
   "features": [
  {
    "type": "Feature",
    "geometry": {
       "type": "Point",
       "coordinates":  [ -1.27023005,54.67615891 ]
    },
    "properties": {
    "county":"Hartlepool",
    "case":6
    }
  },
  {
    "type": "Feature",
    "geometry": {
       "type": "Point",
       "coordinates":  [ -1.21098995,54.5446701 ]
    },
    "properties": {
    "county":"Middlesbrough",
    "case":17
    }
  },
  {
    "type": "Feature",
    "geometry": {
       "type": "Point",
       "coordinates":  [ -1.00610995,54.56752014 ]
    },
    "properties": {
    "county":"Redcar and Cleveland",
    "case":13
    }
  },
  {
    "type": "Feature",
    "geometry": {
       "type": "Point",
       "coordinates":  [ -1.30668998,54.55691147 ]
    },
    "properties": {
    "county":"Stockton-on-Tees",
    "case":24
    }
  },
  {
    "type": "Feature",
    "geometry": {
       "type": "Point",
       "coordinates":  [ -1.56834996,54.5353508 ]
    },
    "properties": {
    "county":"Darlington",
    "case":11
    }
  },
  {
    "type": "Feature",
    "geometry": {
       "type": "Point",
       "coordinates":  [ -2.68852997,53.33423996 ]
    },
    "properties": {
    "county":"Halton",
    "case":10
    }
  },
  {
    "type": "Feature",
    "geometry": {
       "type": "Point",
       "coordinates":  [ -2.56167006,53.39162827 ]
    },
    "properties": {
    "county":"Warrington",
    "case":15
    }
  },
  {
    "type": "Feature",
    "geometry": {
       "type": "Point",
       "coordinates":  [ -2.46359992,53.70080185 ]
    },
    "properties": {
    "county":"Blackburn with Darwen",
    "case":7
    }
  },
  {
    "type": "Feature",
    "geometry": {
       "type": "Point",
       "coordinates":  [ -3.02284002,53.8216095 ]
    },
    "properties": {
    "county":"Blackpool",
    "case":9
    }
  },
  {
    "type": "Feature",
    "geometry": {
       "type": "Point",
       "coordinates":  [ -0.30379999,53.76979065 ]
    },
    "properties": {
    "county":"Kingston upon Hull, City of",
    "case":5
    }
  },
  {
    "type": "Feature",
    "geometry": {
       "type": "Point",
       "coordinates":  [ -0.66202998,53.88122177 ]
    },
    "properties": {
    "county":"East Riding of Yorkshire",
    "case":23
    }
  },
  {
    "type": "Feature",
    "geometry": {
       "type": "Point",
       "coordinates":  [ -0.13926999,53.52336121 ]
    },
    "properties": {
    "county":"North East Lincolnshire",
    "case":5
    }
  },
  {
    "type": "Feature",
    "geometry": {
       "type": "Point",
       "coordinates":  [ -0.52410001,53.58644867 ]
    },
    "properties": {
    "county":"North Lincolnshire",
    "case":6
    }
  },
  {
    "type": "Feature",
    "geometry": {
       "type": "Point",
       "coordinates":  [ -1.07375002,53.96582031 ]
    },
    "properties": {
    "county":"York",
    "case":17
    }
  },
  {
    "type": "Feature",
    "geometry": {
       "type": "Point",
       "coordinates":  [ -1.47188997,52.91463852 ]
    },
    "properties": {
    "county":"Derby",
    "case":77
    }
  },
  {
    "type": "Feature",
    "geometry": {
       "type": "Point",
       "coordinates":  [ -1.13039994,52.63592148 ]
    },
    "properties": {
    "county":"Leicester",
    "case":61
    }
  },
  {
    "type": "Feature",
    "geometry": {
       "type": "Point",
       "coordinates":  [ -0.62629998,52.66764832 ]
    },
    "properties": {
    "county":"Rutland",
    "case":0
    }
  },
  {
    "type": "Feature",
    "geometry": {
       "type": "Point",
       "coordinates":  [ -1.16666996,52.9541893 ]
    },
    "properties": {
    "county":"Nottingham",
    "case":79
    }
  },
  {
    "type": "Feature",
    "geometry": {
       "type": "Point",
       "coordinates":  [ -2.73931003,52.08153915 ]
    },
    "properties": {
    "county":"Herefordshire, County of",
    "case":23
    }
  },
  {
    "type": "Feature",
    "geometry": {
       "type": "Point",
       "coordinates":  [ -2.48940992,52.71416855 ]
    },
    "properties": {
    "county":"Telford and Wrekin",
    "case":21
    }
  },
  {
    "type": "Feature",
    "geometry": {
       "type": "Point",
       "coordinates":  [ -2.15888,53.01707077 ]
    },
    "properties": {
    "county":"Stoke-on-Trent",
    "case":21
    }
  },
  {
    "type": "Feature",
    "geometry": {
       "type": "Point",
       "coordinates":  [ -2.48654008,51.35604095 ]
    },
    "properties": {
    "county":"Bath and North East Somerset",
    "case":26
    }
  },
  {
    "type": "Feature",
    "geometry": {
       "type": "Point",
       "coordinates":  [ -2.57742,51.47114944 ]
    },
    "properties": {
    "county":"Bristol, City of",
    "case":56
    }
  },
  {
    "type": "Feature",
    "geometry": {
       "type": "Point",
       "coordinates":  [ -2.75439,51.39707184 ]
    },
    "properties": {
    "county":"North Somerset",
    "case":24
    }
  },
  {
    "type": "Feature",
    "geometry": {
       "type": "Point",
       "coordinates":  [ -2.46921992,51.54671097 ]
    },
    "properties": {
    "county":"South Gloucestershire",
    "case":37
    }
  },
  {
    "type": "Feature",
    "geometry": {
       "type": "Point",
       "coordinates":  [ -4.1129899,50.40494156 ]
    },
    "properties": {
    "county":"Plymouth",
    "case":32
    }
  },
  {
    "type": "Feature",
    "geometry": {
       "type": "Point",
       "coordinates":  [ -3.5552299,50.4708786 ]
    },
    "properties": {
    "county":"Torbay",
    "case":23
    }
  },
  {
    "type": "Feature",
    "geometry": {
       "type": "Point",
       "coordinates":  [ -1.85863996,50.7448616 ]
    },
    "properties": {
    "county":"Bournemouth",
    "case":null
    }
  },
  {
    "type": "Feature",
    "geometry": {
       "type": "Point",
       "coordinates":  [ -1.95326996,50.74077988 ]
    },
    "properties": {
    "county":"Poole",
    "case":null
    }
  },
  {
    "type": "Feature",
    "geometry": {
       "type": "Point",
       "coordinates":  [ -1.73367,51.57762909 ]
    },
    "properties": {
    "county":"Swindon",
    "case":16
    }
  },
  {
    "type": "Feature",
    "geometry": {
       "type": "Point",
       "coordinates":  [ -0.26874,52.5921402 ]
    },
    "properties": {
    "county":"Peterborough",
    "case":11
    }
  },
  {
    "type": "Feature",
    "geometry": {
       "type": "Point",
       "coordinates":  [ -0.67540997,51.48033905 ]
    },
    "properties": {
    "county":"Windsor and Maidenhead",
    "case":37
    }
  },
  {
    "type": "Feature",
    "geometry": {
       "type": "Point",
       "coordinates":  [ -0.89934999,51.42295837 ]
    },
    "properties": {
    "county":"Wokingham",
    "case":22
    }
  },
  {
    "type": "Feature",
    "geometry": {
       "type": "Point",
       "coordinates":  [ -0.74070001,52.07241058 ]
    },
    "properties": {
    "county":"Milton Keynes",
    "case":58
    }
  },
  {
    "type": "Feature",
    "geometry": {
       "type": "Point",
       "coordinates":  [ -0.15079001,50.84648895 ]
    },
    "properties": {
    "county":"Brighton and Hove",
    "case":33
    }
  },
  {
    "type": "Feature",
    "geometry": {
       "type": "Point",
       "coordinates":  [ -1.07023001,50.80804825 ]
    },
    "properties": {
    "county":"Portsmouth",
    "case":50
    }
  },
  {
    "type": "Feature",
    "geometry": {
       "type": "Point",
       "coordinates":  [ -0.42319,51.89102173 ]
    },
    "properties": {
    "county":"Luton",
    "case":47
    }
  },
  {
    "type": "Feature",
    "geometry": {
       "type": "Point",
       "coordinates":  [ 0.70690602,51.54914093 ]
    },
    "properties": {
    "county":"Southend-on-Sea",
    "case":17
    }
  },
  {
    "type": "Feature",
    "geometry": {
       "type": "Point",
       "coordinates":  [ 0.33490199,51.5099411 ]
    },
    "properties": {
    "county":"Thurrock",
    "case":26
    }
  },
  {
    "type": "Feature",
    "geometry": {
       "type": "Point",
       "coordinates":  [ 0.563173,51.44770813 ]
    },
    "properties": {
    "county":"Medway",
    "case":48
    }
  },
  {
    "type": "Feature",
    "geometry": {
       "type": "Point",
       "coordinates":  [ -0.73363,51.41130066 ]
    },
    "properties": {
    "county":"Bracknell Forest",
    "case":16
    }
  },
  {
    "type": "Feature",
    "geometry": {
       "type": "Point",
       "coordinates":  [ -1.27364004,51.44559097 ]
    },
    "properties": {
    "county":"West Berkshire",
    "case":32
    }
  },
  {
    "type": "Feature",
    "geometry": {
       "type": "Point",
       "coordinates":  [ -1.40024996,50.92037964 ]
    },
    "properties": {
    "county":"Southampton",
    "case":37
    }
  },
  {
    "type": "Feature",
    "geometry": {
       "type": "Point",
       "coordinates":  [ -1.33361995,50.67129898 ]
    },
    "properties": {
    "county":"Isle of Wight",
    "case":8
    }
  },
  {
    "type": "Feature",
    "geometry": {
       "type": "Point",
       "coordinates":  [ -1.8405,54.68513107 ]
    },
    "properties": {
    "county":"County Durham",
    "case":56
    }
  },
  {
    "type": "Feature",
    "geometry": {
       "type": "Point",
       "coordinates":  [ -2.29298997,53.1679306 ]
    },
    "properties": {
    "county":"Cheshire East",
    "case":35
    }
  },
  {
    "type": "Feature",
    "geometry": {
       "type": "Point",
       "coordinates":  [ -2.70298004,53.1633606 ]
    },
    "properties": {
    "county":"Cheshire West and Chester",
    "case":25
    }
  },
  {
    "type": "Feature",
    "geometry": {
       "type": "Point",
       "coordinates":  [ -2.73667002,52.6221199 ]
    },
    "properties": {
    "county":"Shropshire",
    "case":53
    }
  },
  {
    "type": "Feature",
    "geometry": {
       "type": "Point",
       "coordinates":  [ -4.64248991,50.45022964 ]
    },
    "properties": {
    "county":"Cornwall",
    "case":48
    }
  },
  {
    "type": "Feature",
    "geometry": {
       "type": "Point",
       "coordinates":  [ -6.3021698,49.92332077 ]
    },
    "properties": {
    "county":"Isles of Scilly",
    "case":null
    }
  },
  {
    "type": "Feature",
    "geometry": {
       "type": "Point",
       "coordinates":  [ -1.92660999,51.32883072 ]
    },
    "properties": {
    "county":"Wiltshire",
    "case":54
    }
  },
  {
    "type": "Feature",
    "geometry": {
       "type": "Point",
       "coordinates":  [ -0.45462999,52.19628143 ]
    },
    "properties": {
    "county":"Bedford",
    "case":20
    }
  },
  {
    "type": "Feature",
    "geometry": {
       "type": "Point",
       "coordinates":  [ -0.47753999,51.99903107 ]
    },
    "properties": {
    "county":"Central Bedfordshire",
    "case":42
    }
  },
  {
    "type": "Feature",
    "geometry": {
       "type": "Point",
       "coordinates":  [ -2.07521009,55.30036926 ]
    },
    "properties": {
    "county":"Northumberland",
    "case":45
    }
  },
  {
    "type": "Feature",
    "geometry": {
       "type": "Point",
       "coordinates":  [ -2.47952008,53.58449173 ]
    },
    "properties": {
    "county":"Bolton",
    "case":27
    }
  },
  {
    "type": "Feature",
    "geometry": {
       "type": "Point",
       "coordinates":  [ -2.30879998,53.5931015 ]
    },
    "properties": {
    "county":"Bury",
    "case":30
    }
  },
  {
    "type": "Feature",
    "geometry": {
       "type": "Point",
       "coordinates":  [ -2.23358989,53.47008896 ]
    },
    "properties": {
    "county":"Manchester",
    "case":63
    }
  },
  {
    "type": "Feature",
    "geometry": {
       "type": "Point",
       "coordinates":  [ -2.0527401,53.55767822 ]
    },
    "properties": {
    "county":"Oldham",
    "case":51
    }
  },
  {
    "type": "Feature",
    "geometry": {
       "type": "Point",
       "coordinates":  [ -2.14784002,53.60741043 ]
    },
    "properties": {
    "county":"Rochdale",
    "case":40
    }
  },
  {
    "type": "Feature",
    "geometry": {
       "type": "Point",
       "coordinates":  [ -2.38485003,53.47927094 ]
    },
    "properties": {
    "county":"Salford",
    "case":58
    }
  },
  {
    "type": "Feature",
    "geometry": {
       "type": "Point",
       "coordinates":  [ -2.12467003,53.39115906 ]
    },
    "properties": {
    "county":"Stockport",
    "case":59
    }
  },
  {
    "type": "Feature",
    "geometry": {
       "type": "Point",
       "coordinates":  [ -2.0769999,53.47866821 ]
    },
    "properties": {
    "county":"Tameside",
    "case":43
    }
  },
  {
    "type": "Feature",
    "geometry": {
       "type": "Point",
       "coordinates":  [ -2.36572003,53.4167099 ]
    },
    "properties": {
    "county":"Trafford",
    "case":53
    }
  },
  {
    "type": "Feature",
    "geometry": {
       "type": "Point",
       "coordinates":  [ -2.57246995,53.51445007 ]
    },
    "properties": {
    "county":"Wigan",
    "case":21
    }
  },
  {
    "type": "Feature",
    "geometry": {
       "type": "Point",
       "coordinates":  [ -2.8329699,53.43788147 ]
    },
    "properties": {
    "county":"Knowsley",
    "case":15
    }
  },
  {
    "type": "Feature",
    "geometry": {
       "type": "Point",
       "coordinates":  [ -2.91364002,53.40829849 ]
    },
    "properties": {
    "county":"Liverpool",
    "case":100
    }
  },
  {
    "type": "Feature",
    "geometry": {
       "type": "Point",
       "coordinates":  [ -2.70309997,53.45861816 ]
    },
    "properties": {
    "county":"St. Helens",
    "case":32
    }
  },
  {
    "type": "Feature",
    "geometry": {
       "type": "Point",
       "coordinates":  [ -2.99203992,53.48210144 ]
    },
    "properties": {
    "county":"Sefton",
    "case":30
    }
  },
  {
    "type": "Feature",
    "geometry": {
       "type": "Point",
       "coordinates":  [ -3.06502008,53.37453842 ]
    },
    "properties": {
    "county":"Wirral",
    "case":32
    }
  },
  {
    "type": "Feature",
    "geometry": {
       "type": "Point",
       "coordinates":  [ -1.54925001,53.52576828 ]
    },
    "properties": {
    "county":"Barnsley",
    "case":42
    }
  },
  {
    "type": "Feature",
    "geometry": {
       "type": "Point",
       "coordinates":  [ -1.10894001,53.52696991 ]
    },
    "properties": {
    "county":"Doncaster",
    "case":24
    }
  },
  {
    "type": "Feature",
    "geometry": {
       "type": "Point",
       "coordinates":  [ -1.28650999,53.3955307 ]
    },
    "properties": {
    "county":"Rotherham",
    "case":39
    }
  },
  {
    "type": "Feature",
    "geometry": {
       "type": "Point",
       "coordinates":  [ -0.99071002,51.45301819 ]
    },
    "properties": {
    "county":"Reading",
    "case":25
    }
  },
  {
    "type": "Feature",
    "geometry": {
       "type": "Point",
       "coordinates":  [ -0.57617003,51.50350189 ]
    },
    "properties": {
    "county":"Slough",
    "case":59
    }
  },
  {
    "type": "Feature",
    "geometry": {
       "type": "Point",
       "coordinates":  [ -1.54253995,53.40357971 ]
    },
    "properties": {
    "county":"Sheffield",
    "case":286
    }
  },
  {
    "type": "Feature",
    "geometry": {
       "type": "Point",
       "coordinates":  [ -1.65296996,55.02101135 ]
    },
    "properties": {
    "county":"Newcastle upon Tyne",
    "case":121
    }
  },
  {
    "type": "Feature",
    "geometry": {
       "type": "Point",
       "coordinates":  [ -1.50923002,55.02896118 ]
    },
    "properties": {
    "county":"North Tyneside",
    "case":36
    }
  },
  {
    "type": "Feature",
    "geometry": {
       "type": "Point",
       "coordinates":  [ -1.44695997,54.96987915 ]
    },
    "properties": {
    "county":"South Tyneside",
    "case":19
    }
  },
  {
    "type": "Feature",
    "geometry": {
       "type": "Point",
       "coordinates":  [ -1.43343997,54.85720062 ]
    },
    "properties": {
    "county":"Sunderland",
    "case":55
    }
  },
  {
    "type": "Feature",
    "geometry": {
       "type": "Point",
       "coordinates":  [ -1.88141,52.48403931 ]
    },
    "properties": {
    "county":"Birmingham",
    "case":366
    }
  },
  {
    "type": "Feature",
    "geometry": {
       "type": "Point",
       "coordinates":  [ -1.51908004,52.41423035 ]
    },
    "properties": {
    "county":"Coventry",
    "case":47
    }
  },
  {
    "type": "Feature",
    "geometry": {
       "type": "Point",
       "coordinates":  [ -2.10171008,52.49512863 ]
    },
    "properties": {
    "county":"Dudley",
    "case":81
    }
  },
  {
    "type": "Feature",
    "geometry": {
       "type": "Point",
       "coordinates":  [ -2.00770998,52.51477051 ]
    },
    "properties": {
    "county":"Sandwell",
    "case":103
    }
  },
  {
    "type": "Feature",
    "geometry": {
       "type": "Point",
       "coordinates":  [ -1.71557999,52.43099976 ]
    },
    "properties": {
    "county":"Solihull",
    "case":39
    }
  },
  {
    "type": "Feature",
    "geometry": {
       "type": "Point",
       "coordinates":  [ -1.97044003,52.60503006 ]
    },
    "properties": {
    "county":"Walsall",
    "case":100
    }
  },
  {
    "type": "Feature",
    "geometry": {
       "type": "Point",
       "coordinates":  [ -2.12746,52.59788132 ]
    },
    "properties": {
    "county":"Wolverhampton",
    "case":128
    }
  },
  {
    "type": "Feature",
    "geometry": {
       "type": "Point",
       "coordinates":  [ -1.87389004,53.84381866 ]
    },
    "properties": {
    "county":"Bradford",
    "case":29
    }
  },
  {
    "type": "Feature",
    "geometry": {
       "type": "Point",
       "coordinates":  [ -1.96182001,53.72048187 ]
    },
    "properties": {
    "county":"Calderdale",
    "case":11
    }
  },
  {
    "type": "Feature",
    "geometry": {
       "type": "Point",
       "coordinates":  [ -1.78085005,53.64233017 ]
    },
    "properties": {
    "county":"Kirklees",
    "case":33
    }
  },
  {
    "type": "Feature",
    "geometry": {
       "type": "Point",
       "coordinates":  [ -1.50735998,53.82273102 ]
    },
    "properties": {
    "county":"Leeds",
    "case":80
    }
  },
  {
    "type": "Feature",
    "geometry": {
       "type": "Point",
       "coordinates":  [ -1.42092001,53.65922165 ]
    },
    "properties": {
    "county":"Wakefield",
    "case":34
    }
  },
  {
    "type": "Feature",
    "geometry": {
       "type": "Point",
       "coordinates":  [ -1.6868,54.93119812 ]
    },
    "properties": {
    "county":"Gateshead",
    "case":23
    }
  },
  {
    "type": "Feature",
    "geometry": {
       "type": "Point",
       "coordinates":  [ -0.09351,51.51564026 ]
    },
    "properties": {
    "county":"City of London",
    "case":null
    }
  },
  {
    "type": "Feature",
    "geometry": {
       "type": "Point",
       "coordinates":  [ 0.12950601,51.54552078 ]
    },
    "properties": {
    "county":"Barking and Dagenham",
    "case":82
    }
  },
  {
    "type": "Feature",
    "geometry": {
       "type": "Point",
       "coordinates":  [ -0.21821,51.61108017 ]
    },
    "properties": {
    "county":"Barnet",
    "case":115
    }
  },
  {
    "type": "Feature",
    "geometry": {
       "type": "Point",
       "coordinates":  [ 0.146212,51.45820999 ]
    },
    "properties": {
    "county":"Bexley",
    "case":85
    }
  },
  {
    "type": "Feature",
    "geometry": {
       "type": "Point",
       "coordinates":  [ 0.050108,51.46395874 ]
    },
    "properties": {
    "county":"Greenwich",
    "case":128
    }
  },
  {
    "type": "Feature",
    "geometry": {
       "type": "Point",
       "coordinates":  [ -0.27568001,51.56441116 ]
    },
    "properties": {
    "county":"Brent",
    "case":265
    }
  },
  {
    "type": "Feature",
    "geometry": {
       "type": "Point",
       "coordinates":  [ 0.039246,51.37266922 ]
    },
    "properties": {
    "county":"Bromley",
    "case":188
    }
  },
  {
    "type": "Feature",
    "geometry": {
       "type": "Point",
       "coordinates":  [ -0.16289,51.5430603 ]
    },
    "properties": {
    "county":"Camden",
    "case":99
    }
  },
  {
    "type": "Feature",
    "geometry": {
       "type": "Point",
       "coordinates":  [ -0.07761,51.36597824 ]
    },
    "properties": {
    "county":"Croydon",
    "case":219
    }
  },
  {
    "type": "Feature",
    "geometry": {
       "type": "Point",
       "coordinates":  [ -0.31406999,51.52442932 ]
    },
    "properties": {
    "county":"Ealing",
    "case":209
    }
  },
  {
    "type": "Feature",
    "geometry": {
       "type": "Point",
       "coordinates":  [ -4.2111001,51.89495087 ]
    },
    "properties": {
    "county":"Carmarthenshire",
    "case":null
    }
  },
  {
    "type": "Feature",
    "geometry": {
       "type": "Point",
       "coordinates":  [ -3.96723008,51.65805817 ]
    },
    "properties": {
    "county":"Swansea",
    "case":null
    }
  },
  {
    "type": "Feature",
    "geometry": {
       "type": "Point",
       "coordinates":  [ -3.74638009,51.64450073 ]
    },
    "properties": {
    "county":"Neath Port Talbot",
    "case":null
    }
  },
  {
    "type": "Feature",
    "geometry": {
       "type": "Point",
       "coordinates":  [ -3.61359,51.56058121 ]
    },
    "properties": {
    "county":"Bridgend",
    "case":null
    }
  },
  {
    "type": "Feature",
    "geometry": {
       "type": "Point",
       "coordinates":  [ -3.39803004,51.44837952 ]
    },
    "properties": {
    "county":"Vale of Glamorgan",
    "case":null
    }
  },
  {
    "type": "Feature",
    "geometry": {
       "type": "Point",
       "coordinates":  [ -3.22212005,51.50254059 ]
    },
    "properties": {
    "county":"Cardiff",
    "case":null
    }
  },
  {
    "type": "Feature",
    "geometry": {
       "type": "Point",
       "coordinates":  [ -3.41358995,51.62184906 ]
    },
    "properties": {
    "county":"Rhondda Cynon Taf",
    "case":null
    }
  },
  {
    "type": "Feature",
    "geometry": {
       "type": "Point",
       "coordinates":  [ -3.19753003,51.65000916 ]
    },
    "properties": {
    "county":"Caerphilly",
    "case":null
    }
  },
  {
    "type": "Feature",
    "geometry": {
       "type": "Point",
       "coordinates":  [ -3.18592,51.75363922 ]
    },
    "properties": {
    "county":"Blaenau Gwent",
    "case":null
    }
  },
  {
    "type": "Feature",
    "geometry": {
       "type": "Point",
       "coordinates":  [ -3.05100989,51.69836044 ]
    },
    "properties": {
    "county":"Torfaen",
    "case":null
    }
  },
  {
    "type": "Feature",
    "geometry": {
       "type": "Point",
       "coordinates":  [ -2.90280008,51.77827072 ]
    },
    "properties": {
    "county":"Monmouthshire",
    "case":null
    }
  },
  {
    "type": "Feature",
    "geometry": {
       "type": "Point",
       "coordinates":  [ -2.89769006,51.58232117 ]
    },
    "properties": {
    "county":"Newport",
    "case":null
    }
  },
  {
    "type": "Feature",
    "geometry": {
       "type": "Point",
       "coordinates":  [ -3.43532991,52.348629 ]
    },
    "properties": {
    "county":"Powys",
    "case":null
    }
  },
  {
    "type": "Feature",
    "geometry": {
       "type": "Point",
       "coordinates":  [ -3.36424994,51.74858093 ]
    },
    "properties": {
    "county":"Merthyr Tydfil",
    "case":null
    }
  },
  {
    "type": "Feature",
    "geometry": {
       "type": "Point",
       "coordinates":  [ -0.08147,51.64888 ]
    },
    "properties": {
    "county":"Enfield",
    "case":136
    }
  },
  {
    "type": "Feature",
    "geometry": {
       "type": "Point",
       "coordinates":  [ -0.06045,51.5549202 ]
    },
    "properties": {
    "county":"Hackney",
    "case":134
    }
  },
  {
    "type": "Feature",
    "geometry": {
       "type": "Point",
       "coordinates":  [ -0.21736,51.48736954 ]
    },
    "properties": {
    "county":"Hammersmith and Fulham",
    "case":112
    }
  },
  {
    "type": "Feature",
    "geometry": {
       "type": "Point",
       "coordinates":  [ -0.10667,51.58771133 ]
    },
    "properties": {
    "county":"Haringey",
    "case":113
    }
  },
  {
    "type": "Feature",
    "geometry": {
       "type": "Point",
       "coordinates":  [ -0.33603001,51.59466934 ]
    },
    "properties": {
    "county":"Harrow",
    "case":196
    }
  },
  {
    "type": "Feature",
    "geometry": {
       "type": "Point",
       "coordinates":  [ 0.235368,51.56518936 ]
    },
    "properties": {
    "county":"Havering",
    "case":82
    }
  },
  {
    "type": "Feature",
    "geometry": {
       "type": "Point",
       "coordinates":  [ -0.44182,51.53662872 ]
    },
    "properties": {
    "county":"Hillingdon",
    "case":129
    }
  },
  {
    "type": "Feature",
    "geometry": {
       "type": "Point",
       "coordinates":  [ -0.37843999,51.46242905 ]
    },
    "properties": {
    "county":"Hounslow",
    "case":126
    }
  },
  {
    "type": "Feature",
    "geometry": {
       "type": "Point",
       "coordinates":  [ -0.10992,51.54547882 ]
    },
    "properties": {
    "county":"Islington",
    "case":120
    }
  },
  {
    "type": "Feature",
    "geometry": {
       "type": "Point",
       "coordinates":  [ -0.18976,51.49644089 ]
    },
    "properties": {
    "county":"Kensington and Chelsea",
    "case":116
    }
  },
  {
    "type": "Feature",
    "geometry": {
       "type": "Point",
       "coordinates":  [ -0.28367001,51.39295959 ]
    },
    "properties": {
    "county":"Kingston upon Thames",
    "case":52
    }
  },
  {
    "type": "Feature",
    "geometry": {
       "type": "Point",
       "coordinates":  [ -0.11385,51.46442032 ]
    },
    "properties": {
    "county":"Lambeth",
    "case":276
    }
  },
  {
    "type": "Feature",
    "geometry": {
       "type": "Point",
       "coordinates":  [ -0.01733,51.44231033 ]
    },
    "properties": {
    "county":"Lewisham",
    "case":158
    }
  },
  {
    "type": "Feature",
    "geometry": {
       "type": "Point",
       "coordinates":  [ -0.18866999,51.41056824 ]
    },
    "properties": {
    "county":"Merton",
    "case":128
    }
  },
  {
    "type": "Feature",
    "geometry": {
       "type": "Point",
       "coordinates":  [ 0.027369,51.53131866 ]
    },
    "properties": {
    "county":"Newham",
    "case":148
    }
  },
  {
    "type": "Feature",
    "geometry": {
       "type": "Point",
       "coordinates":  [ 0.070085,51.58589172 ]
    },
    "properties": {
    "county":"Redbridge",
    "case":115
    }
  },
  {
    "type": "Feature",
    "geometry": {
       "type": "Point",
       "coordinates":  [ -0.28913999,51.44033051 ]
    },
    "properties": {
    "county":"Richmond upon Thames",
    "case":68
    }
  },
  {
    "type": "Feature",
    "geometry": {
       "type": "Point",
       "coordinates":  [ -0.07309,51.46588898 ]
    },
    "properties": {
    "county":"Southwark",
    "case":290
    }
  },
  {
    "type": "Feature",
    "geometry": {
       "type": "Point",
       "coordinates":  [ -0.17227,51.3575592 ]
    },
    "properties": {
    "county":"Sutton",
    "case":69
    }
  },
  {
    "type": "Feature",
    "geometry": {
       "type": "Point",
       "coordinates":  [ -0.0364,51.51552963 ]
    },
    "properties": {
    "county":"Tower Hamlets",
    "case":129
    }
  },
  {
    "type": "Feature",
    "geometry": {
       "type": "Point",
       "coordinates":  [ -0.01881,51.59460831 ]
    },
    "properties": {
    "county":"Waltham Forest",
    "case":130
    }
  },
  {
    "type": "Feature",
    "geometry": {
       "type": "Point",
       "coordinates":  [ -0.20021001,51.45238876 ]
    },
    "properties": {
    "county":"Wandsworth",
    "case":228
    }
  },
  {
    "type": "Feature",
    "geometry": {
       "type": "Point",
       "coordinates":  [ -0.15295,51.51221085 ]
    },
    "properties": {
    "county":"Westminster",
    "case":189
    }
  },
  {
    "type": "Feature",
    "geometry": {
       "type": "Point",
       "coordinates":  [ -0.80568999,51.76966095 ]
    },
    "properties": {
    "county":"Buckinghamshire",
    "case":106
    }
  },
  {
    "type": "Feature",
    "geometry": {
       "type": "Point",
       "coordinates":  [ -0.23506001,52.34965897 ]
    },
    "properties": {
    "county":"Cambridgeshire",
    "case":68
    }
  },
  {
    "type": "Feature",
    "geometry": {
       "type": "Point",
       "coordinates":  [ -2.90217996,54.63825989 ]
    },
    "properties": {
    "county":"Cumbria",
    "case":211
    }
  },
  {
    "type": "Feature",
    "geometry": {
       "type": "Point",
       "coordinates":  [ -1.60210001,53.07857895 ]
    },
    "properties": {
    "county":"Derbyshire",
    "case":170
    }
  },
  {
    "type": "Feature",
    "geometry": {
       "type": "Point",
       "coordinates":  [ -3.65701008,50.72555923 ]
    },
    "properties": {
    "county":"Devon",
    "case":65
    }
  },
  {
    "type": "Feature",
    "geometry": {
       "type": "Point",
       "coordinates":  [ -2.41466999,50.79697037 ]
    },
    "properties": {
    "county":"Dorset",
    "case":null
    }
  },
  {
    "type": "Feature",
    "geometry": {
       "type": "Point",
       "coordinates":  [ 0.33453,50.93832016 ]
    },
    "properties": {
    "county":"East Sussex",
    "case":39
    }
  },
  {
    "type": "Feature",
    "geometry": {
       "type": "Point",
       "coordinates":  [ 0.54104602,51.80981827 ]
    },
    "properties": {
    "county":"Essex",
    "case":166
    }
  },
  {
    "type": "Feature",
    "geometry": {
       "type": "Point",
       "coordinates":  [ -2.15234995,51.81970978 ]
    },
    "properties": {
    "county":"Gloucestershire",
    "case":78
    }
  },
  {
    "type": "Feature",
    "geometry": {
       "type": "Point",
       "coordinates":  [ -1.24735999,51.04473114 ]
    },
    "properties": {
    "county":"Hampshire",
    "case":317
    }
  },
  {
    "type": "Feature",
    "geometry": {
       "type": "Point",
       "coordinates":  [ -0.27699,51.8087883 ]
    },
    "properties": {
    "county":"Hertfordshire",
    "case":206
    }
  },
  {
    "type": "Feature",
    "geometry": {
       "type": "Point",
       "coordinates":  [ 0.72155303,51.19290161 ]
    },
    "properties": {
    "county":"Kent",
    "case":182
    }
  },
  {
    "type": "Feature",
    "geometry": {
       "type": "Point",
       "coordinates":  [ -2.46091008,53.86215973 ]
    },
    "properties": {
    "county":"Lancashire",
    "case":141
    }
  },
  {
    "type": "Feature",
    "geometry": {
       "type": "Point",
       "coordinates":  [ -1.3779,52.68778992 ]
    },
    "properties": {
    "county":"Leicestershire",
    "case":128
    }
  },
  {
    "type": "Feature",
    "geometry": {
       "type": "Point",
       "coordinates":  [ -0.23882,53.11104965 ]
    },
    "properties": {
    "county":"Lincolnshire",
    "case":39
    }
  },
  {
    "type": "Feature",
    "geometry": {
       "type": "Point",
       "coordinates":  [ 0.96466202,52.67110825 ]
    },
    "properties": {
    "county":"Norfolk",
    "case":70
    }
  },
  {
    "type": "Feature",
    "geometry": {
       "type": "Point",
       "coordinates":  [ -0.86668003,52.31105042 ]
    },
    "properties": {
    "county":"Northamptonshire",
    "case":86
    }
  },
  {
    "type": "Feature",
    "geometry": {
       "type": "Point",
       "coordinates":  [ -1.55032003,54.09371185 ]
    },
    "properties": {
    "county":"North Yorkshire",
    "case":69
    }
  },
  {
    "type": "Feature",
    "geometry": {
       "type": "Point",
       "coordinates":  [ -1.00655997,53.12850189 ]
    },
    "properties": {
    "county":"Nottinghamshire",
    "case":135
    }
  },
  {
    "type": "Feature",
    "geometry": {
       "type": "Point",
       "coordinates":  [ -1.29146004,51.77154922 ]
    },
    "properties": {
    "county":"Oxfordshire",
    "case":113
    }
  },
  {
    "type": "Feature",
    "geometry": {
       "type": "Point",
       "coordinates":  [ -3.29605007,51.07186127 ]
    },
    "properties": {
    "county":"Somerset",
    "case":25
    }
  },
  {
    "type": "Feature",
    "geometry": {
       "type": "Point",
       "coordinates":  [ -2.02756,52.90930176 ]
    },
    "properties": {
    "county":"Staffordshire",
    "case":145
    }
  },
  {
    "type": "Feature",
    "geometry": {
       "type": "Point",
       "coordinates":  [ 1.04914796,52.2538681 ]
    },
    "properties": {
    "county":"Suffolk",
    "case":61
    }
  },
  {
    "type": "Feature",
    "geometry": {
       "type": "Point",
       "coordinates":  [ -0.33910999,51.26802826 ]
    },
    "properties": {
    "county":"Surrey",
    "case":271
    }
  },
  {
    "type": "Feature",
    "geometry": {
       "type": "Point",
       "coordinates":  [ -1.56874001,52.17977142 ]
    },
    "properties": {
    "county":"Warwickshire",
    "case":101
    }
  },
  {
    "type": "Feature",
    "geometry": {
       "type": "Point",
       "coordinates":  [ -0.45932999,50.95133972 ]
    },
    "properties": {
    "county":"West Sussex",
    "case":86
    }
  },
  {
    "type": "Feature",
    "geometry": {
       "type": "Point",
       "coordinates":  [ -2.20935011,52.21287155 ]
    },
    "properties": {
    "county":"Worcestershire",
    "case":93
    }
  },
  {
    "type": "Feature",
    "geometry": {
       "type": "Point",
       "coordinates":  [ -4.32290983,53.27944946 ]
    },
    "properties": {
    "county":"Isle of Anglesey",
    "case":null
    }
  },
  {
    "type": "Feature",
    "geometry": {
       "type": "Point",
       "coordinates":  [ -3.8155899,52.89825821 ]
    },
    "properties": {
    "county":"Gwynedd",
    "case":null
    }
  },
  {
    "type": "Feature",
    "geometry": {
       "type": "Point",
       "coordinates":  [ -3.74645996,53.14738846 ]
    },
    "properties": {
    "county":"Conwy",
    "case":null
    }
  },
  {
    "type": "Feature",
    "geometry": {
       "type": "Point",
       "coordinates":  [ -3.34761,53.08832932 ]
    },
    "properties": {
    "county":"Denbighshire",
    "case":null
    }
  },
  {
    "type": "Feature",
    "geometry": {
       "type": "Point",
       "coordinates":  [ -3.17604995,53.21498108 ]
    },
    "properties": {
    "county":"Flintshire",
    "case":null
    }
  },
  {
    "type": "Feature",
    "geometry": {
       "type": "Point",
       "coordinates":  [ -2.99202991,53.00167084 ]
    },
    "properties": {
    "county":"Wrexham",
    "case":null
    }
  },
  {
    "type": "Feature",
    "geometry": {
       "type": "Point",
       "coordinates":  [ -3.94993997,52.29795074 ]
    },
    "properties": {
    "county":"Ceredigion",
    "case":null
    }
  },
  {
    "type": "Feature",
    "geometry": {
       "type": "Point",
       "coordinates":  [ -4.90818024,51.85512161 ]
    },
    "properties": {
    "county":"Pembrokeshire",
    "case":null
    }
  }
]
}