state,county,FIPS,lat,lon,case
AL,Autauga,1001,32.5349,-86.6428,
AL,Baldwin,1003,30.7278,-87.7171,2
AL,Barbour,1005,31.8696,-85.3932,
AL,Bibb,1007,32.9986,-87.1264,
AL,Blount,1009,33.9809,-86.5674,
AL,Bullock,1011,32.1005,-85.7161,
AL,Butler,1013,31.7524,-86.6803,
AL,Calhoun,1015,33.7714,-85.8261,1
AL,Chambers,1017,32.9144,-85.392,1
AL,Cherokee,1019,34.176,-85.6038,
AL,Chilton,1021,32.8479,-86.7188,
AL,Choctaw,1023,32.0192,-88.2628,
AL,Clarke,1025,31.6709,-87.8309,
AL,Clay,1027,33.2691,-85.8605,
AL,Cleburne,1029,33.6745,-85.5188,
AL,Coffee,1031,31.4026,-85.9882,
AL,Colbert,1033,34.7004,-87.8049,
AL,Conecuh,1035,31.4293,-86.9936,
AL,Coosa,1037,32.9362,-86.2476,
AL,Covington,1039,31.2485,-86.4512,
AL,Crenshaw,1041,31.7315,-86.3136,
AL,Cullman,1043,34.132,-86.8676,2
AL,Dale,1045,31.4318,-85.611,
AL,Dallas,1047,32.3258,-87.1065,
AL,DeKalb,1049,34.4598,-85.8041,
AL,Elmore,1051,32.5966,-86.1492,6
AL,Escambia,1053,31.1262,-87.1616,
AL,Etowah,1055,34.0453,-86.0348,
AL,Fayette,1057,33.7212,-87.7388,
AL,Franklin,1059,34.4417,-87.8438,
AL,Geneva,1061,31.095,-85.839,
AL,Greene,1063,32.8531,-87.9522,
AL,Hale,1065,32.7627,-87.6291,
AL,Henry,1067,31.5147,-85.2414,
AL,Houston,1069,31.1532,-85.3025,
AL,Jackson,1071,34.7794,-85.9993,1
AL,Jefferson,1073,33.5543,-86.8965,61
AL,Lamar,1075,33.7792,-88.0969,1
AL,Lauderdale,1077,34.9015,-87.6543,2
AL,Lawrence,1079,34.522,-87.311,
AL,Lee,1081,32.6012,-85.3556,12
AL,Limestone,1083,34.8101,-86.9813,1
AL,Lowndes,1085,32.1548,-86.6501,
AL,Macon,1087,32.386,-85.6926,
AL,Madison,1089,34.7631,-86.5502,9
AL,Marengo,1091,32.2476,-87.7895,
AL,Marion,1093,34.1366,-87.8871,1
AL,Marshall,1095,34.3669,-86.3066,
AL,Mobile,1097,30.7943,-88.2018,2
AL,Monroe,1099,31.5706,-87.3658,
AL,Montgomery,1101,32.2202,-86.2076,3
AL,Morgan,1103,34.4535,-86.8529,
AL,Perry,1105,32.6385,-87.2942,
AL,Pickens,1107,33.2809,-88.0887,
AL,Pike,1109,31.8024,-85.9409,
AL,Randolph,1111,33.2938,-85.4591,
AL,Russell,1113,32.2884,-85.1849,
AL,St. Clair,1115,33.7157,-86.3147,1
AL,Shelby,1117,33.2643,-86.6607,16
AL,Sumter,1119,32.591,-88.1988,
AL,Talladega,1121,33.38,-86.1659,1
AL,Tallapoosa,1123,32.8624,-85.7975,
AL,Tuscaloosa,1125,33.2896,-87.525,6
AL,Walker,1127,33.8034,-87.2973,1
AL,Washington,1129,31.4077,-88.2071,1
AL,Wilcox,1131,31.9892,-87.3082,
AL,Winston,1133,34.1492,-87.3737,
AK,Aleutians East,2013,55.4039,-161.863,
AK,Aleutians West,2016,52.8883,-111.1392,
AK,Anchorage,2020,61.1501,-149.1067,4
AK,Bethel,2050,60.9126,-159.7207,
AK,Bristol Bay,2060,58.7423,-156.7013,
AK,Denali,2068,63.6734,-150.0089,
AK,Dillingham,2070,59.8021,-158.2119,
AK,Fairbanks North Star,2090,64.8084,-146.563,3
AK,Haines,2100,59.1216,-135.5056,
AK,Hoonah-Angoon,2105,58.1896,-135.3203,
AK,Juneau,2110,58.4596,-134.1803,
AK,Kenai Peninsula,2122,60.2619,-151.5667,
AK,Ketchikan Gateway,2130,55.5941,-130.9276,1
AK,Kodiak Island,2150,57.6779,-153.8059,
AK,Kusilvak,2158,62.1265,-163.348,
AK,Lake and Peninsula,2164,58.6478,-156.1833,
AK,Matanuska-Susitna,2170,62.316,-149.5701,
AK,Nome,2180,64.8981,-163.9674,
AK,North Slope,2185,69.3084,-153.4401,
AK,Northwest Arctic,2188,67.0642,-159.7054,
AK,Petersburg Census Area,2195,56.8226,-133.2557,
AK,Prince of Wales-Hyder,2198,55.5105,-132.6964,
AK,Sitka,2220,57.2356,-135.3008,
AK,Skagway,2230,59.5602,-135.3379,
AK,Southeast Fairbanks,2240,63.8771,-143.2062,
AK,Valdez-Cordova,2261,61.5735,-144.4625,
AK,Wrangell,2275,56.3281,-132.0028,
AK,Yakutat,2282,59.9,-140.3977,
AK,Yukon-Koyukuk,2290,65.5095,-151.3894,
AZ,Apache,4001,35.3957,-109.4888,3
AZ,Cochise,4003,31.8796,-109.7511,
AZ,Coconino,4005,35.8387,-111.7705,11
AZ,Gila,4007,33.7997,-110.8117,
AZ,Graham,4009,32.9327,-109.8874,1
AZ,Greenlee,4011,33.2153,-109.2401,
AZ,La Paz,4012,33.7292,-113.9813,
AZ,Maricopa,4013,33.3488,-112.4912,49
AZ,Mohave,4015,35.7044,-113.7582,
AZ,Navajo,4017,35.3996,-110.3214,10
AZ,Pima,4019,32.0974,-111.7899,12
AZ,Pinal,4021,32.9043,-111.3447,14
AZ,Santa Cruz,4023,31.526,-110.8466,
AZ,Yavapai,4025,34.5999,-112.5538,1
AZ,Yuma,4027,32.7694,-113.9056,1
AR,Arkansas,5001,34.2908,-91.3749,
AR,Ashley,5003,33.1912,-91.7679,
AR,Baxter,5005,36.2872,-92.337,
AR,Benton,5007,36.3392,-94.2573,1
AR,Boone,5009,36.3086,-93.0915,1
AR,Bradley,5011,33.4659,-92.1623,1
AR,Calhoun,5013,33.558,-92.5031,
AR,Carroll,5015,36.341,-93.5382,
AR,Chicot,5017,33.2672,-91.294,
AR,Clark,5019,34.051,-93.1764,1
AR,Clay,5021,36.3685,-90.4173,
AR,Cleburne,5023,35.5381,-92.0267,22
AR,Cleveland,5025,33.8983,-92.1852,1
AR,Columbia,5027,33.2143,-93.2274,
AR,Conway,5029,35.2622,-92.7014,
AR,Craighead,5031,35.8308,-90.6328,1
AR,Crawford,5033,35.5889,-94.243,
AR,Crittenden,5035,35.2079,-90.3089,1
AR,Cross,5037,35.2958,-90.7713,
AR,Dallas,5039,33.9698,-92.6545,
AR,Desha,5041,33.8333,-91.254,1
AR,Drew,5043,33.5895,-91.72,
AR,Faulkner,5045,35.147,-92.332,1
AR,Franklin,5047,35.5123,-93.8906,
AR,Fulton,5049,36.3817,-91.8183,
AR,Garland,5051,34.5767,-93.1504,6
AR,Grant,5053,34.29,-92.4236,1
AR,Greene,5055,36.1177,-90.5591,1
AR,Hempstead,5057,33.7354,-93.6684,
AR,Hot Spring,5059,34.3177,-92.946,
AR,Howard,5061,34.0887,-93.9935,
AR,Independence,5063,35.7415,-91.5698,1
AR,Izard,5065,36.0949,-91.9134,
AR,Jackson,5067,35.5994,-91.2146,
AR,Jefferson,5069,34.2688,-91.9315,19
AR,Johnson,5071,35.5701,-93.4599,
AR,Lafayette,5073,33.2408,-93.6073,
AR,Lawrence,5075,36.0413,-91.1071,
AR,Lee,5077,34.7807,-90.782,
AR,Lincoln,5079,33.9575,-91.7333,1
AR,Little River,5081,33.7005,-94.2343,
AR,Logan,5083,35.2153,-93.7163,
AR,Lonoke,5085,34.7542,-91.8887,
AR,Madison,5087,36.011,-93.7246,
AR,Marion,5089,36.2684,-92.6842,
AR,Miller,5091,33.3124,-93.8918,
AR,Mississippi,5093,35.7639,-90.054,
AR,Monroe,5095,34.6778,-91.2038,
AR,Montgomery,5097,34.5388,-93.6595,
AR,Nevada,5099,33.664,-93.3072,
AR,Newton,5101,35.92,-93.2179,
AR,Ouachita,5103,33.5933,-92.882,
AR,Perry,5105,34.9474,-92.9315,
AR,Phillips,5107,34.4283,-90.848,
AR,Pike,5109,34.1636,-93.6564,
AR,Poinsett,5111,35.574,-90.6629,1
AR,Polk,5113,34.4858,-94.2281,1
AR,Pope,5115,35.4476,-93.0342,1
AR,Prairie,5117,34.8297,-91.5528,
AR,Pulaski,5119,34.7699,-92.3117,28
AR,Randolph,5121,36.3415,-91.0278,
AR,St. Francis,5123,35.022,-90.7478,
AR,Saline,5125,34.6466,-92.6766,1
AR,Scott,5127,34.8608,-94.0633,
AR,Searcy,5129,35.9109,-92.6995,1
AR,Sebastian,5131,35.1993,-94.274,1
AR,Sevier,5133,33.9973,-94.2412,1
AR,Sharp,5135,36.1611,-91.4799,
AR,Stone,5137,35.8599,-92.1567,
AR,Union,5139,33.1713,-92.5973,
AR,Van Buren,5141,35.5807,-92.5157,1
AR,Washington,5143,35.98,-94.2147,1
AR,White,5145,35.2563,-91.7457,
AR,Woodruff,5147,35.1863,-91.2432,
AR,Yell,5149,35.0026,-93.4113,
CA,Alameda,6001,37.6466,-121.886,65
CA,Alpine,6003,38.5973,-119.8207,
CA,Amador,6005,38.4461,-120.6519,2
CA,Butte,6007,39.6669,-121.6007,1
CA,Calaveras,6009,38.2046,-120.5541,2
CA,Colusa,6011,39.1775,-122.237,
CA,Contra Costa,6013,37.9163,-121.9276,51
CA,Del Norte,6015,41.7431,-123.897,
CA,El Dorado,6017,38.7785,-120.5247,1
CA,Fresno,6019,36.7584,-119.6503,6
CA,Glenn,6021,39.5984,-122.3922,
CA,Humboldt,6023,40.6984,-123.8735,1
CA,Imperial,6025,33.0395,-115.3653,6
CA,Inyo,6027,36.5111,-117.4107,
CA,Kern,6029,35.3429,-118.7298,5
CA,Kings,6031,36.0753,-119.8156,
CA,Lake,6033,39.0997,-122.7532,
CA,Lassen,6035,40.6736,-120.5943,
CA,Los Angeles,6037,34.3203,-118.2252,351
CA,Madera,6039,37.218,-119.7626,2
CA,Marin,6041,38.0725,-122.7185,38
CA,Mariposa,6043,37.5815,-119.9055,
CA,Mendocino,6045,39.44,-123.3912,1
CA,Merced,6047,37.1926,-120.718,
CA,Modoc,6049,41.5899,-120.725,
CA,Mono,6051,37.939,-118.8867,1
CA,Monterey,6053,36.2169,-121.2389,5
CA,Napa,6055,38.5066,-122.3305,0
CA,Nevada,6057,39.3014,-120.7683,1
CA,Orange,6059,33.703,-117.7605,78
CA,Placer,6061,39.0635,-120.7176,12
CA,Plumas,6063,40.0047,-120.8386,
CA,Riverside,6065,33.7437,-115.9939,30
CA,Sacramento,6067,38.4542,-121.3384,53
CA,San Benito,6069,36.6057,-121.075,5
CA,San Bernardino,6071,34.8415,-116.1784,10
CA,San Diego,6073,33.0354,-116.7335,148
CA,San Francisco,6075,37.7558,-122.4424,84
CA,San Joaquin,6077,37.9345,-121.272,31
CA,San Luis Obispo,6079,35.3872,-120.404,21
CA,San Mateo,6081,37.4218,-122.3293,110
CA,Santa Barbara,6083,32.8,-118.4266,13
CA,Santa Barbara,6083,32.8019,-118.4318,13
CA,Santa Barbara,6083,32.8037,-118.4308,13
CA,Santa Barbara,6083,32.819,-118.3687,13
CA,Santa Barbara,6083,34.6731,-120.0165,13
CA,Santa Barbara,6083,34.5761,-120.6519,13
CA,Santa Barbara,6083,34.6028,-120.6455,13
CA,Santa Barbara,6083,34.7556,-120.6399,13
CA,Santa Barbara,6083,34.8992,-120.6661,13
CA,Santa Clara,6085,37.2325,-121.6963,263
CA,Santa Cruz,6087,37.0563,-122.0018,15
CA,Shasta,6089,40.7638,-122.0405,1
CA,Sierra,6091,39.5804,-120.516,
CA,Siskiyou,6093,41.5927,-122.5404,2
CA,Solano,6095,38.2805,-121.9266,14
CA,Sonoma,6097,38.5286,-122.8873,23
CA,Stanislaus,6099,37.5592,-120.9978,5
CA,Sutter,6101,39.0345,-121.6949,
CA,Tehama,6103,40.1257,-122.2339,
CA,Trinity,6105,40.6507,-123.1126,
CA,Tulare,6107,36.2201,-118.8005,12
CA,Tuolumne,6109,38.0276,-119.9548,
CA,Ventura,6111,34.4567,-119.0835,26
CA,Yolo,6113,38.6867,-121.9016,6
CA,Yuba,6115,39.2691,-121.3512,2
CO,Adams,8001,39.8736,-104.3379,14
CO,Alamosa,8003,37.5729,-105.7883,
CO,Arapahoe,8005,39.6497,-104.3381,40
CO,Archuleta,8007,37.1936,-107.0483,
CO,Baca,8009,37.3192,-102.5605,
CO,Bent,8011,37.9551,-103.0717,
CO,Boulder,8013,40.0925,-105.3575,30
CO,Broomfield,8014,39.954,-105.0525,1
CO,Chaffee,8015,38.7466,-106.1938,2
CO,Cheyenne,8017,38.8279,-102.6034,
CO,Clear Creek,8019,39.6891,-105.6444,3
CO,Conejos,8021,37.2007,-106.1917,
CO,Costilla,8023,37.2781,-105.4283,
CO,Crowley,8025,38.3266,-103.7849,1
CO,Custer,8027,38.1087,-105.3674,
CO,Delta,8029,38.8613,-107.863,
CO,Denver,8031,39.7611,-104.8772,97
CO,Dolores,8033,37.7516,-108.5172,
CO,Douglas,8035,39.3297,-104.9295,27
CO,Eagle,8037,39.6278,-106.6953,74
CO,Elbert,8039,39.2866,-104.1359,3
CO,El Paso,8041,38.8321,-104.5256,37
CO,Fremont,8043,38.473,-105.4396,
CO,Garfield,8045,39.5993,-107.9039,7
CO,Gilpin,8047,39.8576,-105.5226,
CO,Grand,8049,40.1026,-106.1184,2
CO,Gunnison,8051,38.6668,-107.0317,18
CO,Hinsdale,8053,37.8213,-107.3003,1
CO,Huerfano,8055,37.6847,-104.9606,
CO,Jackson,8057,40.6664,-106.3428,
CO,Jefferson,8059,39.5865,-105.2506,43
CO,Kiowa,8061,38.4327,-102.7404,
CO,Kit Carson,8063,39.3054,-102.6029,
CO,Lake,8065,39.202,-106.3451,
CO,La Plata,8067,37.2866,-107.8435,
CO,Larimer,8069,40.6664,-105.4612,19
CO,Las Animas,8071,37.3159,-104.0387,
CO,Lincoln,8073,38.988,-103.514,
CO,Logan,8075,40.7247,-103.1101,
CO,Mesa,8077,39.0183,-108.4665,1
CO,Mineral,8079,37.669,-106.9241,
CO,Moffat,8081,40.6184,-108.2073,
CO,Montezuma,8083,37.3384,-108.5968,
CO,Montrose,8085,38.4022,-108.2694,1
CO,Morgan,8087,40.2627,-103.8098,2
CO,Otero,8089,37.9027,-103.7164,
CO,Ouray,8091,38.1555,-107.7693,
CO,Park,8093,39.1193,-105.7172,1
CO,Phillips,8095,40.5939,-102.3575,
CO,Pitkin,8097,39.2171,-106.9166,15
CO,Prowers,8099,37.9552,-102.3933,
CO,Pueblo,8101,38.1734,-104.5128,3
CO,Rio Blanco,8103,39.9798,-108.2172,
CO,Rio Grande,8105,37.5825,-106.3832,
CO,Routt,8107,40.4851,-106.9912,2
CO,Saguache,8109,38.0806,-106.2815,
CO,San Juan,8111,37.764,-107.6761,
CO,San Miguel,8113,38.0038,-108.4058,1
CO,Sedgwick,8115,40.8758,-102.3518,
CO,Summit,8117,39.6342,-106.1163,7
CO,Teller,8119,38.8822,-105.1618,
CO,Washington,8121,39.971,-103.2013,
CO,Weld,8123,40.5549,-104.3925,21
CO,Yuma,8125,40.0029,-102.4243,1
CT,Fairfield,9001,41.2731,-73.3887,140
CT,Hartford,9003,41.8064,-72.7328,35
CT,Litchfield,9005,41.7925,-73.2453,11
CT,Middlesex,9007,41.4624,-72.534,6
CT,New Haven,9009,41.4108,-72.9324,24
CT,New London,9011,41.4893,-72.1004,1
CT,Tolland,9013,41.855,-72.3365,5
CT,Windham,9015,41.8299,-71.9875,1
DE,Kent,10001,39.0867,-75.5688,5
DE,New Castle,10003,39.5811,-75.6488,32
DE,Sussex,10005,38.6621,-75.399,8
DC,District of Columbia,11001,38.9093,-77.0146,98
FL,Alachua,12001,29.6749,-82.3576,25
FL,Baker,12003,30.331,-82.2846,1
FL,Bay,12005,30.2797,-85.6151,1
FL,Bradford,12007,29.9502,-82.1689,
FL,Brevard,12009,28.2631,-80.7436,5
FL,Broward,12011,26.1519,-80.4886,164
FL,Calhoun,12013,30.4061,-85.1972,
FL,Charlotte,12015,26.9069,-81.894,2
FL,Charlotte,12015,26.9689,-82.108,2
FL,Citrus,12017,28.8509,-82.467,8
FL,Citrus,12017,28.8125,-82.6088,8
FL,Clay,12019,29.9831,-81.8579,6
FL,Collier,12021,26.1196,-81.3393,28
FL,Columbia,12023,30.2243,-82.6215,
FL,DeSoto,12027,27.1863,-81.8093,
FL,Dixie,12029,29.6101,-83.1583,
FL,Duval,12031,30.3302,-81.674,25
FL,Escambia,12033,30.7012,-87.3777,1
FL,Flagler,12035,29.4605,-81.3145,
FL,Franklin,12037,29.8773,-84.8172,
FL,Franklin,12037,29.9194,-84.6607,
FL,Gadsden,12039,30.5795,-84.6137,1
FL,Gilchrist,12041,29.7259,-82.8006,
FL,Glades,12043,26.9605,-81.2397,
FL,Gulf,12045,29.9458,-85.1435,
FL,Gulf,12045,29.9562,-85.2283,
FL,Hamilton,12047,30.4964,-82.9478,
FL,Hardee,12049,27.4927,-81.8099,
FL,Hendry,12051,26.5473,-81.1719,
FL,Hernando,12053,28.5528,-82.4209,6
FL,Highlands,12055,27.3434,-81.341,0
FL,Hillsborough,12057,27.9306,-82.3072,47
FL,Hillsborough,12057,27.7786,-82.4146,47
FL,Holmes,12059,30.8679,-85.8143,
FL,Indian River,12061,27.6929,-80.6158,5
FL,Jackson,12063,30.7956,-85.2194,1
FL,Jackson,12063,30.78,-84.9213,1
FL,Jefferson,12065,30.438,-83.8951,
FL,Lafayette,12067,29.9855,-83.1811,
FL,Lake,12069,28.7615,-81.7113,4
FL,Lee,12071,26.5786,-81.821,17
FL,Lee,12071,26.6135,-81.8902,17
FL,Leon,12073,30.4581,-84.2778,4
FL,Levy,12075,29.2827,-83.0885,
FL,Levy,12075,29.3216,-82.7389,
FL,Liberty,12077,30.2414,-84.8829,
FL,Madison,12079,30.4442,-83.47,
FL,Manatee,12081,27.4713,-82.2978,13
FL,Manatee,12081,27.5051,-82.521,13
FL,Marion,12083,29.2103,-82.0567,2
FL,Martin,12085,27.0844,-80.3893,1
FL,Miami-Dade,12086,25.6171,-80.5682,169
FL,Mainland Monroe,12087,25.5205,-81.0326,1
FL,Lower Keys in Monroe,12087,24.6514,-81.5527,1
FL,Middle Keys in Monroe,12087,24.7471,-80.9876,1
FL,Upper Keys in Monroe,12087,25.1496,-80.4175,1
FL,Nassau,12089,30.6095,-81.8085,1
FL,Okaloosa,12091,30.7068,-86.5964,12
FL,Okeechobee,12093,27.4283,-80.9015,
FL,Orange,12095,28.5148,-81.3238,29
FL,Osceola,12097,28.0627,-81.1496,21
FL,Palm Beach,12099,26.623,-80.4329,56
FL,Pasco,12101,28.3093,-82.3911,8
FL,Pinellas,12103,27.928,-82.722,29
FL,Pinellas,12103,28.1264,-82.7303,29
FL,Polk,12105,27.9489,-81.6978,10
FL,Putnam,12107,29.6086,-81.7442,1
FL,St. Johns,12109,29.9013,-81.4439,9
FL,St. Lucie,12111,27.3764,-80.4836,1
FL,Santa Rosa,12113,30.732,-87.0172,3
FL,Sarasota,12115,27.181,-82.3219,14
FL,Sarasota,12115,27.0267,-82.277,14
FL,Seminole,12117,28.717,-81.2362,12
FL,Sumter,12119,28.7046,-82.081,4
FL,Suwannee,12121,30.1956,-82.9915,
FL,Taylor,12123,30.0477,-83.603,
FL,Union,12125,30.0439,-82.3714,
FL,Volusia,12127,29.0604,-81.1912,11
FL,Wakulla,12129,30.1703,-84.4026,
FL,Wakulla,12129,30.0061,-84.4749,
FL,Walton,12131,30.6598,-86.1631,4
FL,Walton,12131,30.5448,-85.8977,4
FL,Washington,12133,30.6106,-85.6656,
GA,Appling,13001,31.7493,-82.289,
GA,Atkinson,13003,31.2971,-82.88,
GA,Bacon,13005,31.5537,-82.4527,
GA,Baker,13007,31.3262,-84.4447,
GA,Baldwin,13009,33.069,-83.2498,
GA,Banks,13011,34.3541,-83.4974,
GA,Barrow,13013,33.9932,-83.7126,1
GA,Bartow,13015,34.2379,-84.8405,56
GA,Ben Hill,13017,31.7598,-83.2206,
GA,Berrien,13019,31.2761,-83.2297,
GA,Bibb,13021,32.8067,-83.6979,1
GA,Bleckley,13023,32.4344,-83.3279,
GA,Brantley,13025,31.197,-81.9819,
GA,Brooks,13027,30.842,-83.5803,
GA,Bryan,13029,32.0175,-81.4474,
GA,Bryan,13029,31.7798,-81.1919,
GA,Bulloch,13031,32.3969,-81.7432,
GA,Burke,13033,33.0612,-82.0008,
GA,Butts,13035,33.2891,-83.9572,
GA,Calhoun,13037,31.5292,-84.6249,
GA,Camden,13039,30.9335,-81.682,
GA,Candler,13043,32.4035,-82.0737,
GA,Carroll,13045,33.5828,-85.0797,14
GA,Catoosa,13047,34.9036,-85.1381,
GA,Charlton,13049,30.7818,-82.138,1
GA,Chatham,13051,32.0099,-81.1416,4
GA,Chatham,13051,31.9297,-81.0394,4
GA,Chattahoochee,13053,32.347,-84.787,
GA,Chattooga,13055,34.475,-85.3454,
GA,Cherokee,13057,34.2439,-84.4764,17
GA,Clarke,13059,33.9513,-83.3675,
GA,Clay,13061,31.6264,-84.9803,9
GA,Clayton,13063,33.5419,-84.3577,13
GA,Clinch,13065,30.9151,-82.7063,
GA,Cobb,13067,33.9415,-84.5767,50
GA,Coffee,13069,31.5492,-82.8493,
GA,Colquitt,13071,31.1884,-83.7688,
GA,Columbia,13073,33.5442,-82.264,3
GA,Cook,13075,31.154,-83.4305,
GA,Coweta,13077,33.3535,-84.7633,8
GA,Crawford,13079,32.7145,-83.9864,
GA,Crisp,13081,31.923,-83.7681,
GA,Dade,13083,34.8546,-85.5045,
GA,Dawson,13085,34.4438,-84.1704,1
GA,Decatur,13087,30.7994,-84.7577,
GA,Decatur,13087,30.8815,-84.572,
GA,DeKalb,13089,33.7715,-84.2263,41
GA,Dodge,13091,32.1722,-83.1684,
GA,Dooly,13093,32.1572,-83.7987,
GA,Dougherty,13095,31.5333,-84.2164,47
GA,Douglas,13097,33.7015,-84.7677,4
GA,Early,13099,31.3228,-84.9037,2
GA,Echols,13101,30.7101,-82.8939,
GA,Effingham,13103,32.3675,-81.3407,1
GA,Elbert,13105,34.117,-82.8403,
GA,Emanuel,13107,32.5898,-82.3018,
GA,Evans,13109,32.1568,-81.8868,
GA,Fannin,13111,34.8641,-84.3197,
GA,Fayette,13113,33.414,-84.4941,9
GA,Floyd,13115,34.2632,-85.2143,8
GA,Forsyth,13117,34.2255,-84.1253,4
GA,Franklin,13119,34.3755,-83.2292,
GA,Fulton,13121,33.7903,-84.4669,99
GA,Gilmer,13123,34.6915,-84.4554,
GA,Glascock,13125,33.2293,-82.6107,
GA,Glynn,13127,31.2365,-81.5512,2
GA,Gordon,13129,34.5034,-84.8757,4
GA,Grady,13131,30.8747,-84.2344,
GA,Greene,13133,33.5788,-83.1667,
GA,Gwinnett,13135,33.9617,-84.0235,23
GA,Habersham,13137,34.631,-83.5312,
GA,Hall,13139,34.3168,-83.8197,9
GA,Hancock,13141,33.2703,-83.001,
GA,Haralson,13143,33.7943,-85.211,
GA,Harris,13145,32.736,-84.909,
GA,Hart,13147,34.3511,-82.964,
GA,Heard,13149,33.297,-85.1283,1
GA,Henry,13151,33.4534,-84.1554,7
GA,Houston,13153,32.459,-83.6662,1
GA,Irwin,13155,31.6023,-83.2764,
GA,Jackson,13157,34.1339,-83.5663,
GA,Jasper,13159,33.3165,-83.6881,
GA,Jeff Davis,13161,31.8056,-82.637,
GA,Jefferson,13163,33.0549,-82.4181,
GA,Jenkins,13165,32.7925,-81.9636,
GA,Johnson,13167,32.7015,-82.6601,
GA,Jones,13169,33.0251,-83.5605,
GA,Lamar,13171,33.0765,-84.1394,1
GA,Lanier,13173,31.038,-83.0626,
GA,Laurens,13175,32.4637,-82.9222,2
GA,Lee,13177,31.7796,-84.141,14
GA,Liberty,13179,31.7093,-81.2103,
GA,Liberty,13179,31.8308,-81.4998,
GA,Lincoln,13181,33.7936,-82.4512,
GA,Long,13183,31.7528,-81.746,
GA,Lowndes,13185,30.8339,-83.2677,7
GA,Lumpkin,13187,34.5722,-84.0031,
GA,McDuffie,13189,33.4829,-82.4814,
GA,McIntosh,13191,31.5329,-81.2646,
GA,McIntosh,13191,31.5007,-81.4149,
GA,Macon,13193,32.3584,-84.0425,
GA,Madison,13195,34.1279,-83.209,
GA,Marion,13197,32.3534,-84.5246,
GA,Meriwether,13199,33.0407,-84.6883,
GA,Miller,13201,31.164,-84.7307,1
GA,Mitchell,13205,31.2254,-84.1942,
GA,Monroe,13207,33.0141,-83.9187,1
GA,Montgomery,13209,32.1746,-82.5338,
GA,Morgan,13211,33.5908,-83.4924,
GA,Murray,13213,34.7885,-84.7481,
GA,Muscogee,13215,32.51,-84.877,2
GA,Newton,13217,33.5551,-83.8503,4
GA,Oconee,13219,33.8349,-83.437,1
GA,Oglethorpe,13221,33.8807,-83.0806,
GA,Paulding,13223,33.9202,-84.8672,4
GA,Peach,13225,32.5688,-83.8268,2
GA,Pickens,13227,34.4643,-84.4656,2
GA,Pierce,13229,31.3589,-82.2134,
GA,Pike,13231,33.0922,-84.3892,
GA,Polk,13233,34.0018,-85.1881,4
GA,Pulaski,13235,32.2328,-83.4764,
GA,Putnam,13237,33.3218,-83.3728,
GA,Quitman,13239,31.8674,-85.0188,
GA,Rabun,13241,34.8818,-83.4021,
GA,Randolph,13243,31.7626,-84.7542,1
GA,Richmond,13245,33.3596,-82.0735,10
GA,Rockdale,13247,33.6545,-84.0267,
GA,Schley,13249,32.262,-84.3149,
GA,Screven,13251,32.7507,-81.6119,
GA,Seminole,13253,30.7935,-84.8812,
GA,Seminole,13253,30.9481,-84.8681,
GA,Spalding,13255,33.2609,-84.2841,
GA,Stephens,13257,34.554,-83.2935,
GA,Stewart,13259,32.0785,-84.8351,
GA,Sumter,13261,32.04,-84.1971,
GA,Talbot,13263,32.6995,-84.533,
GA,Taliaferro,13265,33.5662,-82.8787,
GA,Tattnall,13267,32.0458,-82.0582,
GA,Taylor,13269,32.5556,-84.2504,
GA,Telfair,13271,31.9298,-82.9389,
GA,Terrell,13273,31.7768,-84.4368,
GA,Thomas,13275,30.8637,-83.9194,
GA,Tift,13277,31.4575,-83.5266,
GA,Toombs,13279,32.1206,-82.3306,
GA,Towns,13281,34.9166,-83.7373,
GA,Treutlen,13283,32.4039,-82.5673,
GA,Troup,13285,33.0335,-85.0283,
GA,Turner,13287,31.7164,-83.6242,
GA,Twiggs,13289,32.6672,-83.4272,
GA,Union,13291,34.8342,-83.9907,
GA,Upson,13293,32.8812,-84.2993,
GA,Walker,13295,34.7356,-85.3009,
GA,Walton,13297,33.7816,-83.7338,
GA,Ware,13299,31.0534,-82.4238,
GA,Warren,13301,33.409,-82.6767,
GA,Washington,13303,32.9695,-82.7959,
GA,Wayne,13305,31.5515,-81.9168,
GA,Webster,13307,32.0466,-84.551,
GA,Wheeler,13309,32.1171,-82.7246,
GA,White,13311,34.6464,-83.7472,
GA,Whitfield,13313,34.8056,-84.9673,
GA,Wilcox,13315,31.9734,-83.4322,
GA,Wilkes,13317,33.782,-82.7432,
GA,Wilkinson,13319,32.8024,-83.1713,
GA,Worth,13321,31.5516,-83.851,
HI,Hawaii in Hawaii,15001,19.6013,-155.5212,3
HI,Oahu in Honolulu,15003,21.4625,-157.9765,35
HI,Niihau in Kauai,15007,21.897,-160.157,3
HI,Kauai in Kauai,15007,22.0614,-159.527,3
HI,Kahoolawe in Maui,15009,20.5503,-156.6118,7
HI,Lanai in Maui,15009,20.8383,-156.9299,7
HI,Maui in Maui,15009,20.7936,-156.3396,7
HI,Molokai in Maui,15009,21.1363,-157.0168,7
ID,Ada,16001,43.4511,-116.2411,11
ID,Adams,16003,44.8897,-116.4539,
ID,Bannock,16005,42.6685,-112.2246,
ID,Bear Lake,16007,42.2848,-111.3296,
ID,Benewah,16009,47.2176,-116.6588,
ID,Bingham,16011,43.2165,-112.3981,2
ID,Blaine,16013,43.4123,-113.9799,21
ID,Boise,16015,43.9892,-115.7301,
ID,Bonner,16017,48.2997,-116.601,
ID,Bonneville,16019,43.3877,-111.6149,
ID,Boundary,16021,48.7669,-116.4629,
ID,Butte,16023,43.7233,-113.1711,
ID,Camas,16025,43.4633,-114.8059,
ID,Canyon,16027,43.625,-116.7092,1
ID,Caribou,16029,42.7705,-111.5622,
ID,Cassia,16031,42.2839,-113.6004,
ID,Clark,16033,44.284,-112.3512,
ID,Clearwater,16035,46.6737,-115.6569,
ID,Custer,16037,44.2412,-114.2816,
ID,Elmore,16039,43.3539,-115.4692,
ID,Franklin,16041,42.1811,-111.8132,
ID,Fremont,16043,44.2288,-111.482,
ID,Gem,16045,44.0617,-116.3973,
ID,Gooding,16047,42.9706,-114.8124,
ID,Idaho,16049,45.8442,-115.4674,
ID,Jefferson,16051,43.8201,-112.3113,
ID,Jerome,16053,42.6898,-114.2641,
ID,Kootenai,16055,47.6746,-116.7,3
ID,Latah,16057,46.8161,-116.7117,
ID,Lemhi,16059,44.9433,-113.933,
ID,Lewis,16061,46.237,-116.4262,
ID,Lincoln,16063,43.0023,-114.1395,
ID,Madison,16065,43.7842,-111.6594,1
ID,Minidoka,16067,42.8544,-113.6375,
ID,Nez Perce,16069,46.3268,-116.7502,
ID,Oneida,16071,42.1949,-112.5396,
ID,Owyhee,16073,42.5816,-116.17,
ID,Payette,16075,44.0067,-116.7608,
ID,Power,16077,42.6937,-112.8407,
ID,Shoshone,16079,47.3516,-115.891,
ID,Teton,16081,43.7595,-111.2077,2
ID,Twin Falls,16083,42.356,-114.6671,1
ID,Valley,16085,44.7667,-115.5661,
ID,Washington,16087,44.4524,-116.7848,
IL,Adams,17001,39.9878,-91.1886,1
IL,Alexander,17003,37.1915,-89.3376,
IL,Bond,17005,38.8868,-89.4356,
IL,Boone,17007,42.3231,-88.8234,
IL,Brown,17009,39.9618,-90.7504,
IL,Bureau,17011,41.4041,-89.5287,
IL,Calhoun,17013,39.1692,-90.6675,
IL,Carroll,17015,42.0688,-89.9345,
IL,Cass,17017,39.9736,-90.2474,
IL,Champaign,17019,40.1401,-88.1991,1
IL,Christian,17021,39.5458,-89.2773,
IL,Clark,17023,39.3335,-87.7878,
IL,Clay,17025,38.7542,-88.4902,
IL,Clinton,17027,38.6065,-89.4224,3
IL,Coles,17029,39.5202,-88.2218,
IL,Cook,17031,41.8399,-87.8167,548
IL,Crawford,17033,39.0028,-87.7595,
IL,Cumberland,17035,39.2732,-88.2403,1
IL,De Kalb,17037,41.8934,-88.7704,1
IL,De Witt,17039,40.1746,-88.9041,
IL,Douglas,17041,39.7695,-88.2174,
IL,DuPage,17043,41.852,-88.0857,65
IL,Edgar,17045,39.6786,-87.7456,
IL,Edwards,17047,38.4165,-88.0532,
IL,Effingham,17049,39.0597,-88.5899,
IL,Fayette,17051,39.0002,-89.0242,
IL,Ford,17053,40.5972,-88.2233,
IL,Franklin,17055,37.9923,-88.9242,
IL,Fulton,17057,40.4728,-90.2075,
IL,Gallatin,17059,37.7628,-88.2305,
IL,Greene,17061,39.3562,-90.3905,
IL,Grundy,17063,41.285,-88.4185,
IL,Hamilton,17065,38.0816,-88.5391,
IL,Hancock,17067,40.4037,-91.1647,
IL,Hardin,17069,37.5182,-88.2669,
IL,Henderson,17071,40.8181,-90.9251,
IL,Henry,17073,41.3531,-90.1314,
IL,Iroquois,17075,40.7474,-87.8243,
IL,Jackson,17077,37.7852,-89.3821,1
IL,Jasper,17079,39.01,-88.1538,
IL,Jefferson,17081,38.3005,-88.924,
IL,Jersey,17083,39.0856,-90.3566,
IL,Jo Daviess,17085,42.3657,-90.2123,
IL,Johnson,17087,37.4596,-88.8809,
IL,Kane,17089,41.939,-88.4287,8
IL,Kankakee,17091,41.1377,-87.8618,2
IL,Kendall,17093,41.5906,-88.4289,2
IL,Knox,17095,40.9318,-90.2133,
IL,Lake,17097,42.3231,-88.0036,63
IL,La Salle,17099,41.3439,-88.8859,1
IL,Lawrence,17101,38.72,-87.7266,
IL,Lee,17103,41.7461,-89.3005,
IL,Livingston,17105,40.8914,-88.5578,
IL,Logan,17107,40.1245,-89.3676,
IL,McDonough,17109,40.4562,-90.678,
IL,McHenry,17111,42.3244,-88.4524,11
IL,McLean,17113,40.4908,-88.8473,6
IL,Macon,17115,39.8599,-88.9617,
IL,Macoupin,17117,39.261,-89.9244,
IL,Madison,17119,38.8299,-89.9051,1
IL,Marion,17121,38.6496,-88.919,
IL,Marshall,17123,41.0332,-89.3448,
IL,Mason,17125,40.2397,-89.9168,
IL,Massac,17127,37.219,-88.7078,
IL,Menard,17129,40.0274,-89.8022,
IL,Mercer,17131,41.2053,-90.7414,
IL,Monroe,17133,38.2785,-90.1774,
IL,Montgomery,17135,39.231,-89.4789,
IL,Morgan,17137,39.7156,-90.2015,
IL,Moultrie,17139,39.6413,-88.6194,
IL,Ogle,17141,42.0427,-89.3207,
IL,Peoria,17143,40.7881,-89.76,3
IL,Perry,17145,38.0838,-89.3671,
IL,Piatt,17147,40.0104,-88.5911,
IL,Pike,17149,39.6225,-90.8862,
IL,Pope,17151,37.4127,-88.5615,
IL,Pulaski,17153,37.2228,-89.1267,
IL,Putnam,17155,41.2045,-89.2858,
IL,Randolph,17157,38.0521,-89.8253,
IL,Richland,17159,38.7124,-88.085,
IL,Rock Island,17161,41.4673,-90.5674,
IL,St. Clair,17163,38.4703,-89.9284,3
IL,Saline,17165,37.7533,-88.5408,
IL,Sangamon,17167,39.7582,-89.6589,4
IL,Schuyler,17169,40.158,-90.6151,
IL,Scott,17171,39.6442,-90.4747,
IL,Shelby,17173,39.3911,-88.8055,
IL,Stark,17175,41.0934,-89.7975,
IL,Stephenson,17177,42.3517,-89.6625,
IL,Tazewell,17179,40.5075,-89.5134,
IL,Union,17181,37.4712,-89.2551,
IL,Vermilion,17183,40.1836,-87.7329,
IL,Wabash,17185,38.4461,-87.8443,
IL,Warren,17187,40.8488,-90.615,
IL,Washington,17189,38.3522,-89.4105,1
IL,Wayne,17191,38.4295,-88.4256,
IL,White,17193,38.0875,-88.1795,
IL,Whiteside,17195,41.7564,-89.9141,1
IL,Will,17197,41.445,-87.9787,12
IL,Williamson,17199,37.7303,-88.9299,1
IL,Winnebago,17201,42.3363,-89.1609,4
IL,Woodford,17203,40.7882,-89.2111,2
IN,Adams,18001,40.7456,-84.9366,1
IN,Allen,18003,41.0908,-85.0665,4
IN,Bartholomew,18005,39.2059,-85.8977,1
IN,Benton,18007,40.6063,-87.3109,
IN,Blackford,18009,40.4735,-85.3248,
IN,Boone,18011,40.0508,-86.4687,2
IN,Brown,18013,39.1962,-86.2274,
IN,Carroll,18015,40.5829,-86.5635,
IN,Cass,18017,40.7615,-86.346,
IN,Clark,18019,38.4773,-85.7073,4
IN,Clay,18021,39.3928,-87.1158,
IN,Clinton,18023,40.3017,-86.4752,
IN,Crawford,18025,38.2923,-86.4517,
IN,Daviess,18027,38.7024,-87.0721,
IN,Dearborn,18029,39.1453,-84.9733,
IN,Decatur,18031,39.3069,-85.5013,
IN,De Kalb,18033,41.3976,-84.9991,
IN,Delaware,18035,40.2275,-85.3969,1
IN,Dubois,18037,38.3643,-86.8798,
IN,Elkhart,18039,41.5974,-85.8587,1
IN,Fayette,18041,39.6401,-85.1787,1
IN,Floyd,18043,38.3194,-85.9068,2
IN,Fountain,18045,40.1209,-87.2419,
IN,Franklin,18047,39.4148,-85.0603,2
IN,Fulton,18049,41.047,-86.2636,
IN,Gibson,18051,38.3118,-87.5846,
IN,Grant,18053,40.5158,-85.6548,1
IN,Greene,18055,39.0364,-86.962,1
IN,Hamilton,18057,40.0725,-86.052,10
IN,Hancock,18059,39.8235,-85.7732,1
IN,Harrison,18061,38.1952,-86.1113,1
IN,Hendricks,18063,39.7695,-86.51,6
IN,Henry,18065,39.931,-85.3964,
IN,Howard,18067,40.4836,-86.117,5
IN,Huntington,18069,40.8291,-85.4881,
IN,Jackson,18071,38.9064,-86.0376,
IN,Jasper,18073,41.023,-87.1162,
IN,Jay,18075,40.438,-85.0057,
IN,Jefferson,18077,38.7858,-85.4385,
IN,Jennings,18079,38.9969,-85.6281,1
IN,Johnson,18081,39.4899,-86.1017,7
IN,Knox,18083,38.6891,-87.418,
IN,Kosciusko,18085,41.2441,-85.8607,
IN,Lagrange,18087,41.6427,-85.4265,
IN,Lake,18089,41.4156,-87.3817,7
IN,La Porte,18091,41.546,-86.74,2
IN,Lawrence,18093,38.8412,-86.4834,
IN,Madison,18095,40.1617,-85.7194,1
IN,Marion,18097,39.7816,-86.1384,46
IN,Marshall,18099,41.325,-86.2618,
IN,Martin,18101,38.708,-86.8031,
IN,Miami,18103,40.7695,-86.0451,1
IN,Monroe,18105,39.1609,-86.5231,
IN,Montgomery,18107,40.0404,-86.8933,
IN,Morgan,18109,39.4815,-86.4462,
IN,Newton,18111,40.9559,-87.3975,
IN,Noble,18113,41.3986,-85.4174,1
IN,Ohio,18115,38.9501,-84.965,
IN,Orange,18117,38.5418,-86.4951,
IN,Owen,18119,39.3129,-86.8376,1
IN,Parke,18121,39.7736,-87.2063,
IN,Perry,18123,38.0797,-86.638,
IN,Pike,18125,38.3988,-87.2322,
IN,Porter,18127,41.4605,-87.0672,
IN,Posey,18129,38.0218,-87.8684,
IN,Pulaski,18131,41.0419,-86.6989,
IN,Putnam,18133,39.6663,-86.845,
IN,Randolph,18135,40.1576,-85.0114,
IN,Ripley,18137,39.1034,-85.2624,
IN,Rush,18139,39.6199,-85.4658,
IN,St. Joseph,18141,41.6167,-86.2898,6
IN,Scott,18143,38.6851,-85.7474,1
IN,Shelby,18145,39.5236,-85.7918,1
IN,Spencer,18147,38.0142,-87.0077,
IN,Starke,18149,41.281,-86.6478,
IN,Steuben,18151,41.6439,-85.0008,
IN,Sullivan,18153,39.0888,-87.4146,
IN,Switzerland,18155,38.8262,-85.037,
IN,Tippecanoe,18157,40.3886,-86.8941,2
IN,Tipton,18159,40.3114,-86.0519,
IN,Union,18161,39.6255,-84.9251,
IN,Vanderburgh,18163,38.0254,-87.5857,2
IN,Vermillion,18165,39.8538,-87.464,
IN,Vigo,18167,39.4306,-87.39,1
IN,Wabash,18169,40.8457,-85.794,
IN,Warren,18171,40.3469,-87.3533,
IN,Warrick,18173,38.0922,-87.2721,
IN,Washington,18175,38.6,-86.1053,
IN,Wayne,18177,39.8644,-85.0099,1
IN,Wells,18179,40.7291,-85.2212,1
IN,White,18181,40.7499,-86.8654,
IN,Whitley,18183,41.1394,-85.5052,
IA,Adair,19001,41.3307,-94.471,1
IA,Adams,19003,41.029,-94.6992,
IA,Allamakee,19005,43.2843,-91.3781,5
IA,Appanoose,19007,40.7432,-92.8687,
IA,Audubon,19009,41.6846,-94.9058,
IA,Benton,19011,42.0801,-92.0657,
IA,Black Hawk,19013,42.4701,-92.3085,3
IA,Boone,19015,42.0366,-93.9318,
IA,Bremer,19017,42.7747,-92.3182,
IA,Buchanan,19019,42.4707,-91.8379,
IA,Buena Vista,19021,42.7355,-95.1513,
IA,Butler,19023,42.7316,-92.7902,
IA,Calhoun,19025,42.3852,-94.6405,
IA,Carroll,19027,42.0362,-94.8607,1
IA,Cass,19029,41.3315,-94.9278,
IA,Cedar,19031,41.7723,-91.1324,
IA,Cerro Gordo,19033,43.0815,-93.2608,
IA,Cherokee,19035,42.7357,-95.6239,
IA,Chickasaw,19037,43.0601,-92.3176,
IA,Clarke,19039,41.029,-93.7851,
IA,Clay,19041,43.0826,-95.151,
IA,Clayton,19043,42.8447,-91.3414,
IA,Clinton,19045,41.898,-90.532,
IA,Crawford,19047,42.0372,-95.3821,
IA,Dallas,19049,41.6849,-94.0398,5
IA,Davis,19051,40.7477,-92.4097,
IA,Decatur,19053,40.7377,-93.7863,
IA,Delaware,19055,42.4711,-91.3673,
IA,Des Moines,19057,40.9232,-91.1815,
IA,Dickinson,19059,43.3779,-95.151,
IA,Dubuque,19061,42.4689,-90.8824,2
IA,Emmet,19063,43.3779,-94.6784,
IA,Fayette,19065,42.8625,-91.8443,1
IA,Floyd,19067,43.06,-92.789,
IA,Franklin,19069,42.7325,-93.2624,
IA,Fremont,19071,40.7456,-95.6047,
IA,Greene,19073,42.0362,-94.3969,
IA,Grundy,19075,42.402,-92.7911,
IA,Guthrie,19077,41.6838,-94.501,
IA,Hamilton,19079,42.3838,-93.7068,
IA,Hancock,19081,43.0819,-93.7343,
IA,Hardin,19083,42.3838,-93.2404,
IA,Harrison,19085,41.6829,-95.8167,1
IA,Henry,19087,40.9879,-91.5446,1
IA,Howard,19089,43.3568,-92.3172,
IA,Humboldt,19091,42.7764,-94.2073,
IA,Ida,19093,42.3869,-95.5136,
IA,Iowa,19095,41.6863,-92.0656,
IA,Jackson,19097,42.1717,-90.5742,
IA,Jasper,19099,41.686,-93.0537,
IA,Jefferson,19101,41.0318,-91.9489,
IA,Johnson,19103,41.6715,-91.5881,27
IA,Jones,19105,42.1212,-91.1314,
IA,Keokuk,19107,41.3364,-92.1787,
IA,Kossuth,19109,43.2042,-94.2067,
IA,Lee,19111,40.642,-91.4792,
IA,Linn,19113,42.0789,-91.5989,3
IA,Louisa,19115,41.2185,-91.2597,
IA,Lucas,19117,41.0293,-93.3277,
IA,Lyon,19119,43.3805,-96.2103,
IA,Madison,19121,41.3307,-94.0155,
IA,Mahaska,19123,41.3351,-92.6409,
IA,Marion,19125,41.3344,-93.0995,
IA,Marshall,19127,42.0358,-92.9988,
IA,Mills,19129,41.0332,-95.6214,
IA,Mitchell,19131,43.3564,-92.7891,
IA,Monona,19133,42.0516,-95.96,
IA,Monroe,19135,41.0297,-92.869,
IA,Montgomery,19137,41.0301,-95.1563,
IA,Muscatine,19139,41.4839,-91.1127,2
IA,O'Brien,19141,43.0838,-95.625,
IA,Osceola,19143,43.3785,-95.6237,
IA,Page,19145,40.7391,-95.1502,
IA,Palo Alto,19147,43.082,-94.6782,
IA,Plymouth,19149,42.7378,-96.2142,
IA,Pocahontas,19151,42.7341,-94.6788,
IA,Polk,19153,41.6855,-93.5734,10
IA,Pottawattamie,19155,41.3364,-95.5423,2
IA,Poweshiek,19157,41.6864,-92.5315,
IA,Ringgold,19159,40.7352,-94.244,
IA,Sac,19161,42.3862,-95.1055,
IA,Scott,19163,41.6371,-90.6232,
IA,Shelby,19165,41.6851,-95.3103,
IA,Sioux,19167,43.0826,-96.1779,
IA,Story,19169,42.0362,-93.4651,1
IA,Tama,19171,42.0798,-92.5326,
IA,Taylor,19173,40.7374,-94.6965,
IA,Union,19175,41.0277,-94.2424,
IA,Van Buren,19177,40.7532,-91.95,
IA,Wapello,19179,41.0306,-92.4095,
IA,Warren,19181,41.3343,-93.5614,
IA,Washington,19183,41.3356,-91.7179,2
IA,Wayne,19185,40.7395,-93.3274,
IA,Webster,19187,42.4278,-94.1818,
IA,Winnebago,19189,43.3775,-93.7342,
IA,Winneshiek,19191,43.2906,-91.8436,1
IA,Woodbury,19193,42.3897,-96.0449,
IA,Worth,19195,43.3774,-93.2609,
IA,Wright,19197,42.7331,-93.7352,
KS,Allen,20001,37.8858,-95.3014,
KS,Anderson,20003,38.2143,-95.2933,
KS,Atchison,20005,39.5319,-95.3129,
KS,Barber,20007,37.2289,-98.6848,
KS,Barton,20009,38.479,-98.7565,
KS,Bourbon,20011,37.8552,-94.8493,
KS,Brown,20013,39.8266,-95.5642,
KS,Butler,20015,37.7813,-96.8391,2
KS,Chase,20017,38.3021,-96.594,
KS,Chautauqua,20019,37.1501,-96.2453,
KS,Cherokee,20021,37.1693,-94.8462,1
KS,Cheyenne,20023,39.7858,-101.7311,
KS,Clark,20025,37.2355,-99.8203,
KS,Clay,20027,39.3497,-97.1651,
KS,Cloud,20029,39.4804,-97.6495,
KS,Coffey,20031,38.237,-95.7342,
KS,Comanche,20033,37.1913,-99.2719,
KS,Cowley,20035,37.2378,-96.8375,
KS,Crawford,20037,37.5073,-94.8518,
KS,Decatur,20039,39.7847,-100.4599,
KS,Dickinson,20041,38.8664,-97.1527,
KS,Doniphan,20043,39.7885,-95.147,
KS,Douglas,20045,38.8845,-95.2924,1
KS,Edwards,20047,37.8876,-99.312,
KS,Elk,20049,37.4537,-96.2441,
KS,Ellis,20051,38.9148,-99.3173,
KS,Ellsworth,20053,38.6966,-98.2048,
KS,Finney,20055,38.0444,-100.7369,
KS,Ford,20057,37.6917,-99.8879,
KS,Franklin,20059,38.5646,-95.2859,1
KS,Geary,20061,39.0024,-96.7526,
KS,Gove,20063,38.916,-100.4829,
KS,Graham,20065,39.3497,-99.8833,
KS,Grant,20067,37.5622,-101.308,
KS,Gray,20069,37.7382,-100.4378,
KS,Greeley,20071,38.4805,-101.806,
KS,Greenwood,20073,37.8778,-96.2327,
KS,Hamilton,20075,37.9991,-101.7913,
KS,Harper,20077,37.1916,-98.0755,
KS,Harvey,20079,38.0432,-97.4273,
KS,Haskell,20081,37.5623,-100.8712,
KS,Hodgeman,20083,38.0875,-99.8979,
KS,Jackson,20085,39.417,-95.7937,1
KS,Jefferson,20087,39.2358,-95.3834,
KS,Jewell,20089,39.7847,-98.2184,
KS,Johnson,20091,38.8838,-94.8223,25
KS,Kearny,20093,38.0002,-101.3199,
KS,Kingman,20095,37.5589,-98.1364,
KS,Kiowa,20097,37.5582,-99.286,
KS,Labette,20099,37.1913,-95.2976,
KS,Lane,20101,38.4814,-100.4664,
KS,Leavenworth,20103,39.1993,-95.0379,4
KS,Lincoln,20105,39.0453,-98.2078,
KS,Linn,20107,38.2122,-94.8429,1
KS,Logan,20109,38.9173,-101.1485,
KS,Lyon,20111,38.4563,-96.1527,
KS,McPherson,20113,38.3916,-97.648,
KS,Marion,20115,38.3588,-97.0969,
KS,Marshall,20117,39.7836,-96.5229,
KS,Meade,20119,37.2383,-100.3662,
KS,Miami,20121,38.5636,-94.8381,
KS,Mitchell,20123,39.3933,-98.2095,1
KS,Montgomery,20125,37.1925,-95.7429,
KS,Morris,20127,38.6875,-96.6499,2
KS,Morton,20129,37.1914,-101.7993,
KS,Nemaha,20131,39.7835,-96.0141,
KS,Neosho,20133,37.5586,-95.3068,
KS,Ness,20135,38.4795,-99.9162,
KS,Norton,20137,39.7844,-99.9034,
KS,Osage,20139,38.6524,-95.7269,
KS,Osborne,20141,39.3504,-98.7679,
KS,Ottawa,20143,39.1326,-97.6503,
KS,Pawnee,20145,38.1814,-99.2368,
KS,Phillips,20147,39.7845,-99.3469,
KS,Pottawatomie,20149,39.379,-96.3425,
KS,Pratt,20151,37.6478,-98.7396,
KS,Rawlins,20153,39.7852,-101.0757,
KS,Reno,20155,37.9529,-98.0861,1
KS,Republic,20157,39.8278,-97.6505,
KS,Rice,20159,38.3471,-98.2011,
KS,Riley,20161,39.2965,-96.7352,1
KS,Rooks,20163,39.3502,-99.3251,
KS,Rush,20165,38.5233,-99.3092,
KS,Russell,20167,38.9149,-98.7623,
KS,Saline,20169,38.7839,-97.65,
KS,Scott,20171,38.4822,-100.9069,
KS,Sedgwick,20173,37.6848,-97.4611,1
KS,Seward,20175,37.1933,-100.8513,
KS,Shawnee,20177,39.0415,-95.7564,
KS,Sheridan,20179,39.3503,-100.4418,
KS,Sherman,20181,39.3515,-101.72,
KS,Smith,20183,39.7851,-98.7855,
KS,Stafford,20185,38.0311,-98.7175,
KS,Stanton,20187,37.563,-101.7842,
KS,Stevens,20189,37.1924,-101.3121,
KS,Sumner,20191,37.2373,-97.4765,
KS,Thomas,20193,39.3509,-101.0555,
KS,Trego,20195,38.9143,-99.8729,
KS,Wabaunsee,20197,38.9533,-96.2049,
KS,Wallace,20199,38.9166,-101.7636,
KS,Washington,20201,39.7842,-97.0874,
KS,Wichita,20203,38.4821,-101.3474,
KS,Wilson,20205,37.5593,-95.7434,
KS,Woodson,20207,37.8867,-95.7402,
KS,Wyandotte,20209,39.1145,-94.7646,13
KY,Adair,21001,37.1041,-85.2805,
KY,Allen,21003,36.7513,-86.1904,
KY,Anderson,21005,38.004,-84.9909,
KY,Ballard,21007,37.0584,-88.9992,
KY,Barren,21009,36.9656,-85.9336,
KY,Bath,21011,38.1449,-83.7428,
KY,Bell,21013,36.7307,-83.674,
KY,Boone,21015,38.97,-84.7279,
KY,Bourbon,21017,38.2068,-84.2171,2
KY,Boyd,21019,38.3596,-82.6877,
KY,Boyle,21021,37.6244,-84.8667,
KY,Bracken,21023,38.6888,-84.0901,
KY,Breathitt,21025,37.5216,-83.3241,
KY,Breckinridge,21027,37.7732,-86.4293,
KY,Bullitt,21029,37.97,-85.6959,
KY,Butler,21031,37.2074,-86.6816,
KY,Caldwell,21033,37.1453,-87.8679,
KY,Calloway,21035,36.6211,-88.2723,1
KY,Campbell,21037,38.9465,-84.3793,
KY,Carlisle,21039,36.8532,-88.9709,
KY,Carroll,21041,38.6679,-85.1235,
KY,Carter,21043,38.3181,-83.0495,
KY,Casey,21045,37.3223,-84.9283,
KY,Christian,21047,36.8941,-87.4904,1
KY,Clark,21049,37.9709,-84.1475,2
KY,Clay,21051,37.1598,-83.7146,
KY,Clinton,21053,36.7275,-85.1361,
KY,Crittenden,21055,37.3527,-88.0972,
KY,Cumberland,21057,36.7866,-85.3884,
KY,Daviess,21059,37.7318,-87.0873,1
KY,Edmonson,21061,37.2087,-86.2385,
KY,Elliott,21063,38.1179,-83.0976,
KY,Estill,21065,37.6924,-83.9643,
KY,Fayette,21067,38.0423,-84.4588,7
KY,Fleming,21069,38.3701,-83.6967,
KY,Floyd,21071,37.5572,-82.7457,
KY,Franklin,21073,38.2391,-84.877,1
KY,Fulton,21075,36.5541,-89.1873,
KY,Gallatin,21077,38.7569,-84.8592,
KY,Garrard,21079,37.6396,-84.5376,
KY,Grant,21081,38.6488,-84.6245,
KY,Graves,21083,36.723,-88.6512,
KY,Grayson,21085,37.4608,-86.3439,
KY,Green,21087,37.2639,-85.5531,
KY,Greenup,21089,38.5456,-82.9223,
KY,Hancock,21091,37.8415,-86.778,
KY,Hardin,21093,37.6979,-85.9635,1
KY,Harlan,21095,36.857,-83.2179,
KY,Harrison,21097,38.4418,-84.3315,7
KY,Hart,21099,37.2999,-85.8847,
KY,Henderson,21101,37.7961,-87.5729,1
KY,Henry,21103,38.4484,-85.1189,
KY,Hickman,21105,36.6781,-88.9761,
KY,Hopkins,21107,37.3088,-87.541,
KY,Jackson,21109,37.4198,-84.0058,
KY,Jefferson,21111,38.1872,-85.6595,17
KY,Jessamine,21113,37.872,-84.5809,
KY,Johnson,21115,37.8467,-82.8314,1
KY,Kenton,21117,38.9334,-84.5331,
KY,Knott,21119,37.354,-82.954,
KY,Knox,21121,36.8907,-83.8539,
KY,Larue,21123,37.5457,-85.698,
KY,Laurel,21125,37.1107,-84.1178,
KY,Lawrence,21127,38.0679,-82.7347,
KY,Lee,21129,37.5947,-83.7163,
KY,Leslie,21131,37.0941,-83.3811,
KY,Letcher,21133,37.1212,-82.8553,
KY,Lewis,21135,38.5317,-83.3781,
KY,Lincoln,21137,37.4552,-84.6607,
KY,Livingston,21139,37.2097,-88.3536,
KY,Logan,21141,36.8597,-86.8789,
KY,Lyon,21143,37.0191,-88.0832,1
KY,McCracken,21145,37.0539,-88.7127,
KY,McCreary,21147,36.7371,-84.4841,
KY,McLean,21149,37.5291,-87.2636,
KY,Madison,21151,37.7202,-84.278,
KY,Magoffin,21153,37.7066,-83.0648,
KY,Marion,21155,37.5525,-85.2696,
KY,Marshall,21157,36.8834,-88.3293,
KY,Martin,21159,37.8016,-82.5132,
KY,Mason,21161,38.5952,-83.824,
KY,Meade,21163,37.9695,-86.2169,
KY,Menifee,21165,37.9414,-83.5989,
KY,Mercer,21167,37.8111,-84.8744,
KY,Metcalfe,21169,36.9905,-85.6291,
KY,Monroe,21171,36.7122,-85.7164,
KY,Montgomery,21173,38.0336,-83.9132,2
KY,Morgan,21175,37.9223,-83.2589,
KY,Muhlenberg,21177,37.2157,-87.1421,
KY,Nelson,21179,37.8051,-85.4662,1
KY,Nicholas,21181,38.3356,-84.0153,
KY,Ohio,21183,37.4783,-86.849,
KY,Oldham,21185,38.3995,-85.4485,
KY,Owen,21187,38.5197,-84.828,
KY,Owsley,21189,37.4192,-83.6832,
KY,Pendleton,21191,38.6957,-84.3602,
KY,Perry,21193,37.2443,-83.2215,
KY,Pike,21195,37.469,-82.3958,
KY,Powell,21197,37.8312,-83.8238,
KY,Pulaski,21199,37.1039,-84.5771,1
KY,Robertson,21201,38.5188,-84.0521,
KY,Rockcastle,21203,37.3652,-84.316,
KY,Rowan,21205,38.1963,-83.4211,
KY,Russell,21207,36.9911,-85.0586,
KY,Scott,21209,38.2915,-84.5839,
KY,Shelby,21211,38.2155,-85.1948,
KY,Simpson,21213,36.7419,-86.5823,
KY,Spencer,21215,38.0325,-85.3279,1
KY,Taylor,21217,37.3664,-85.3279,
KY,Todd,21219,36.8356,-87.1791,
KY,Trigg,21221,36.8064,-87.8734,
KY,Trimble,21223,38.613,-85.3374,
KY,Union,21225,37.6584,-87.9453,
KY,Warren,21227,36.9936,-86.4239,1
KY,Washington,21229,37.7534,-85.1747,
KY,Wayne,21231,36.8013,-84.8285,
KY,Webster,21233,37.5183,-87.6832,
KY,Whitley,21235,36.7582,-84.1452,
KY,Wolfe,21237,37.7393,-83.4931,
KY,Woodford,21239,38.0423,-84.7435,
LA,Acadia,22001,30.2906,-92.412,0
LA,Allen,22003,30.6528,-92.8279,
LA,Ascension,22005,30.2035,-90.9113,12
LA,Assumption,22007,29.9006,-91.0626,1
LA,Avoyelles,22009,31.0762,-92.0013,1
LA,Beauregard,22011,30.6485,-93.3434,1
LA,Bienville,22013,32.3472,-93.056,1
LA,Bossier,22015,32.6795,-93.6052,5
LA,Caddo,22017,32.5797,-93.8821,15
LA,Calcasieu,22019,30.2292,-93.3579,4
LA,Caldwell,22021,32.0922,-92.1167,
LA,Cameron,22023,29.8717,-93.1618,
LA,Catahoula,22025,31.6661,-91.8471,1
LA,Claiborne,22027,32.8226,-92.9957,0
LA,Concordia,22029,31.4458,-91.6397,
LA,De Soto,22031,32.0554,-93.7373,2
LA,East Baton Rouge,22033,30.5383,-91.0957,18
LA,East Carroll,22035,32.7325,-91.235,
LA,East Feliciana,22037,30.8451,-91.0455,
LA,Evangeline,22039,30.729,-92.4059,2
LA,Franklin,22041,32.1333,-91.6738,
LA,Grant,22043,31.5997,-92.5594,
LA,Iberia,22045,29.8941,-91.7307,2
LA,Iberville,22047,30.2585,-91.3494,2
LA,Jackson,22049,32.302,-92.5577,
LA,Jefferson,22051,29.7299,-90.1174,166
LA,Jefferson Davis,22053,30.2669,-92.8138,
LA,Lafayette,22055,30.2063,-92.0639,6
LA,Lafourche,22057,29.5682,-90.4291,11
LA,La Salle,22059,31.6767,-92.1604,
LA,Lincoln,22061,32.6016,-92.6647,
LA,Livingston,22063,30.4507,-90.7393,2
LA,Madison,22065,32.3643,-91.2427,
LA,Morehouse,22067,32.8205,-91.8017,
LA,Natchitoches,22069,31.7236,-93.0963,
LA,Orleans,22071,30.0385,-89.9037,418
LA,Ouachita,22073,32.4785,-92.1545,2
LA,Plaquemines,22075,29.4705,-89.6553,4
LA,Pointe Coupee,22077,30.7097,-91.6009,
LA,Rapides,22079,31.1986,-92.5332,2
LA,Red River,22081,32.0933,-93.34,
LA,Richland,22083,32.4177,-91.7636,
LA,Sabine,22085,31.564,-93.5547,
LA,St. Bernard,22087,29.8628,-89.6178,12
LA,St. Charles,22089,29.8836,-90.3631,7
LA,St. Helena,22091,30.822,-90.7103,
LA,St. James,22093,30.0263,-90.7962,1
LA,St. John The Baptist,22095,30.0792,-90.5462,9
LA,St. Landry,22097,30.5989,-92.0058,3
LA,St. Martin,22099,30.1291,-91.6083,
LA,St. Mary,22101,29.7196,-91.4494,1
LA,St. Tammany,22103,30.4481,-89.9401,22
LA,Tangipahoa,22105,30.6453,-90.4118,3
LA,Tensas,22107,32.0016,-91.34,
LA,Terrebonne,22109,29.4206,-90.8659,11
LA,Union,22111,32.8319,-92.3748,
LA,Vermilion,22113,29.8455,-92.3241,
LA,Vernon,22115,31.1083,-93.1842,
LA,Washington,22117,30.8533,-90.0405,2
LA,Webster,22119,32.7135,-93.335,1
LA,West Baton Rouge,22121,30.4634,-91.3134,3
LA,West Carroll,22123,32.7885,-91.4567,
LA,West Feliciana,22125,30.8798,-91.42,
LA,Winn,22127,31.9442,-92.6368,
ME,Androscoggin,23001,44.1654,-70.2045,3
ME,Aroostook,23003,46.6588,-68.5988,
ME,Cumberland,23005,43.8487,-70.4096,41
ME,Franklin,23007,44.974,-70.444,
ME,Hancock,23009,44.6749,-68.3531,0
ME,Kennebec,23011,44.4093,-69.7672,4
ME,Knox,23013,44.15,-69.173,0
ME,Lincoln,23015,44.0752,-69.5431,4
ME,Oxford,23017,44.499,-70.7555,4
ME,Penobscot,23019,45.4006,-68.6494,2
ME,Piscataquis,23021,45.838,-69.2835,
ME,Sagadahoc,23023,43.9705,-69.8613,1
ME,Somerset,23025,45.5138,-69.9582,
ME,Waldo,23027,44.5037,-69.1478,
ME,Washington,23029,45.0363,-67.6361,
ME,York,23031,43.4796,-70.7156,8
MD,Allegany,24001,39.6215,-78.6989,
MD,Anne Arundel,24003,38.9332,-76.5279,15
MD,Anne Arundel,24003,39.0074,-76.6088,15
MD,Baltimore,24005,39.295,-76.4054,19
MD,Baltimore,24005,39.4664,-76.6448,19
MD,Calvert,24009,38.5529,-76.5696,1
MD,Calvert,24009,38.3838,-76.4805,1
MD,Caroline,24011,38.8717,-75.8317,
MD,Carroll,24013,39.5631,-77.0228,3
MD,Cecil,24015,39.5101,-75.974,
MD,Cecil,24015,39.5749,-75.9384,
MD,Charles,24017,38.5077,-76.9899,4
MD,Charles,24017,38.393,-76.9809,4
MD,Dorchester,24019,38.5492,-76.1372,
MD,Dorchester,24019,38.4797,-76.0083,
MD,Frederick,24021,39.4722,-77.3981,1
MD,Garrett,24023,39.5286,-79.2739,
MD,Harford,24025,39.5616,-76.3194,5
MD,Harford,24025,39.5818,-76.1813,5
MD,Howard,24027,39.251,-76.9315,19
MD,Kent,24029,39.1885,-76.1294,
MD,Kent,24029,39.2574,-76.0362,
MD,Montgomery,24031,39.1363,-77.2041,68
MD,Prince Georges,24033,38.7014,-77.0099,36
MD,Prince Georges,24033,38.8313,-76.8436,36
MD,Queen Anne's,24035,38.989,-76.1834,
MD,Queen Anne's,24035,39.0738,-76.0131,
MD,St. Marys,24037,38.3052,-76.6076,
MD,St. Marys,24037,38.2729,-76.6202,
MD,Somerset,24039,38.091,-75.8241,
MD,Somerset,24039,38.119,-75.7449,
MD,Talbot,24041,38.7767,-76.0892,1
MD,Talbot,24041,38.7175,-76.1393,1
MD,Washington,24043,39.6037,-77.8142,
MD,Wicomico,24045,38.3734,-75.621,2
MD,Wicomico,24045,38.252,-75.8431,2
MD,Worcester,24047,38.1195,-75.4976,1
MD,Worcester,24047,38.2186,-75.3568,1
MD,Baltimore City,24510,39.3087,-76.6163,15
MD,Baltimore City,24510,39.2531,-76.5758,15
MA,Barnstable,25001,41.7257,-70.2982,11
MA,Berkshire,25003,42.3706,-73.2064,21
MA,Bristol,25005,41.802,-71.1153,14
MA,Dukes,25007,41.3966,-70.6561,1
MA,Essex,25009,42.6729,-70.9581,41
MA,Franklin,25011,42.5831,-72.5919,2
MA,Hampden,25013,42.1351,-72.6316,9
MA,Hampshire,25015,42.3401,-72.6638,2
MA,Middlesex,25017,42.4855,-71.3918,177
MA,Nantucket,25019,41.2781,-70.0744,
MA,Norfolk,25021,42.155,-71.2248,69
MA,Plymouth,25023,41.9547,-70.8129,20
MA,Suffolk,25025,42.3308,-71.0818,108
MA,Worcester,25027,42.3514,-71.9077,24
MI,Alcona,26001,44.6854,-83.5938,
MI,Alger,26003,46.4099,-86.6018,
MI,Allegan,26005,42.5913,-85.8884,
MI,Alpena,26007,45.0348,-83.6277,
MI,Antrim,26009,45.0003,-85.1377,
MI,Arenac,26011,44.0656,-83.8948,
MI,Baraga,26013,46.6626,-88.3652,
MI,Barry,26015,42.595,-85.309,1
MI,Bay,26017,43.7072,-83.9921,1
MI,Benzie,26019,44.6395,-86.0158,
MI,Berrien,26021,41.9546,-86.4123,2
MI,Branch,26023,41.9161,-85.059,
MI,Calhoun,26025,42.2466,-85.0055,1
MI,Cass,26027,41.9153,-85.9936,
MI,Charlevoix,26029,45.302,-85.1283,1
MI,Cheboygan,26031,45.4468,-84.4999,
MI,Chippewa,26033,46.3031,-84.5921,
MI,Clare,26035,43.9879,-84.8478,1
MI,Clinton,26037,42.9436,-84.6015,2
MI,Crawford,26039,44.6836,-84.6103,
MI,Delta,26041,45.9197,-86.9244,
MI,Dickinson,26043,46.0091,-87.8704,
MI,Eaton,26045,42.5961,-84.8384,2
MI,Emmet,26047,45.5205,-84.8905,
MI,Genesee,26049,43.0217,-83.7067,7
MI,Gladwin,26051,43.9906,-84.3882,
MI,Gogebic,26053,46.4089,-89.6944,
MI,Grand Traverse,26055,44.6709,-85.559,
MI,Gratiot,26057,43.2927,-84.6048,
MI,Hillsdale,26059,41.8878,-84.593,
MI,Houghton,26061,46.8934,-88.6918,
MI,Huron,26063,43.8333,-83.0193,
MI,Ingham,26065,42.5971,-84.3736,11
MI,Ionia,26067,42.9451,-85.0746,
MI,Iosco,26069,44.3559,-83.636,
MI,Iron,26071,46.2087,-88.5305,
MI,Isabella,26073,43.6406,-84.8467,
MI,Jackson,26075,42.2485,-84.4233,1
MI,Kalamazoo,26077,42.2454,-85.5311,
MI,Kalkaska,26079,44.6846,-85.0902,
MI,Kent,26081,43.0322,-85.5492,21
MI,Keweenaw,26083,47.6104,-88.4287,
MI,Lake,26085,43.99,-85.8017,
MI,Lapeer,26087,43.0901,-83.2218,
MI,Leelanau,26089,44.9366,-85.8123,1
MI,Lenawee,26091,41.8951,-84.0664,
MI,Livingston,26093,42.603,-83.9115,6
MI,Luce,26095,46.4707,-85.5443,
MI,Mackinac,26097,46.0812,-85.0921,
MI,Macomb,26099,42.6956,-82.9322,101
MI,Manistee,26101,44.3332,-86.0571,
MI,Marquette,26103,46.4314,-87.6415,
MI,Mason,26105,43.9954,-86.2497,
MI,Mason,26105,43.9392,-86.4421,
MI,Mecosta,26107,43.6409,-85.3245,
MI,Menominee,26109,45.5792,-87.5573,
MI,Midland,26111,43.6468,-84.3879,3
MI,Missaukee,26113,44.3373,-85.0947,
MI,Monroe,26115,41.9292,-83.5373,3
MI,Montcalm,26117,43.311,-85.1524,1
MI,Montmorency,26119,45.0276,-84.1273,
MI,Muskegon,26121,43.2912,-86.1481,
MI,Muskegon,26121,43.2922,-86.3219,
MI,Newaygo,26123,43.5542,-85.8009,
MI,Oakland,26125,42.6604,-83.3855,229
MI,Oceana,26127,43.6407,-86.2673,
MI,Oceana,26127,43.7692,-86.4212,
MI,Ogemaw,26129,44.3349,-84.1266,
MI,Ontonagon,26131,46.6644,-89.315,
MI,Osceola,26133,43.9899,-85.3252,
MI,Oscoda,26135,44.6817,-84.1297,
MI,Otsego,26137,45.0214,-84.5988,1
MI,Ottawa,26139,42.9435,-86.1799,2
MI,Ottawa,26139,42.9601,-85.9939,2
MI,Presque Isle,26141,45.3402,-83.9173,
MI,Roscommon,26143,44.3356,-84.6116,
MI,Saginaw,26145,43.335,-84.0532,1
MI,St. Clair,26147,42.9425,-82.6823,7
MI,St. Joseph,26149,41.9145,-85.5278,
MI,Sanilac,26151,43.4235,-82.8201,
MI,Schoolcraft,26153,46.1967,-86.1995,
MI,Shiawassee,26155,42.9537,-84.1467,
MI,Tuscola,26157,43.4641,-83.4168,1
MI,Van Buren,26159,42.2513,-86.0189,
MI,Washtenaw,26161,42.2534,-83.8384,29
MI,Wayne,26163,42.284,-83.2865,349
MI,Wexford,26165,44.3384,-85.5785,1
MN,Aitkin,27001,46.6083,-93.4154,
MN,Anoka,27003,45.2732,-93.2464,5
MN,Becker,27005,46.9346,-95.6738,
MN,Beltrami,27007,47.9738,-94.9377,
MN,Benton,27009,45.6991,-93.9989,1
MN,Big Stone,27011,45.4261,-96.411,
MN,Blue Earth,27013,44.0346,-94.0671,3
MN,Brown,27015,44.2421,-94.7277,
MN,Carlton,27017,46.5924,-92.6771,
MN,Carver,27019,44.8208,-93.8025,3
MN,Cass,27021,46.9496,-94.3254,
MN,Chippewa,27023,45.0223,-95.5666,
MN,Chisago,27025,45.5025,-92.9083,1
MN,Clay,27027,46.8924,-96.4906,1
MN,Clearwater,27029,47.5776,-95.379,
MN,Cook,27031,47.9027,-90.5344,
MN,Cottonwood,27033,44.0071,-95.1812,
MN,Crow Wing,27035,46.4824,-94.0709,
MN,Dakota,27037,44.6718,-93.0656,7
MN,Dodge,27039,44.0225,-92.862,1
MN,Douglas,27041,45.9337,-95.4535,
MN,Faribault,27043,43.6739,-93.9478,
MN,Fillmore,27045,43.674,-92.0901,2
MN,Freeborn,27047,43.6738,-93.3489,
MN,Goodhue,27049,44.4099,-92.7225,
MN,Grant,27051,45.934,-96.0121,
MN,Hennepin,27053,45.0045,-93.4768,52
MN,Houston,27055,43.6714,-91.4929,
MN,Hubbard,27057,47.1087,-94.9166,
MN,Isanti,27059,45.5615,-93.2952,
MN,Itasca,27061,47.5095,-93.632,
MN,Jackson,27063,43.6741,-95.1541,1
MN,Kanabec,27065,45.9453,-93.2935,
MN,Kandiyohi,27067,45.1524,-95.0048,
MN,Kittson,27069,48.7766,-96.7826,
MN,Koochiching,27071,48.2453,-93.7834,
MN,Lac qui Parle,27073,44.9955,-96.1735,
MN,Lake,27075,47.642,-91.4452,
MN,Lake of the Woods,27077,48.7718,-94.9048,
MN,Le Sueur,27079,44.3714,-93.73,
MN,Lincoln,27081,44.4126,-96.267,
MN,Lyon,27083,44.4135,-95.839,
MN,McLeod,27085,44.8235,-94.2724,
MN,Mahnomen,27087,47.3252,-95.809,
MN,Marshall,27089,48.3581,-96.3685,
MN,Martin,27091,43.6742,-94.5511,5
MN,Meeker,27093,45.1231,-94.5274,
MN,Mille Lacs,27095,45.938,-93.6301,
MN,Morrison,27097,46.0126,-94.2684,
MN,Mower,27099,43.6714,-92.7525,3
MN,Murray,27101,44.0221,-95.7632,
MN,Nicollet,27103,44.35,-94.2474,2
MN,Nobles,27105,43.6742,-95.7534,
MN,Norman,27107,47.3265,-96.4551,
MN,Olmsted,27109,44.0036,-92.4018,12
MN,Otter Tail,27111,46.4088,-95.7079,
MN,Pennington,27113,48.0662,-96.0367,
MN,Pine,27115,46.1208,-92.7414,
MN,Pipestone,27117,44.023,-96.2586,
MN,Polk,27119,47.7738,-96.4018,
MN,Pope,27121,45.5861,-95.4445,
MN,Ramsey,27123,45.0171,-93.0994,17
MN,Red Lake,27125,47.8717,-96.0953,
MN,Redwood,27127,44.4037,-95.2539,
MN,Renville,27129,44.7268,-94.9472,1
MN,Rice,27131,44.3541,-93.2966,1
MN,Rock,27133,43.6747,-96.2532,
MN,Roseau,27135,48.7751,-95.8107,
MN,St. Louis,27137,47.604,-92.4708,1
MN,Scott,27139,44.6484,-93.5358,2
MN,Sherburne,27141,45.4439,-93.7745,
MN,Sibley,27143,44.5795,-94.2321,
MN,Stearns,27145,45.5522,-94.613,4
MN,Steele,27147,44.0223,-93.226,2
MN,Stevens,27149,45.5861,-96.0003,
MN,Swift,27151,45.2827,-95.6813,
MN,Todd,27153,46.0706,-94.8976,
MN,Traverse,27155,45.7721,-96.4716,
MN,Wabasha,27157,44.2842,-92.2303,1
MN,Wadena,27159,46.5858,-94.9693,
MN,Waseca,27161,44.0221,-93.5873,1
MN,Washington,27163,45.0383,-92.8839,4
MN,Watonwan,27165,43.9783,-94.6141,
MN,Wilkin,27167,46.3571,-96.4683,
MN,Winona,27169,43.9869,-91.7791,
MN,Wright,27171,45.1739,-93.963,3
MN,Yellow Medicine,27173,44.7162,-95.8683,
MS,Adams,28001,31.4832,-91.3531,1
MS,Alcorn,28003,34.8808,-88.5803,
MS,Amite,28005,31.1744,-90.8045,
MS,Attala,28007,33.0863,-89.5817,1
MS,Benton,28009,34.8173,-89.1885,
MS,Bolivar,28011,33.7955,-90.8804,2
MS,Calhoun,28013,33.9364,-89.3364,
MS,Carroll,28015,33.4485,-89.9202,
MS,Chickasaw,28017,33.9208,-88.9479,
MS,Choctaw,28019,33.3473,-89.2484,
MS,Claiborne,28021,31.9737,-90.9118,
MS,Clarke,28023,32.0414,-88.6894,
MS,Clay,28025,33.6557,-88.7815,1
MS,Coahoma,28027,34.2292,-90.6027,5
MS,Copiah,28029,31.8692,-90.4488,2
MS,Covington,28031,31.6332,-89.5526,
MS,DeSoto,28033,34.8754,-89.9918,13
MS,Forrest,28035,31.1889,-89.2579,5
MS,Franklin,28037,31.4772,-90.8978,2
MS,George,28039,30.8626,-88.644,1
MS,Greene,28041,31.2142,-88.6392,
MS,Grenada,28043,33.77,-89.802,1
MS,Hancock,28045,30.4164,-89.4887,4
MS,Harrison,28047,30.515,-89.1185,10
MS,Hinds,28049,32.2667,-90.4427,14
MS,Holmes,28051,33.1235,-90.0922,3
MS,Humphreys,28053,33.1287,-90.5265,1
MS,Issaquena,28055,32.7414,-90.9892,
MS,Itawamba,28057,34.28,-88.3613,3
MS,Jackson,28059,30.5459,-88.6362,5
MS,Jasper,28061,32.0191,-89.1189,
MS,Jefferson,28063,31.7342,-91.0371,
MS,Jefferson Davis,28065,31.5696,-89.823,
MS,Jones,28067,31.6226,-89.1688,1
MS,Kemper,28069,32.7546,-88.6412,
MS,Lafayette,28071,34.3568,-89.4849,2
MS,Lamar,28073,31.2059,-89.5087,
MS,Lauderdale,28075,32.4043,-88.6626,
MS,Lawrence,28077,31.5502,-90.107,1
MS,Leake,28079,32.7535,-89.5241,1
MS,Lee,28081,34.2899,-88.6804,5
MS,Leflore,28083,33.5505,-90.301,7
MS,Lincoln,28085,31.5324,-90.454,1
MS,Lowndes,28087,33.4729,-88.4433,4
MS,Madison,28089,32.6347,-90.0338,7
MS,Marion,28091,31.2308,-89.8224,
MS,Marshall,28093,34.7623,-89.5031,2
MS,Monroe,28095,33.8923,-88.4804,2
MS,Montgomery,28097,33.4941,-89.6164,
MS,Neshoba,28099,32.7535,-89.1176,
MS,Newton,28101,32.4002,-89.1188,
MS,Noxubee,28103,33.1101,-88.5698,
MS,Oktibbeha,28105,33.425,-88.8793,
MS,Panola,28107,34.3639,-89.9505,1
MS,Pearl River,28109,30.7686,-89.5898,9
MS,Perry,28111,31.172,-88.9923,1
MS,Pike,28113,31.1749,-90.4042,2
MS,Pontotoc,28115,34.2254,-89.0374,
MS,Prentiss,28117,34.6183,-88.5201,
MS,Quitman,28119,34.2514,-90.2891,
MS,Rankin,28121,32.2641,-89.9457,7
MS,Scott,28123,32.4064,-89.5376,
MS,Sharkey,28125,32.8797,-90.8132,
MS,Simpson,28127,31.9132,-89.9195,1
MS,Smith,28129,32.0177,-89.5067,1
MS,Stone,28131,30.79,-89.1177,
MS,Sunflower,28133,33.6023,-90.5886,
MS,Tallahatchie,28135,33.9505,-90.1732,
MS,Tate,28137,34.6503,-89.9448,
MS,Tippah,28139,34.7684,-88.9089,3
MS,Tishomingo,28141,34.7404,-88.2393,
MS,Tunica,28143,34.652,-90.3755,1
MS,Union,28145,34.4905,-89.0038,1
MS,Walthall,28147,31.1485,-90.1061,1
MS,Warren,28149,32.3573,-90.8521,
MS,Washington,28151,33.2836,-90.9474,1
MS,Wayne,28153,31.6408,-88.6958,
MS,Webster,28155,33.6131,-89.2848,1
MS,Wilkinson,28157,31.161,-91.3109,1
MS,Winston,28159,33.0885,-89.0344,1
MS,Yalobusha,28161,34.0282,-89.7076,
MS,Yazoo,28163,32.7804,-90.3965,1
MO,Adair,29001,40.1906,-92.6007,
MO,Andrew,29003,39.9834,-94.8021,
MO,Atchison,29005,40.4307,-95.427,
MO,Audrain,29007,39.2158,-91.8416,
MO,Barry,29009,36.7099,-93.8291,
MO,Barton,29011,37.5023,-94.3471,
MO,Bates,29013,38.2573,-94.34,1
MO,Benton,29015,38.2948,-93.2879,
MO,Bollinger,29017,37.3222,-90.0259,
MO,Boone,29019,38.9907,-92.3096,10
MO,Buchanan,29021,39.6598,-94.8062,
MO,Butler,29023,36.7164,-90.4065,
MO,Caldwell,29025,39.6557,-93.9828,
MO,Callaway,29027,38.8355,-91.926,
MO,Camden,29029,38.0271,-92.766,
MO,Cape Girardeau,29031,37.3839,-89.6845,
MO,Carroll,29033,39.4268,-93.5052,
MO,Carter,29035,36.9413,-90.9623,
MO,Cass,29037,38.647,-94.3548,6
MO,Cedar,29039,37.7238,-93.8566,
MO,Chariton,29041,39.5145,-92.9626,
MO,Christian,29043,36.9696,-93.1889,1
MO,Clark,29045,40.4104,-91.7384,
MO,Clay,29047,39.3105,-94.4208,
MO,Clinton,29049,39.6018,-94.4046,
MO,Cole,29051,38.5055,-92.2816,3
MO,Cooper,29053,38.8439,-92.8103,
MO,Crawford,29055,37.9764,-91.304,
MO,Dade,29057,37.432,-93.8502,
MO,Dallas,29059,37.6804,-93.0236,
MO,Daviess,29061,39.9607,-93.9855,
MO,DeKalb,29063,39.8932,-94.4047,
MO,Dent,29065,37.6066,-91.5079,
MO,Douglas,29067,36.9326,-92.4988,
MO,Dunklin,29069,36.2718,-90.0909,1
MO,Franklin,29071,38.4112,-91.075,
MO,Gasconade,29073,38.4409,-91.5079,
MO,Gentry,29075,40.2121,-94.4099,
MO,Greene,29077,37.2581,-93.342,10
MO,Grundy,29079,40.114,-93.5653,
MO,Harrison,29081,40.3547,-93.9921,
MO,Henry,29083,38.3852,-93.7927,1
MO,Hickory,29085,37.9408,-93.3207,
MO,Holt,29087,40.0946,-95.215,
MO,Howard,29089,39.1428,-92.6958,
MO,Howell,29091,36.774,-91.8865,
MO,Iron,29093,37.5552,-90.7735,
MO,Jackson,29095,39.0085,-94.3461,18
MO,Jasper,29097,37.2035,-94.3406,1
MO,Jefferson,29099,38.261,-90.5378,
MO,Johnson,29101,38.7441,-93.8063,1
MO,Knox,29103,40.1282,-92.1481,
MO,Laclede,29105,37.6583,-92.5903,
MO,Lafayette,29107,39.0656,-93.7855,
MO,Lawrence,29109,37.1063,-93.8329,
MO,Lewis,29111,40.0969,-91.7222,
MO,Lincoln,29113,39.0581,-90.9602,
MO,Linn,29115,39.8702,-93.1072,
MO,Livingston,29117,39.7821,-93.5483,
MO,McDonald,29119,36.6287,-94.3484,
MO,Macon,29121,39.8308,-92.5646,
MO,Madison,29123,37.4781,-90.345,
MO,Maries,29125,38.1616,-91.9249,
MO,Marion,29127,39.806,-91.6224,
MO,Mercer,29129,40.4223,-93.5685,
MO,Miller,29131,38.2145,-92.4284,
MO,Mississippi,29133,36.8281,-89.2911,
MO,Moniteau,29135,38.6327,-92.583,
MO,Monroe,29137,39.4955,-92.0007,
MO,Montgomery,29139,38.9415,-91.4702,
MO,Morgan,29141,38.4239,-92.8861,
MO,New Madrid,29143,36.5942,-89.6516,
MO,Newton,29145,36.9055,-94.3392,
MO,Nodaway,29147,40.3607,-94.8834,
MO,Oregon,29149,36.6867,-91.4033,
MO,Osage,29151,38.4604,-91.8618,
MO,Ozark,29153,36.6493,-92.4446,
MO,Pemiscot,29155,36.2111,-89.7858,
MO,Perry,29157,37.7071,-89.8244,
MO,Pettis,29159,38.7283,-93.2851,
MO,Phelps,29161,37.8771,-91.7924,
MO,Pike,29163,39.3438,-91.1714,
MO,Platte,29165,39.3804,-94.7736,
MO,Polk,29167,37.6165,-93.4005,
MO,Pulaski,29169,37.8246,-92.2076,1
MO,Putnam,29171,40.4789,-93.0161,
MO,Ralls,29173,39.5276,-91.5219,
MO,Randolph,29175,39.4402,-92.4971,
MO,Ray,29177,39.3524,-93.9899,
MO,Reynolds,29179,37.3623,-90.9691,
MO,Ripley,29181,36.6528,-90.8639,
MO,St. Charles,29183,38.7819,-90.6752,2
MO,St. Clair,29185,38.0371,-93.776,
MO,Ste. Genevieve,29186,37.894,-90.1952,
MO,St. Francois,29187,37.8104,-90.4729,
MO,St. Louis,29189,38.6407,-90.443,22
MO,Saline,29195,39.1366,-93.2022,
MO,Schuyler,29197,40.4703,-92.5209,
MO,Scotland,29199,40.4526,-92.1471,
MO,Scott,29201,37.053,-89.5686,1
MO,Shannon,29203,37.1574,-91.4005,
MO,Shelby,29205,39.7978,-92.0766,
MO,Stoddard,29207,36.8555,-89.9444,
MO,Stone,29209,36.7469,-93.4559,
MO,Sullivan,29211,40.2107,-93.1115,
MO,Taney,29213,36.6547,-93.041,
MO,Texas,29215,37.3173,-91.9651,
MO,Vernon,29217,37.8506,-94.3424,
MO,Warren,29219,38.7646,-91.1607,
MO,Washington,29221,37.9617,-90.8774,
MO,Wayne,29223,37.1127,-90.4614,
MO,Webster,29225,37.2809,-92.8759,
MO,Worth,29227,40.4791,-94.4222,
MO,Wright,29229,37.2701,-92.4687,
MO,St. Louis City,29510,38.6358,-90.245,7
MT,Beaverhead,30001,45.1328,-112.8988,
MT,Big Horn,30003,45.4235,-107.4897,
MT,Blaine,30005,48.4327,-108.9586,
MT,Broadwater,30007,46.3319,-111.4955,1
MT,Carbon,30009,45.2273,-109.0283,
MT,Carter,30011,45.5168,-104.5362,
MT,Cascade,30013,47.308,-111.3472,
MT,Chouteau,30015,47.8806,-110.4352,
MT,Custer,30017,46.2527,-105.5718,
MT,Daniels,30019,48.7838,-105.5485,
MT,Dawson,30021,47.2664,-104.8994,
MT,Deer Lodge,30023,46.0608,-113.0677,
MT,Fallon,30025,46.334,-104.4174,
MT,Fergus,30027,47.2636,-109.2243,
MT,Flathead,30029,48.2951,-114.0496,2
MT,Gallatin,30031,45.5403,-111.1703,7
MT,Garfield,30033,47.2777,-106.9928,
MT,Glacier,30035,48.7058,-112.995,
MT,Golden Valley,30037,46.3812,-109.1749,
MT,Granite,30039,46.4045,-113.4403,
MT,Hill,30041,48.6282,-110.1113,
MT,Jefferson,30043,46.1485,-112.0937,
MT,Judith Basin,30045,47.0455,-110.2661,
MT,Lake,30047,47.6459,-114.0892,0
MT,Lewis and Clark,30049,47.1223,-112.3903,3
MT,Liberty,30051,48.5617,-111.0246,
MT,Lincoln,30053,48.5425,-115.4051,
MT,McCone,30055,47.6452,-105.7953,
MT,Madison,30057,45.3008,-111.9203,1
MT,Meagher,30059,46.5982,-110.8856,
MT,Mineral,30061,47.1474,-114.9985,
MT,Missoula,30063,47.0364,-113.9237,4
MT,Musselshell,30065,46.4966,-108.3977,
MT,Park,30067,45.4884,-110.5263,
MT,Petroleum,30069,47.1175,-108.2501,
MT,Phillips,30071,48.2591,-107.9133,
MT,Pondera,30073,48.2283,-112.2288,
MT,Powder River,30075,45.395,-105.6301,
MT,Powell,30077,46.8566,-112.9362,
MT,Prairie,30079,46.8605,-105.378,
MT,Ravalli,30081,46.0817,-114.1207,1
MT,Richland,30083,47.7879,-104.5613,
MT,Roosevelt,30085,48.2946,-105.0165,1
MT,Rosebud,30087,46.2297,-106.7308,
MT,Sanders,30089,47.6749,-115.1333,
MT,Sheridan,30091,48.7212,-104.5046,
MT,Silver Bow,30093,45.9024,-112.6567,2
MT,Stillwater,30095,45.6694,-109.3948,
MT,Sweet Grass,30097,45.8137,-109.941,
MT,Teton,30099,47.8373,-112.2408,
MT,Toole,30101,48.6552,-111.6957,
MT,Treasure,30103,46.2115,-107.2717,
MT,Valley,30105,48.3653,-106.6675,
MT,Wheatland,30107,46.4664,-109.8444,
MT,Wibaux,30109,46.9653,-104.249,
MT,Yellowstone,30111,45.9372,-108.2744,5
NE,Adams,31001,40.5245,-98.5012,1
NE,Antelope,31003,42.177,-98.0667,
NE,Arthur,31005,41.5689,-101.6959,
NE,Banner,31007,41.546,-103.7104,
NE,Blaine,31009,41.9128,-99.9769,
NE,Boone,31011,41.7068,-98.0673,
NE,Box Butte,31013,42.2198,-103.0857,
NE,Boyd,31015,42.8997,-98.7665,
NE,Brown,31017,42.43,-99.9295,
NE,Buffalo,31019,40.8551,-99.075,1
NE,Burt,31021,41.8515,-96.3287,
NE,Butler,31023,41.2242,-97.1306,
NE,Cass,31025,40.9098,-96.1408,1
NE,Cedar,31027,42.5993,-97.2523,
NE,Chase,31029,40.5242,-101.6979,
NE,Cherry,31031,42.5449,-101.1186,
NE,Cheyenne,31033,41.2198,-102.995,
NE,Clay,31035,40.5244,-98.0512,
NE,Colfax,31037,41.5731,-97.0867,
NE,Cuming,31039,41.9164,-96.7874,
NE,Custer,31041,41.3943,-99.7262,
NE,Dakota,31043,42.3911,-96.5646,
NE,Dawes,31045,42.7197,-103.1355,
NE,Dawson,31047,40.8699,-99.8195,
NE,Deuel,31049,41.1116,-102.3339,
NE,Dixon,31051,42.4932,-96.8678,
NE,Dodge,31053,41.5777,-96.6542,
NE,Douglas,31055,41.2953,-96.1544,34
NE,Dundy,31057,40.1762,-101.6879,
NE,Fillmore,31059,40.5247,-97.5964,
NE,Franklin,31061,40.1764,-98.9527,
NE,Frontier,31063,40.5301,-100.3942,
NE,Furnas,31065,40.1765,-99.9123,
NE,Gage,31067,40.2619,-96.6893,
NE,Garden,31069,41.6194,-102.3354,
NE,Garfield,31071,41.9143,-98.9914,
NE,Gosper,31073,40.5148,-99.8307,
NE,Grant,31075,41.915,-101.7405,
NE,Greeley,31077,41.5675,-98.5212,
NE,Hall,31079,40.8725,-98.5022,
NE,Hamilton,31081,40.8735,-98.0233,
NE,Harlan,31083,40.1765,-99.4046,
NE,Hayes,31085,40.5248,-101.0618,
NE,Hitchcock,31087,40.1763,-101.0422,
NE,Holt,31089,42.4557,-98.7838,
NE,Hooker,31091,41.9159,-101.1353,
NE,Howard,31093,41.22,-98.5171,
NE,Jefferson,31095,40.1757,-97.1426,
NE,Johnson,31097,40.3926,-96.2649,
NE,Kearney,31099,40.5067,-98.948,
NE,Keith,31101,41.1988,-101.6613,
NE,Keya Paha,31103,42.8789,-99.7124,
NE,Kimball,31105,41.1977,-103.715,
NE,Knox,31107,42.6369,-97.8919,2
NE,Lancaster,31109,40.7841,-96.6878,2
NE,Lincoln,31111,41.0478,-100.7452,3
NE,Logan,31113,41.5665,-100.4829,
NE,Loup,31115,41.9138,-99.4544,
NE,McPherson,31117,41.5681,-101.0605,
NE,Madison,31119,41.9167,-97.6008,
NE,Merrick,31121,41.1698,-98.0376,
NE,Morrill,31123,41.716,-103.0105,
NE,Nance,31125,41.3973,-97.9923,
NE,Nemaha,31127,40.3881,-95.8486,1
NE,Nuckolls,31129,40.1764,-98.0472,
NE,Otoe,31131,40.6485,-96.1348,
NE,Pawnee,31133,40.1314,-96.237,
NE,Perkins,31135,40.8509,-101.6496,
NE,Phelps,31137,40.5111,-99.4145,
NE,Pierce,31139,42.2644,-97.6013,
NE,Platte,31141,41.5701,-97.5198,
NE,Polk,31143,41.1869,-97.5684,
NE,Red Willow,31145,40.1758,-100.4768,
NE,Richardson,31147,40.1249,-95.7167,
NE,Rock,31149,42.4213,-99.45,
NE,Saline,31151,40.524,-97.1408,
NE,Sarpy,31153,41.1131,-96.1119,2
NE,Saunders,31155,41.2261,-96.6373,
NE,Scotts Bluff,31157,41.8506,-103.708,
NE,Seward,31159,40.8723,-97.1395,
NE,Sheridan,31161,42.5048,-102.409,
NE,Sherman,31163,41.2205,-98.9763,
NE,Sioux,31165,42.4877,-103.7589,
NE,Stanton,31167,41.9169,-97.1939,
NE,Thayer,31169,40.1763,-97.5947,
NE,Thomas,31171,41.9135,-100.5559,
NE,Thurston,31173,42.1582,-96.5441,
NE,Valley,31175,41.5673,-98.9819,
NE,Washington,31177,41.5311,-96.2218,
NE,Wayne,31179,42.2092,-97.1193,
NE,Webster,31181,40.1764,-98.4999,
NE,Wheeler,31183,41.9148,-98.5282,
NE,York,31185,40.8727,-97.5971,
NV,Churchill,32001,39.5809,-118.3356,
NV,Clark,32003,36.2145,-115.0187,126
NV,Douglas,32005,38.9123,-119.6164,
NV,Elko,32007,41.1458,-115.3578,
NV,Esmeralda,32009,37.7847,-117.6324,
NV,Eureka,32011,39.9839,-116.2686,
NV,Humboldt,32013,41.4068,-118.112,
NV,Lander,32015,39.9338,-117.0379,
NV,Lincoln,32017,37.6433,-114.8775,
NV,Lyon,32019,39.018,-119.189,
NV,Mineral,32021,38.5388,-118.4352,
NV,Nye,32023,38.0466,-116.4732,
NV,Pershing,32027,40.4404,-118.4044,
NV,Storey,32029,39.4466,-119.5291,
NV,Washoe,32031,40.6639,-119.6637,25
NV,White Pine,32033,39.4422,-114.9016,
NV,Carson City,32510,39.1507,-119.7465,1
NH,Belknap,33001,43.5188,-71.4233,3
NH,Carroll,33003,43.8739,-71.2028,5
NH,Cheshire,33005,42.9193,-72.2512,1
NH,Coos,33007,44.6893,-71.3057,1
NH,Grafton,33009,43.9409,-71.8205,13
NH,Hillsborough,33011,42.9153,-71.716,12
NH,Merrimack,33013,43.2977,-71.6802,4
NH,Rockingham,33015,42.9877,-71.1251,25
NH,Strafford,33017,43.2975,-71.0293,1
NH,Sullivan,33019,43.3612,-72.2223,
NJ,Atlantic,34001,39.4825,-74.6766,4
NJ,Bergen,34003,40.9001,-73.9344,363
NJ,Bergen,34003,40.9615,-74.0781,363
NJ,Burlington,34005,39.8774,-74.6679,21
NJ,Camden,34007,39.8038,-74.9599,15
NJ,Cape May,34009,39.1519,-74.8072,2
NJ,Cumberland,34011,39.3736,-75.1099,1
NJ,Essex,34013,40.69,-74.1293,107
NJ,Essex,34013,40.7881,-74.2481,107
NJ,Gloucester,34015,39.7173,-75.1419,6
NJ,Hudson,34017,40.7068,-74.0825,97
NJ,Hudson,34017,40.7409,-74.0778,97
NJ,Hunterdon,34019,40.5672,-74.9123,14
NJ,Mercer,34021,40.2833,-74.7014,30
NJ,Middlesex,34023,40.4394,-74.4113,116
NJ,Monmouth,34025,40.259,-74.2257,92
NJ,Morris,34027,40.8621,-74.5445,64
NJ,Ocean,34029,39.9092,-74.2988,62
NJ,Passaic,34031,41.0337,-74.3003,67
NJ,Salem,34033,39.5873,-75.3459,
NJ,Somerset,34035,40.5637,-74.6164,34
NJ,Sussex,34037,41.1395,-74.6902,6
NJ,Union,34039,40.6572,-74.1597,81
NJ,Union,34039,40.66,-74.3104,81
NJ,Warren,34041,40.8574,-74.997,5
NM,Bernalillo,35001,35.0515,-106.6702,32
NM,Catron,35003,33.9153,-108.4047,
NM,Chaves,35005,33.3632,-104.467,
NM,Cibola,35006,34.9126,-107.9997,
NM,Colfax,35007,36.6061,-104.6468,
NM,Curry,35009,34.5741,-103.3468,
NM,De Baca,35011,34.3424,-104.412,
NM,Dona Ana,35013,32.3527,-106.8328,2
NM,Eddy,35015,32.4715,-104.3043,
NM,Grant,35017,32.739,-108.3822,
NM,Guadalupe,35019,34.8633,-104.7907,
NM,Harding,35021,35.858,-103.8199,
NM,Hidalgo,35023,31.9142,-108.7148,
NM,Lea,35025,32.7922,-103.4124,1
NM,Lincoln,35027,33.7453,-105.4592,
NM,Los Alamos,35028,35.8693,-106.3072,
NM,Luna,35029,32.1822,-107.7497,
NM,McKinley,35031,35.5806,-108.2619,1
NM,Mora,35033,36.0099,-104.9446,
NM,Otero,35035,32.6132,-105.7417,
NM,Quay,35037,35.1043,-103.5497,
NM,Rio Arriba,35039,36.5096,-106.6931,
NM,Roosevelt,35041,34.0213,-103.4802,
NM,Sandoval,35043,35.6887,-106.8659,7
NM,San Juan,35045,36.5085,-108.3206,
NM,San Miguel,35047,35.4803,-104.8159,1
NM,Santa Fe,35049,35.5068,-105.9761,8
NM,Sierra,35051,33.1305,-107.1925,
NM,Socorro,35053,34.0072,-106.9303,2
NM,Taos,35055,36.5783,-105.6309,3
NM,Torrance,35057,34.6405,-105.8508,
NM,Union,35059,36.4818,-103.471,
NM,Valencia,35061,34.7154,-106.8091,
NY,Albany,36001,42.6002,-73.9735,163
NY,Allegany,36003,42.2574,-78.0276,2
NY,Bronx,36005,40.8527,-73.8669,
NY,Bronx,36005,40.825,-73.8707,
NY,Broome,36007,42.1602,-75.8196,2
NY,Cattaraugus,36009,42.2486,-78.6789,
NY,Cayuga,36011,42.9169,-76.5543,
NY,Chautauqua,36013,42.2282,-79.3664,
NY,Chemung,36015,42.1413,-76.76,
NY,Chenango,36017,42.4936,-75.6115,2
NY,Clinton,36019,44.7462,-73.6781,2
NY,Columbia,36021,42.2501,-73.6318,1
NY,Cortland,36023,42.595,-76.0702,
NY,Delaware,36025,42.1982,-74.9664,1
NY,Dutchess,36027,41.7652,-73.7428,49
NY,Erie,36029,42.7621,-78.7308,31
NY,Essex,36031,44.1172,-73.7727,1
NY,Franklin,36033,44.5929,-74.3038,
NY,Fulton,36035,43.1139,-74.4222,1
NY,Genesee,36037,43.001,-78.1936,1
NY,Greene,36039,42.2766,-74.1227,2
NY,Hamilton,36041,43.6611,-74.4974,2
NY,Herkimer,36043,43.4196,-74.9626,2
NY,Jefferson,36045,44.0409,-75.9102,1
NY,Kings,36047,40.6447,-73.9472,
NY,Lewis,36049,43.7847,-75.4488,
NY,Livingston,36051,42.728,-77.7754,1
NY,Madison,36053,42.9129,-75.6697,
NY,Monroe,36055,43.1464,-77.6958,42
NY,Montgomery,36057,42.9023,-74.4397,2
NY,Nassau,36059,40.7411,-73.5885,1234
NY,New York,36061,40.7786,-73.9689,8115
NY,New York (Manhattan),36061,40.7787,-73.9664,8115
NY,Niagara,36063,43.2011,-78.7427,3
NY,Oneida,36065,43.2418,-75.4359,2
NY,Onondaga,36067,43.0058,-76.1946,8
NY,Ontario,36069,42.8529,-77.2998,3
NY,Orange,36071,41.4022,-74.3056,88
NY,Orleans,36073,43.2522,-78.2312,
NY,Oswego,36075,43.4261,-76.1412,
NY,Otsego,36077,42.6338,-75.0326,
NY,Putnam,36079,41.4267,-73.7495,7
NY,Queens,36081,40.7067,-73.8177,
NY,Queens,36081,40.7884,-73.8481,
NY,Rensselaer,36083,42.7111,-73.5097,8
NY,Richmond,36085,40.5802,-74.1557,
NY,Richmond,36085,40.6435,-74.1343,
NY,Rockland,36087,41.1529,-74.0241,262
NY,St. Lawrence,36089,44.4921,-75.0625,
NY,Saratoga,36091,43.1074,-73.8639,24
NY,Schenectady,36093,42.8182,-74.0585,21
NY,Schoharie,36095,42.5882,-74.4421,1
NY,Schuyler,36097,42.3938,-76.8752,
NY,Seneca,36099,42.781,-76.8237,
NY,Steuben,36101,42.2678,-77.3838,
NY,Suffolk,36103,40.878,-72.8573,662
NY,Sullivan,36105,41.7164,-74.7681,8
NY,Tioga,36107,42.1703,-76.3063,1
NY,Tompkins,36109,42.452,-76.4737,7
NY,Ulster,36111,41.8881,-74.2585,38
NY,Warren,36113,43.561,-73.846,1
NY,Washington,36115,43.3137,-73.4307,1
NY,Wayne,36117,43.1566,-77.0292,1
NY,Westchester,36119,40.9601,-73.8998,1385
NY,Westchester,36119,41.1643,-73.7553,1385
NY,Wyoming,36121,42.7023,-78.2245,2
NY,Yates,36123,42.6335,-77.1055,
NC,Alamance,37001,36.044,-79.3995,1
NC,Alexander,37003,35.9211,-81.1772,
NC,Alleghany,37005,36.4915,-81.1286,
NC,Anson,37007,34.9738,-80.1027,
NC,Ashe,37009,36.4346,-81.501,
NC,Avery,37011,36.0766,-81.9224,
NC,Beaufort,37013,35.4947,-76.8631,
NC,Bertie,37015,36.1197,-76.7246,
NC,Bertie,37015,36.0662,-76.9791,
NC,Bladen,37017,34.6143,-78.5632,
NC,Brunswick,37019,33.9633,-78.0599,3
NC,Brunswick,37019,34.0747,-78.2441,3
NC,Buncombe,37021,35.6112,-82.5302,
NC,Burke,37023,35.7495,-81.7045,
NC,Cabarrus,37025,35.3868,-80.5519,2
NC,Caldwell,37027,35.953,-81.5465,
NC,Camden,37029,36.3902,-76.2101,
NC,Camden,37029,36.2239,-76.0277,
NC,Carteret,37031,34.8306,-76.6707,
NC,Caswell,37033,36.3934,-79.3337,
NC,Catawba,37035,35.6626,-81.2144,1
NC,Chatham,37037,35.7027,-79.2553,3
NC,Cherokee,37039,35.1339,-84.0635,
NC,Chowan,37041,36.1507,-76.608,
NC,Chowan,37041,36.1513,-76.6914,
NC,Clay,37043,35.0572,-83.7502,
NC,Cleveland,37045,35.334,-81.5554,1
NC,Columbus,37047,34.2655,-78.655,
NC,Craven,37049,35.1262,-77.0969,2
NC,Cumberland,37051,35.0485,-78.8273,2
NC,Currituck,37053,36.4011,-76.0141,
NC,Currituck,37053,36.2197,-75.9184,
NC,Dare,37055,35.7715,-75.8009,
NC,Davidson,37057,35.7932,-80.2127,1
NC,Davie,37059,35.9292,-80.5446,
NC,Duplin,37061,34.9365,-77.9333,
NC,Durham,37063,36.0359,-78.8764,37
NC,Edgecombe,37065,35.9129,-77.5971,
NC,Forsyth,37067,36.1304,-80.2563,8
NC,Franklin,37069,36.0827,-78.2857,
NC,Gaston,37071,35.2945,-81.1801,1
NC,Gates,37073,36.4449,-76.7011,
NC,Graham,37075,35.3502,-83.8335,
NC,Granville,37077,36.304,-78.653,1
NC,Greene,37079,35.4852,-77.6756,
NC,Guilford,37081,36.0794,-79.789,7
NC,Halifax,37083,36.2575,-77.6519,
NC,Harnett,37085,35.3687,-78.8693,7
NC,Haywood,37087,35.5561,-82.9822,
NC,Henderson,37089,35.3362,-82.4799,
NC,Hertford,37091,36.359,-76.9837,
NC,Hertford,37091,36.3111,-76.7495,
NC,Hoke,37093,35.0174,-79.2371,1
NC,Hyde,37095,35.5318,-76.2485,
NC,Iredell,37097,35.8072,-80.8736,2
NC,Jackson,37099,35.2874,-83.1408,
NC,Johnston,37101,35.5176,-78.3657,3
NC,Jones,37103,35.0222,-77.3555,
NC,Lee,37105,35.475,-79.1716,1
NC,Lenoir,37107,35.2393,-77.6416,
NC,Lincoln,37109,35.4862,-81.2239,1
NC,McDowell,37111,35.6813,-82.0487,
NC,Macon,37113,35.1504,-83.4221,
NC,Madison,37115,35.8581,-82.7057,
NC,Martin,37117,35.8416,-77.1072,
NC,Mecklenburg,37119,35.2468,-80.8328,41
NC,Mitchell,37121,36.0133,-82.1634,
NC,Montgomery,37123,35.3324,-79.9054,
NC,Moore,37125,35.3107,-79.4813,2
NC,Nash,37127,35.9672,-77.9864,
NC,New Hanover,37129,34.1047,-77.8921,1
NC,New Hanover,37129,34.2422,-77.8846,1
NC,Northampton,37131,36.4177,-77.3967,
NC,Onslow,37133,34.7374,-77.4342,1
NC,Orange,37135,36.0614,-79.1205,6
NC,Pamlico,37137,35.1407,-76.7488,
NC,Pasquotank,37139,36.2974,-76.2867,1
NC,Pasquotank,37139,36.2046,-76.1331,1
NC,Pender,37141,34.5255,-77.907,
NC,Pender,37141,34.386,-77.6199,
NC,Perquimans,37143,36.2069,-76.4419,
NC,Perquimans,37143,36.141,-76.3487,
NC,Person,37145,36.3901,-78.9717,
NC,Pitt,37147,35.5935,-77.3748,1
NC,Polk,37149,35.2793,-82.1696,
NC,Randolph,37151,35.7103,-79.806,
NC,Richmond,37153,35.0059,-79.748,
NC,Robeson,37155,34.6401,-79.1035,
NC,Rockingham,37157,36.3961,-79.7751,
NC,Rowan,37159,35.6396,-80.5247,1
NC,Rutherford,37161,35.4023,-81.9202,
NC,Sampson,37163,34.9915,-78.3712,1
NC,Scotland,37165,34.8411,-79.4805,1
NC,Stanly,37167,35.312,-80.2507,
NC,Stokes,37169,36.4018,-80.2395,
NC,Surry,37171,36.4148,-80.6882,
NC,Swain,37173,35.4867,-83.4927,
NC,Transylvania,37175,35.2022,-82.7983,
NC,Tyrrell,37177,35.8161,-76.2118,
NC,Union,37179,34.9884,-80.5307,5
NC,Vance,37181,36.3648,-78.4083,
NC,Wake,37183,35.7901,-78.6504,33
NC,Warren,37185,36.3966,-78.1069,
NC,Washington,37187,35.8221,-76.5767,
NC,Watauga,37189,36.2313,-81.6969,2
NC,Wayne,37191,35.3638,-78.004,1
NC,Wilkes,37193,36.2065,-81.1638,
NC,Wilson,37195,35.7048,-77.9185,2
NC,Yadkin,37197,36.1605,-80.6653,
NC,Yancey,37199,35.8989,-82.3076,
ND,Adams,38001,46.0969,-102.5285,
ND,Barnes,38003,46.9361,-98.0716,
ND,Benson,38005,48.0694,-99.366,
ND,Billings,38007,47.0234,-103.3764,
ND,Bottineau,38009,48.7921,-100.8335,
ND,Bowman,38011,46.1126,-103.5207,
ND,Burke,38013,48.7909,-102.5182,
ND,Burleigh,38015,46.9774,-100.4688,15
ND,Cass,38017,46.933,-97.2481,1
ND,Cavalier,38019,48.7721,-98.465,
ND,Dickey,38021,46.1102,-98.5045,
ND,Divide,38023,48.8149,-103.4873,
ND,Dunn,38025,47.3568,-102.6183,
ND,Eddy,38027,47.7176,-98.9016,
ND,Emmons,38029,46.2851,-100.2388,
ND,Foster,38031,47.4571,-98.8831,
ND,Golden Valley,38033,46.9402,-103.8467,
ND,Grand Forks,38035,47.9219,-97.457,
ND,Grant,38037,46.3583,-101.6397,
ND,Griggs,38039,47.4572,-98.2371,
ND,Hettinger,38041,46.4326,-102.4603,
ND,Kidder,38043,46.9802,-99.7801,
ND,LaMoure,38045,46.4569,-98.5355,
ND,Logan,38047,46.4574,-99.4775,
ND,McHenry,38049,48.2346,-100.6363,
ND,McIntosh,38051,46.1119,-99.4412,
ND,McKenzie,38053,47.7402,-103.3953,
ND,McLean,38055,47.607,-101.3219,
ND,Mercer,38057,47.3092,-101.8315,
ND,Morton,38059,46.7161,-101.2811,7
ND,Mountrail,38061,48.2013,-102.3556,
ND,Nelson,38063,47.9216,-98.1921,
ND,Oliver,38065,47.1153,-101.3403,
ND,Pembina,38067,48.7672,-97.5517,
ND,Pierce,38069,48.2496,-99.9718,1
ND,Ramsey,38071,48.2689,-98.7201,1
ND,Ransom,38073,46.4561,-97.6575,
ND,Renville,38075,48.7192,-101.6581,
ND,Richland,38077,46.2646,-96.9483,
ND,Rolette,38079,48.7724,-99.8411,
ND,Sargent,38081,46.1078,-97.6306,
ND,Sheridan,38083,47.5754,-100.3456,
ND,Sioux,38085,46.1127,-101.0404,
ND,Slope,38087,46.4472,-103.4599,
ND,Stark,38089,46.8107,-102.655,
ND,Steele,38091,47.4562,-97.7247,
ND,Stutsman,38093,46.9792,-98.9588,
ND,Towner,38095,48.6856,-99.2459,
ND,Traill,38097,47.4542,-97.1615,
ND,Walsh,38099,48.3694,-97.7214,
ND,Ward,38101,48.2218,-101.5419,3
ND,Wells,38103,47.5876,-99.661,
ND,Williams,38105,48.3437,-103.4802,
OH,Adams,39001,38.8457,-83.472,
OH,Allen,39003,40.7715,-84.1057,
OH,Ashland,39005,40.846,-82.2707,1
OH,Ashtabula,39007,41.7074,-80.7485,1
OH,Athens,39009,39.3337,-82.0452,
OH,Auglaize,39011,40.5609,-84.2217,
OH,Belmont,39013,40.0158,-80.9885,2
OH,Brown,39015,38.9344,-83.868,
OH,Butler,39017,39.4386,-84.5755,16
OH,Carroll,39019,40.5796,-81.0897,
OH,Champaign,39021,40.1377,-83.7696,
OH,Clark,39023,39.9168,-83.7835,1
OH,Clermont,39025,39.0476,-84.1522,2
OH,Clinton,39027,39.415,-83.8084,
OH,Columbiana,39029,40.7686,-80.7775,
OH,Coshocton,39031,40.3017,-81.92,2
OH,Crawford,39033,40.8509,-82.9197,
OH,Cuyahoga,39035,41.4243,-81.6587,92
OH,Darke,39037,40.1333,-84.6193,1
OH,Defiance,39039,41.3239,-84.4906,2
OH,Delaware,39041,40.2785,-83.0052,4
OH,Erie,39043,41.3635,-82.6178,1
OH,Fairfield,39045,39.7516,-82.6305,
OH,Fayette,39047,39.5599,-83.4561,
OH,Franklin,39049,39.9696,-83.0093,21
OH,Fulton,39051,41.6018,-84.1301,
OH,Gallia,39053,38.8247,-82.3169,1
OH,Geauga,39055,41.4995,-81.1786,1
OH,Greene,39057,39.6915,-83.8898,
OH,Guernsey,39059,40.0521,-81.4942,
OH,Hamilton,39061,39.1954,-84.5426,8
OH,Hancock,39063,41.0019,-83.6665,
OH,Hardin,39065,40.6615,-83.6594,
OH,Harrison,39067,40.2938,-81.0911,
OH,Henry,39069,41.3339,-84.0682,
OH,Highland,39071,39.1848,-83.6009,
OH,Hocking,39073,39.497,-82.4792,
OH,Holmes,39075,40.5612,-81.9294,
OH,Huron,39077,41.1462,-82.5984,1
OH,Jackson,39079,39.0197,-82.6184,
OH,Jefferson,39081,40.385,-80.761,
OH,Knox,39083,40.3988,-82.4216,
OH,Lake,39085,41.6968,-81.237,4
OH,Lawrence,39087,38.5985,-82.5368,
OH,Licking,39089,40.0918,-82.4835,1
OH,Logan,39091,40.3885,-83.7658,
OH,Lorain,39093,41.2955,-82.1512,14
OH,Lucas,39095,41.62,-83.6586,4
OH,Madison,39097,39.8941,-83.3999,
OH,Mahoning,39099,41.0146,-80.7753,14
OH,Marion,39101,40.5873,-83.1609,1
OH,Medina,39103,41.1176,-81.8997,9
OH,Meigs,39105,39.0821,-82.0229,
OH,Mercer,39107,40.54,-84.6293,
OH,Miami,39109,40.0534,-84.2289,11
OH,Monroe,39111,39.7274,-81.0829,
OH,Montgomery,39113,39.7545,-84.2906,1
OH,Morgan,39115,39.6203,-81.8527,
OH,Morrow,39117,40.524,-82.7941,
OH,Muskingum,39119,39.9654,-81.9444,
OH,Noble,39121,39.766,-81.4556,
OH,Ottawa,39123,41.5381,-83.1467,
OH,Paulding,39125,41.1166,-84.5801,
OH,Perry,39127,39.7371,-82.2361,
OH,Pickaway,39129,39.642,-83.0243,
OH,Pike,39131,39.0774,-83.0668,
OH,Portage,39133,41.1676,-81.1962,
OH,Preble,39135,39.7416,-84.6481,
OH,Putnam,39137,41.0221,-84.1317,
OH,Richland,39139,40.7747,-82.5365,1
OH,Ross,39141,39.3376,-83.057,
OH,Sandusky,39143,41.3565,-83.145,
OH,Scioto,39145,38.804,-82.9928,
OH,Seneca,39147,41.1239,-83.1277,
OH,Shelby,39149,40.3315,-84.2048,
OH,Stark,39151,40.8138,-81.3659,8
OH,Summit,39153,41.1259,-81.5321,15
OH,Trumbull,39155,41.3174,-80.7604,3
OH,Tuscarawas,39157,40.441,-81.4738,1
OH,Union,39159,40.2995,-83.3715,1
OH,Van Wert,39161,40.8554,-84.5861,
OH,Vinton,39163,39.251,-82.4854,
OH,Warren,39165,39.4277,-84.1668,2
OH,Washington,39167,39.4553,-81.4953,
OH,Wayne,39169,40.8289,-81.8883,
OH,Williams,39171,41.5603,-84.5882,
OH,Wood,39173,41.3617,-83.623,
OH,Wyandot,39175,40.8424,-83.3044,
OK,Adair,40001,35.8839,-94.6587,
OK,Alfalfa,40003,36.731,-98.324,
OK,Atoka,40005,34.3737,-96.0378,
OK,Beaver,40007,36.7497,-100.4767,
OK,Beckham,40009,35.2687,-99.682,
OK,Blaine,40011,35.8752,-98.4335,
OK,Bryan,40013,33.9623,-96.26,
OK,Caddo,40015,35.1744,-98.3751,
OK,Canadian,40017,35.5425,-97.9825,2
OK,Carter,40019,34.2509,-97.2858,
OK,Cherokee,40021,35.9066,-94.9997,
OK,Choctaw,40023,34.0265,-95.5521,
OK,Cimarron,40025,36.7483,-102.5178,
OK,Cleveland,40027,35.2036,-97.3271,12
OK,Coal,40029,34.5882,-96.2979,
OK,Comanche,40031,34.6621,-98.4717,
OK,Cotton,40033,34.2902,-98.3721,
OK,Craig,40035,36.7617,-95.2086,
OK,Creek,40037,35.9027,-96.3709,
OK,Custer,40039,35.6389,-99.0015,1
OK,Delaware,40041,36.4082,-94.8027,
OK,Dewey,40043,35.9877,-99.008,
OK,Ellis,40045,36.2184,-99.7546,
OK,Garfield,40047,36.379,-97.7828,
OK,Garvin,40049,34.7045,-97.3093,2
OK,Grady,40051,35.017,-97.884,1
OK,Grant,40053,36.7961,-97.7861,
OK,Greer,40055,34.9357,-99.5609,
OK,Harmon,40057,34.7441,-99.8463,
OK,Harper,40059,36.7887,-99.6673,
OK,Haskell,40061,35.2248,-95.1166,
OK,Hughes,40063,35.0484,-96.2502,
OK,Jackson,40065,34.588,-99.4148,1
OK,Jefferson,40067,34.1111,-97.8359,
OK,Johnston,40069,34.3165,-96.6606,
OK,Kay,40071,36.818,-97.1439,3
OK,Kingfisher,40073,35.9454,-97.9421,
OK,Kiowa,40075,34.9163,-98.9808,
OK,Latimer,40077,34.8761,-95.2504,
OK,Le Flore,40079,34.9001,-94.7035,
OK,Lincoln,40081,35.703,-96.8809,
OK,Logan,40083,35.9194,-97.4434,1
OK,Love,40085,33.9499,-97.2442,
OK,McClain,40087,35.0087,-97.4436,1
OK,McCurtain,40089,34.115,-94.7712,
OK,McIntosh,40091,35.3737,-95.6668,
OK,Major,40093,36.3116,-98.536,
OK,Marshall,40095,34.0245,-96.769,
OK,Mayes,40097,36.3018,-95.2309,
OK,Murray,40099,34.4823,-97.0679,
OK,Muskogee,40101,35.6161,-95.3794,
OK,Noble,40103,36.3886,-97.2306,
OK,Nowata,40105,36.7985,-95.6174,
OK,Okfuskee,40107,35.4655,-96.3228,
OK,Oklahoma,40109,35.5515,-97.4072,20
OK,Okmulgee,40111,35.6467,-95.9643,
OK,Osage,40113,36.6292,-96.3984,
OK,Ottawa,40115,36.8355,-94.8105,
OK,Pawnee,40117,36.3169,-96.6993,2
OK,Payne,40119,36.0773,-96.9757,1
OK,Pittsburg,40121,34.9239,-95.7484,
OK,Pontotoc,40123,34.7281,-96.6844,
OK,Pottawatomie,40125,35.2068,-96.9483,
OK,Pushmataha,40127,34.4162,-95.3758,
OK,Roger Mills,40129,35.6883,-99.6957,
OK,Rogers,40131,36.3716,-95.6044,
OK,Seminole,40133,35.1674,-96.6156,
OK,Sequoyah,40135,35.4953,-94.7549,
OK,Stephens,40137,34.4856,-97.8514,0
OK,Texas,40139,36.7479,-101.49,
OK,Tillman,40141,34.3728,-98.9242,
OK,Tulsa,40143,36.1211,-95.9414,5
OK,Wagoner,40145,35.9609,-95.5212,
OK,Washington,40147,36.7152,-95.9044,1
OK,Washita,40149,35.2904,-98.9923,
OK,Woods,40151,36.7669,-98.8651,
OK,Woodward,40153,36.4227,-99.265,
OR,Baker,41001,44.7092,-117.6753,
OR,Benton,41003,44.4922,-123.4292,2
OR,Clackamas,41005,45.1887,-122.2214,11
OR,Clatsop,41007,45.9895,-123.6547,
OR,Columbia,41009,45.9439,-123.0881,
OR,Coos,41011,43.1739,-124.0594,
OR,Crook,41013,44.1422,-120.3566,
OR,Curry,41015,42.4578,-124.1567,
OR,Deschutes,41017,43.9149,-121.2279,9
OR,Douglas,41019,43.2796,-123.1662,1
OR,Gilliam,41021,45.378,-120.2109,
OR,Grant,41023,44.4912,-119.0074,1
OR,Harney,41025,43.064,-118.9679,
OR,Hood River,41027,45.519,-121.6512,
OR,Jackson,41029,42.4321,-122.7284,2
OR,Jefferson,41031,44.6294,-121.1754,
OR,Josephine,41033,42.3654,-123.5555,1
OR,Klamath,41035,42.6863,-121.6501,1
OR,Lake,41037,42.7934,-120.3874,
OR,Lane,41039,43.9386,-122.847,3
OR,Lincoln,41041,44.6421,-123.8668,
OR,Linn,41043,44.4886,-122.5342,19
OR,Malheur,41045,43.1934,-117.6231,
OR,Marion,41047,44.9035,-122.5826,19
OR,Morrow,41049,45.4188,-119.5843,
OR,Multnomah,41051,45.5469,-122.4157,18
OR,Polk,41053,44.9034,-123.4134,1
OR,Sherman,41055,45.4052,-120.6894,
OR,Tillamook,41057,45.463,-123.7086,
OR,Umatilla,41059,45.5919,-118.7369,2
OR,Union,41061,45.3104,-118.009,1
OR,Wallowa,41063,45.5798,-117.1811,
OR,Wasco,41065,45.16,-121.1682,
OR,Washington,41067,45.5601,-123.0985,42
OR,Wheeler,41069,44.7261,-120.0275,
OR,Yamhill,41071,45.2326,-123.3081,4
PA,Adams,42001,39.8715,-77.2179,4
PA,Allegheny,42003,40.4688,-79.9812,31
PA,Armstrong,42005,40.8125,-79.4645,
PA,Beaver,42007,40.6823,-80.3493,3
PA,Bedford,42009,40.0066,-78.4902,
PA,Berks,42011,40.4164,-75.926,7
PA,Blair,42013,40.4813,-78.3486,
PA,Bradford,42015,41.7886,-76.5157,
PA,Bucks,42017,40.337,-75.1067,24
PA,Butler,42019,40.9117,-79.913,1
PA,Cambria,42021,40.4954,-78.7136,
PA,Cameron,42023,41.4368,-78.2038,
PA,Carbon,42025,40.9183,-75.7088,
PA,Centre,42027,40.919,-77.8196,1
PA,Chester,42029,39.9733,-75.7484,19
PA,Clarion,42031,41.1925,-79.421,
PA,Clearfield,42033,41.0002,-78.4741,
PA,Clinton,42035,41.2341,-77.6385,
PA,Columbia,42037,41.0486,-76.4052,
PA,Crawford,42039,41.6848,-80.1063,
PA,Cumberland,42041,40.1637,-77.2651,11
PA,Dauphin,42043,40.4155,-76.7793,
PA,Delaware,42045,39.9166,-75.3991,33
PA,Elk,42047,41.4252,-78.6492,
PA,Erie,42049,41.9917,-80.0322,1
PA,Fayette,42051,39.9198,-79.6474,
PA,Forest,42053,41.5132,-79.2361,
PA,Franklin,42055,39.9275,-77.7212,1
PA,Fulton,42057,39.9255,-78.1124,
PA,Greene,42059,39.8538,-80.2229,
PA,Huntingdon,42061,40.417,-77.9812,
PA,Indiana,42063,40.6521,-79.0875,
PA,Jefferson,42065,41.1281,-78.9995,
PA,Juniata,42067,40.5311,-77.402,
PA,Lackawanna,42069,41.437,-75.6092,5
PA,Lancaster,42071,40.0424,-76.2477,4
PA,Lawrence,42073,40.9912,-80.3342,
PA,Lebanon,42075,40.3672,-76.4577,2
PA,Lehigh,42077,40.6129,-75.5924,13
PA,Luzerne,42079,41.1771,-75.9889,6
PA,Lycoming,42081,41.3433,-77.0645,
PA,McKean,42083,41.8078,-78.569,
PA,Mercer,42085,41.3022,-80.2577,
PA,Mifflin,42087,40.6104,-77.6171,
PA,Monroe,42089,41.0582,-75.3394,25
PA,Montgomery,42091,40.2109,-75.3672,71
PA,Montour,42093,41.028,-76.6586,
PA,Northampton,42095,40.7543,-75.3074,17
PA,Northumberland,42097,40.852,-76.7091,
PA,Perry,42099,40.3984,-77.2622,
PA,Philadelphia,42101,40.0076,-75.1338,69
PA,Pike,42103,41.3321,-75.0338,2
PA,Potter,42105,41.745,-77.8958,1
PA,Schuylkill,42107,40.7059,-76.216,
PA,Snyder,42109,40.77,-77.0701,
PA,Somerset,42111,39.9725,-79.0283,
PA,Sullivan,42113,41.446,-76.5119,
PA,Susquehanna,42115,41.8214,-75.8008,
PA,Tioga,42117,41.7721,-77.2543,
PA,Union,42119,40.963,-77.0621,
PA,Venango,42121,41.401,-79.758,
PA,Warren,42123,41.8147,-79.2741,
PA,Washington,42125,40.1894,-80.2482,5
PA,Wayne,42127,41.6487,-75.3033,1
PA,Westmoreland,42129,40.3107,-79.4668,4
PA,Wyoming,42131,41.5184,-76.0165,
PA,York,42133,39.9199,-76.7265,9
RI,Bristol,44001,41.7161,-71.2842,
RI,Kent,44003,41.6719,-71.5943,
RI,Newport,44005,41.556,-71.2366,
RI,Providence,44007,41.8724,-71.5811,4
RI,Washington,44009,41.4687,-71.6234,2
SC,Abbeville,45001,34.2226,-82.4587,1
SC,Aiken,45003,33.5444,-81.6348,1
SC,Allendale,45005,32.9881,-81.3581,
SC,Anderson,45007,34.5191,-82.6379,10
SC,Bamberg,45009,33.2147,-81.0542,
SC,Barnwell,45011,33.2661,-81.435,
SC,Beaufort,45013,32.3568,-80.6934,13
SC,Beaufort,45013,32.3873,-80.7372,13
SC,Berkeley,45015,33.1978,-79.9508,1
SC,Calhoun,45017,33.6749,-80.7802,1
SC,Charleston,45019,32.6714,-80.1831,9
SC,Charleston,45019,32.8411,-79.9439,9
SC,Cherokee,45021,35.0482,-81.6204,
SC,Chester,45023,34.6921,-81.1595,
SC,Chesterfield,45025,34.6398,-80.1586,
SC,Clarendon,45027,33.6658,-80.2164,1
SC,Colleton,45029,32.8655,-80.668,1
SC,Darlington,45031,34.3323,-79.9577,2
SC,Dillon,45033,34.3915,-79.3789,1
SC,Dorchester,45035,33.0795,-80.4052,1
SC,Edgefield,45037,33.7723,-81.9666,1
SC,Fairfield,45039,34.3951,-81.1212,1
SC,Florence,45041,34.0245,-79.7028,1
SC,Georgetown,45043,33.2834,-79.2353,
SC,Georgetown,45043,33.4408,-79.3367,
SC,Greenville,45045,34.8944,-82.3708,17
SC,Greenwood,45047,34.1538,-82.1259,3
SC,Hampton,45049,32.7763,-81.1406,
SC,Horry,45051,33.9215,-78.9966,9
SC,Jasper,45053,32.4371,-81.0321,
SC,Jasper,45053,32.4045,-80.8545,
SC,Kershaw,45055,34.3388,-80.5903,43
SC,Lancaster,45057,34.6867,-80.7054,3
SC,Laurens,45059,34.4836,-82.006,
SC,Lee,45061,34.1633,-80.2545,1
SC,Lexington,45063,33.9022,-81.2722,12
SC,McCormick,45065,33.8996,-82.3099,
SC,Marion,45067,34.0801,-79.3625,
SC,Marlboro,45069,34.602,-79.6786,1
SC,Newberry,45071,34.2898,-81.6001,1
SC,Oconee,45073,34.7535,-83.0659,
SC,Orangeburg,45075,33.439,-80.8003,3
SC,Pickens,45077,34.8875,-82.7254,1
SC,Richland,45079,34.0218,-80.9031,27
SC,Saluda,45081,34.0061,-81.7269,1
SC,Spartanburg,45083,34.9313,-81.9907,2
SC,Sumter,45085,33.9162,-80.3823,3
SC,Union,45087,34.6892,-81.6194,
SC,Williamsburg,45089,33.6199,-79.7277,
SC,York,45091,34.9747,-81.1845,1
SD,Aurora,46003,43.7182,-98.5616,
SD,Beadle,46005,44.4145,-98.2782,4
SD,Bennett,46007,43.1949,-101.6639,
SD,Bon Homme,46009,42.9884,-97.8847,1
SD,Brookings,46011,44.3697,-96.7905,
SD,Brown,46013,45.5898,-98.3516,
SD,Brule,46015,43.7181,-99.081,
SD,Buffalo,46017,44.0763,-99.205,
SD,Butte,46019,44.9058,-103.5081,
SD,Campbell,46021,45.7711,-100.0517,
SD,Charles Mix,46023,43.2079,-98.5879,1
SD,Clark,46025,44.8582,-97.7295,
SD,Clay,46027,42.9146,-96.9757,
SD,Codington,46029,44.9778,-97.1887,
SD,Corson,46031,45.7087,-101.1969,
SD,Custer,46033,43.6776,-103.4515,
SD,Davison,46035,43.675,-98.1461,1
SD,Day,46037,45.3672,-97.6075,
SD,Deuel,46039,44.76,-96.668,
SD,Dewey,46041,45.1566,-100.8719,
SD,Douglas,46043,43.3871,-98.3662,
SD,Edmunds,46045,45.4188,-99.2155,
SD,Fall River,46047,43.2394,-103.5276,
SD,Faulk,46049,45.0711,-99.1453,
SD,Grant,46051,45.172,-96.7677,
SD,Gregory,46053,43.1924,-99.1856,
SD,Haakon,46055,44.2944,-101.54,
SD,Hamlin,46057,44.6737,-97.1883,
SD,Hand,46059,44.5478,-99.005,
SD,Hanson,46061,43.6748,-97.7874,
SD,Harding,46063,45.5804,-103.4959,
SD,Hughes,46065,44.389,-99.9961,
SD,Hutchinson,46067,43.3348,-97.7546,
SD,Hyde,46069,44.5474,-99.4871,
SD,Jackson,46071,43.6943,-101.6281,
SD,Jerauld,46073,44.0664,-98.6298,
SD,Jones,46075,43.9604,-100.6896,
SD,Kingsbury,46077,44.3696,-97.4915,
SD,Lake,46079,44.022,-97.1294,
SD,Lawrence,46081,44.3586,-103.7922,
SD,Lincoln,46083,43.2789,-96.7219,
SD,Lyman,46085,43.8959,-99.8474,
SD,McCook,46087,43.6743,-97.3684,1
SD,McPherson,46089,45.7664,-99.2215,
SD,Marshall,46091,45.7586,-97.5986,
SD,Meade,46093,44.5668,-102.7168,
SD,Mellette,46095,43.5811,-100.76,
SD,Miner,46097,44.022,-97.6102,
SD,Minnehaha,46099,43.6742,-96.7914,5
SD,Moody,46101,44.0221,-96.671,
SD,Oglala Lakota,46102,43.3356,-102.5516,
SD,Pennington,46103,44.0037,-102.8238,1
SD,Perkins,46105,45.4904,-102.4759,
SD,Potter,46107,45.0645,-99.9573,
SD,Roberts,46109,45.6296,-96.9461,
SD,Sanborn,46111,44.0235,-98.0914,
SD,Spink,46115,44.9381,-98.3463,
SD,Stanley,46117,44.4123,-100.7359,
SD,Sully,46119,44.7155,-100.1322,
SD,Todd,46121,43.1934,-100.7184,
SD,Tripp,46123,43.3459,-99.884,
SD,Turner,46125,43.3108,-97.1488,
SD,Union,46127,42.8324,-96.6561,
SD,Walworth,46129,45.4299,-100.0316,
SD,Yankton,46135,43.009,-97.3947,
SD,Ziebach,46137,44.9806,-101.666,
TN,Anderson,47001,36.1184,-84.1985,1
TN,Bedford,47003,35.5138,-86.4589,
TN,Benton,47005,36.0698,-88.0683,
TN,Bledsoe,47007,35.5964,-85.2051,
TN,Blount,47009,35.6873,-83.9255,1
TN,Bradley,47011,35.1541,-84.8596,1
TN,Campbell,47013,36.4036,-84.1493,1
TN,Cannon,47015,35.8087,-86.0617,
TN,Carroll,47017,35.9731,-88.4503,2
TN,Carter,47019,36.2927,-82.1274,
TN,Cheatham,47021,36.2612,-87.0868,2
TN,Chester,47023,35.4211,-88.6128,
TN,Claiborne,47025,36.4859,-83.6603,
TN,Clay,47027,36.5511,-85.5438,
TN,Cocke,47029,35.9254,-83.1211,1
TN,Coffee,47031,35.4906,-86.0748,
TN,Crockett,47033,35.8135,-89.1395,
TN,Cumberland,47035,35.9504,-84.9983,2
TN,Davidson,47037,36.1694,-86.7848,140
TN,Decatur,47039,35.603,-88.1088,
TN,De Kalb,47041,35.9798,-85.8328,
TN,Dickson,47043,36.1491,-87.3567,3
TN,Dyer,47045,36.059,-89.4138,2
TN,Fayette,47047,35.1971,-89.4144,1
TN,Fentress,47049,36.3805,-84.9324,
TN,Franklin,47051,35.1549,-86.0922,
TN,Gibson,47053,35.9966,-88.9326,
TN,Giles,47055,35.2022,-87.0348,
TN,Grainger,47057,36.2762,-83.5096,
TN,Greene,47059,36.1754,-82.8458,1
TN,Grundy,47061,35.3884,-85.7226,
TN,Hamblen,47063,36.2172,-83.2666,2
TN,Hamilton,47065,35.1809,-85.1648,7
TN,Hancock,47067,36.5236,-83.2219,
TN,Hardeman,47069,35.2069,-88.9931,
TN,Hardin,47071,35.1987,-88.1845,
TN,Hawkins,47073,36.4412,-82.9447,
TN,Haywood,47075,35.5832,-89.2838,
TN,Henderson,47077,35.6543,-88.388,
TN,Henry,47079,36.3317,-88.3013,
TN,Hickman,47081,35.8033,-87.4733,
TN,Houston,47083,36.286,-87.7171,
TN,Humphreys,47085,36.0408,-87.7757,
TN,Jackson,47087,36.3592,-85.6732,
TN,Jefferson,47089,36.051,-83.4463,1
TN,Johnson,47091,36.4549,-81.8518,
TN,Knox,47093,35.9932,-83.9371,4
TN,Lake,47095,36.3352,-89.4935,
TN,Lauderdale,47097,35.7609,-89.6314,
TN,Lawrence,47099,35.2173,-87.3956,
TN,Lewis,47101,35.5273,-87.4931,
TN,Lincoln,47103,35.1405,-86.5889,
TN,Loudon,47105,35.735,-84.3116,
TN,McMinn,47107,35.4248,-84.6175,
TN,McNairy,47109,35.1746,-88.5637,
TN,Macon,47111,36.532,-86.0072,
TN,Madison,47113,35.6082,-88.8385,
TN,Marion,47115,35.1294,-85.622,
TN,Marshall,47117,35.4689,-86.765,
TN,Maury,47119,35.617,-87.077,1
TN,Meigs,47121,35.5127,-84.8135,
TN,Monroe,47123,35.4428,-84.2528,3
TN,Montgomery,47125,36.4969,-87.3828,3
TN,Moore,47127,35.2847,-86.3588,
TN,Morgan,47129,36.135,-84.6491,
TN,Obion,47131,36.3582,-89.1488,
TN,Overton,47133,36.345,-85.2881,
TN,Perry,47135,35.6426,-87.859,
TN,Pickett,47137,36.5585,-85.0748,
TN,Polk,47139,35.1199,-84.5233,
TN,Putnam,47141,36.1408,-85.4951,5
TN,Rhea,47143,35.6087,-84.9244,
TN,Roane,47145,35.8478,-84.5233,1
TN,Robertson,47147,36.5254,-86.8705,2
TN,Rutherford,47149,35.8427,-86.4167,5
TN,Scott,47151,36.4286,-84.5035,2
TN,Sequatchie,47153,35.3712,-85.4106,
TN,Sevier,47155,35.7847,-83.5242,2
TN,Shelby,47157,35.1837,-89.8956,40
TN,Smith,47159,36.2505,-85.9567,
TN,Stewart,47161,36.5012,-87.8385,
TN,Sullivan,47163,36.5129,-82.3042,1
TN,Sumner,47165,36.4694,-86.4603,11
TN,Tipton,47167,35.4966,-89.7594,2
TN,Trousdale,47169,36.3921,-86.1567,
TN,Unicoi,47171,36.1108,-82.4322,
TN,Union,47173,36.2879,-83.8375,
TN,Van Buren,47175,35.696,-85.4525,
TN,Warren,47177,35.6787,-85.7785,
TN,Washington,47179,36.2933,-82.4974,2
TN,Wayne,47181,35.2399,-87.788,
TN,Weakley,47183,36.2983,-88.7178,
TN,White,47185,35.9264,-85.4553,
TN,Williamson,47187,35.8938,-86.8986,47
TN,Wilson,47189,36.1549,-86.2976,3
TX,Anderson,48001,31.8134,-95.6525,
TX,Andrews,48003,32.305,-102.6378,
TX,Angelina,48005,31.2548,-94.6118,
TX,Aransas,48007,28.1358,-96.9975,
TX,Archer,48009,33.6153,-98.6877,
TX,Armstrong,48011,34.9649,-101.3574,
TX,Atascosa,48013,28.8907,-98.5279,
TX,Austin,48015,29.887,-96.278,
TX,Bailey,48017,34.0685,-102.8298,
TX,Bandera,48019,29.7472,-99.2462,
TX,Bastrop,48021,30.1036,-97.3121,
TX,Baylor,48023,33.6165,-99.2135,
TX,Bee,48025,28.4174,-97.7412,
TX,Bell,48027,31.0377,-97.4782,3
TX,Bexar,48029,29.4491,-98.5199,22
TX,Blanco,48031,30.2664,-98.3998,
TX,Borden,48033,32.7437,-101.4317,
TX,Bosque,48035,31.9004,-97.6343,
TX,Bowie,48037,33.4454,-94.4229,1
TX,Brazoria,48039,29.1913,-95.4551,4
TX,Brazos,48041,30.6611,-96.3023,2
TX,Brewster,48043,29.8119,-103.2517,
TX,Briscoe,48045,34.5303,-101.2086,
TX,Brooks,48047,27.0316,-98.2187,
TX,Brown,48049,31.7743,-98.9998,1
TX,Burleson,48051,30.4924,-96.621,
TX,Burnet,48053,30.7883,-98.1824,
TX,Caldwell,48055,29.8372,-97.62,
TX,Calhoun,48057,28.4909,-96.6495,
TX,Callahan,48059,32.2977,-99.3735,
TX,Cameron,48061,26.1293,-97.5292,1
TX,Camp,48063,32.9732,-94.9785,
TX,Carson,48065,35.4035,-101.3542,
TX,Cass,48067,33.0775,-94.3436,
TX,Castro,48069,34.53,-102.2617,1
TX,Chambers,48071,29.739,-94.6073,
TX,Cherokee,48073,31.837,-95.1652,
TX,Childress,48075,34.5292,-100.2076,
TX,Clay,48077,33.7854,-98.2084,
TX,Cochran,48079,33.6041,-102.8285,
TX,Coke,48081,31.8885,-100.5299,
TX,Coleman,48083,31.7732,-99.4536,
TX,Collin,48085,33.1878,-96.5724,13
TX,Collingsworth,48087,34.9649,-100.2701,
TX,Colorado,48089,29.6208,-96.5263,
TX,Comal,48091,29.8082,-98.2781,
TX,Comanche,48093,31.948,-98.5583,
TX,Concho,48095,31.3265,-99.8639,
TX,Cooke,48097,33.6393,-97.2126,
TX,Coryell,48099,31.3909,-97.7992,
TX,Cottle,48101,34.0777,-100.2787,
TX,Crane,48103,31.4285,-102.5155,1
TX,Crockett,48105,30.723,-101.4121,
TX,Crosby,48107,33.6146,-101.3,
TX,Culberson,48109,31.4472,-104.5173,
TX,Dallam,48111,36.2779,-102.6022,
TX,Dallas,48113,32.7666,-96.7779,74
TX,Dawson,48115,32.7425,-101.9477,
TX,Deaf Smith,48117,34.966,-102.6049,1
TX,Delta,48119,33.3863,-95.6723,
TX,Denton,48121,33.2043,-97.1171,9
TX,DeWitt,48123,29.0821,-97.3568,1
TX,Dickens,48125,33.6166,-100.7789,
TX,Dimmit,48127,28.4225,-99.7567,
TX,Donley,48129,34.9654,-100.814,
TX,Duval,48131,27.6813,-98.5089,
TX,Eastland,48133,32.3271,-98.8323,
TX,Ector,48135,31.8692,-102.5428,
TX,Edwards,48137,29.9826,-100.3047,
TX,Ellis,48139,32.3484,-96.7945,2
TX,El Paso,48141,31.7686,-106.2348,8
TX,Erath,48143,32.2363,-98.218,
TX,Falls,48145,31.2533,-96.9358,
TX,Fannin,48147,33.5939,-96.1066,1
TX,Fayette,48149,29.8768,-96.9198,
TX,Fisher,48151,32.7428,-100.4022,
TX,Floyd,48153,34.0724,-101.3032,
TX,Foard,48155,33.9746,-99.778,
TX,Fort Bend,48157,29.5274,-95.7707,11
TX,Franklin,48159,33.1756,-95.2184,
TX,Freestone,48161,31.7049,-96.149,
TX,Frio,48163,28.8678,-99.1083,
TX,Gaines,48165,32.7407,-102.6352,
TX,Galveston,48167,29.3941,-94.965,6
TX,Garza,48169,33.1799,-101.2984,
TX,Gillespie,48171,30.3181,-98.9464,
TX,Glasscock,48173,31.8694,-101.5208,
TX,Goliad,48175,28.6571,-97.4264,
TX,Gonzales,48177,29.4567,-97.4925,
TX,Gray,48179,35.4012,-100.8126,
TX,Grayson,48181,33.6268,-96.6776,
TX,Gregg,48183,32.4803,-94.8172,1
TX,Grimes,48185,30.5436,-95.9855,
TX,Guadalupe,48187,29.5831,-97.9484,
TX,Hale,48189,34.0705,-101.8269,
TX,Hall,48191,34.5308,-100.6811,
TX,Hamilton,48193,31.7048,-98.1107,
TX,Hansford,48195,36.2775,-101.3545,
TX,Hardeman,48197,34.2903,-99.7457,
TX,Hardin,48199,30.3324,-94.3902,
TX,Harris,48201,29.8588,-95.3963,36
TX,Harris,48201,29.7371,-95.1819,36
TX,Harrison,48203,32.5482,-94.3713,
TX,Hartley,48205,35.84,-102.6029,
TX,Haskell,48207,33.1782,-99.7303,
TX,Hays,48209,30.0582,-98.0311,5
TX,Hemphill,48211,35.8376,-100.2705,
TX,Henderson,48213,32.2121,-95.8538,
TX,Hidalgo,48215,26.3968,-98.1811,
TX,Hill,48217,31.9907,-97.1324,
TX,Hockley,48219,33.6076,-102.3432,2
TX,Hood,48221,32.4299,-97.8323,
TX,Hopkins,48223,33.1495,-95.564,
TX,Houston,48225,31.3178,-95.4227,
TX,Howard,48227,32.3062,-101.4355,
TX,Hudspeth,48229,31.4562,-105.3865,
TX,Hunt,48231,33.1236,-96.0854,
TX,Hutchinson,48233,35.84,-101.3547,
TX,Irion,48235,31.3039,-100.9824,
TX,Jack,48237,33.2335,-98.1725,
TX,Jackson,48239,28.9557,-96.5787,
TX,Jasper,48241,30.744,-94.025,
TX,Jeff Davis,48243,30.7154,-104.14,
TX,Jefferson,48245,29.8838,-94.1722,
TX,Jim Hogg,48247,27.0434,-98.6973,
TX,Jim Wells,48249,27.7311,-98.0902,
TX,Johnson,48251,32.379,-97.3663,2
TX,Jones,48253,32.7399,-99.8787,
TX,Karnes,48255,28.9057,-97.8594,
TX,Kaufman,48257,32.5996,-96.2879,
TX,Kendall,48259,29.9447,-98.7116,
TX,Kenedy,48261,26.9281,-97.7174,
TX,Kent,48263,33.1814,-100.7776,
TX,Kerr,48265,30.0615,-99.3501,
TX,Kimble,48267,30.4868,-99.7487,
TX,King,48269,33.6165,-100.2558,
TX,Kinney,48271,29.3502,-100.418,
TX,Kleberg,48273,27.4338,-97.7344,
TX,Knox,48275,33.6061,-99.7414,
TX,Lamar,48277,33.6671,-95.5711,
TX,Lamb,48279,34.0686,-102.3517,
TX,Lampasas,48281,31.1962,-98.2414,
TX,La Salle,48283,28.3451,-99.0997,
TX,Lavaca,48285,29.3843,-96.9301,1
TX,Lee,48287,30.3107,-96.9657,
TX,Leon,48289,31.2965,-95.9957,
TX,Liberty,48291,30.1516,-94.8122,
TX,Limestone,48293,31.5455,-96.5805,
TX,Lipscomb,48295,36.2777,-100.2731,
TX,Live Oak,48297,28.3514,-98.1248,
TX,Llano,48299,30.7056,-98.684,
TX,Loving,48301,31.8492,-103.58,
