state	county	FIPS	lon	lat	case
AK	Aleutians East	2013	-161.863	55.4039	
AK	Aleutians West	2016	-111.1392	52.8883	
AK	Lake and Peninsula	2164	-156.1833	58.6478	
AK	Denali	2068	-150.0089	63.6734	
AK	Yukon-Koyukuk	2290	-151.3894	65.5095	
AK	Nome	2180	-163.9674	64.8981	
AK	Kusilvak	2158	-163.348	62.1265	
AK	Bethel	2050	-159.7207	60.9126	
AK	Fairbanks North Star	2090	-146.563	64.8084	7
AK	Southeast Fairbanks	2240	-143.2062	63.8771	
AK	Matanuska-Susitna	2170	-149.5701	62.316	
AK	Anchorage	2020	-149.1067	61.1501	6
AK	Dillingham	2070	-158.2119	59.8021	
AK	Kenai Peninsula	2122	-151.5667	60.2619	3
AK	Northwest Arctic	2188	-159.7054	67.0642	
AK	North Slope	2185	-153.4401	69.3084	
AK	Bristol Bay	2060	-156.7013	58.7423	
AK	Kodiak Island	2150	-153.8059	57.6779	
AK	Yakutat	2282	-140.3977	59.9	
AK	Hoonah-Angoon	2105	-135.3203	58.1896	
AK	Haines	2100	-135.5056	59.1216	
AK	Juneau	2110	-134.1803	58.4596	
AK	Sitka	2220	-135.3008	57.2356	
AK	Ketchikan Gateway	2130	-130.9276	55.5941	6
AK	Prince of Wales-Hyder	2198	-132.6964	55.5105	
AK	Wrangell	2275	-132.0028	56.3281	
AK	Petersburg Census Area	2195	-133.2557	56.8226	
AK	Skagway	2230	-135.3379	59.5602	
AK	Valdez-Cordova	2261	-144.4625	61.5735	
AL	Crenshaw	1041	-86.3136	31.7315	
AL	Cullman	1043	-86.8676	34.132	2
AL	Dale	1045	-85.611	31.4318	
AL	Dallas	1047	-87.1065	32.3258	
AL	DeKalb	1049	-85.8041	34.4598	
AL	Elmore	1051	-86.1492	32.5966	6
AL	Escambia	1053	-87.1616	31.1262	
AL	Etowah	1055	-86.0348	34.0453	
AL	Fayette	1057	-87.7388	33.7212	
AL	Franklin	1059	-87.8438	34.4417	
AL	Geneva	1061	-85.839	31.095	
AL	Greene	1063	-87.9522	32.8531	
AL	Hale	1065	-87.6291	32.7627	
AL	Houston	1069	-85.3025	31.1532	
AL	Jefferson	1073	-86.8965	33.5543	71
AL	Lamar	1075	-88.0969	33.7792	1
AL	Lauderdale	1077	-87.6543	34.9015	2
AL	Lawrence	1079	-87.311	34.522	
AL	Lee	1081	-85.3556	32.6012	16
AL	Limestone	1083	-86.9813	34.8101	1
AL	Lowndes	1085	-86.6501	32.1548	
AL	Macon	1087	-85.6926	32.386	
AL	Madison	1089	-86.5502	34.7631	16
AL	Marengo	1091	-87.7895	32.2476	
AL	Marion	1093	-87.8871	34.1366	1
AL	Marshall	1095	-86.3066	34.3669	
AL	Monroe	1099	-87.3658	31.5706	
AL	Montgomery	1101	-86.2076	32.2202	3
AL	Morgan	1103	-86.8529	34.4535	
AL	Calhoun	1015	-85.8261	33.7714	1
AL	Butler	1013	-86.6803	31.7524	
AL	Bullock	1011	-85.7161	32.1005	
AL	Blount	1009	-86.5674	33.9809	
AL	Bibb	1007	-87.1264	32.9986	
AL	Barbour	1005	-85.3932	31.8696	
AL	Jackson	1071	-85.9993	34.7794	1
AL	Cherokee	1019	-85.6038	34.176	
AL	Chilton	1021	-86.7188	32.8479	
AL	Choctaw	1023	-88.2628	32.0192	
AL	Clay	1027	-85.8605	33.2691	
AL	Cleburne	1029	-85.5188	33.6745	
AL	Coffee	1031	-85.9882	31.4026	
AL	Colbert	1033	-87.8049	34.7004	
AL	Conecuh	1035	-86.9936	31.4293	
AL	Coosa	1037	-86.2476	32.9362	
AL	Covington	1039	-86.4512	31.2485	
AL	Perry	1105	-87.2942	32.6385	
AL	Pickens	1107	-88.0887	33.2809	
AL	Pike	1109	-85.9409	31.8024	
AL	Randolph	1111	-85.4591	33.2938	
AL	Russell	1113	-85.1849	32.2884	
AL	St. Clair	1115	-86.3147	33.7157	3
AL	Shelby	1117	-86.6607	33.2643	17
AL	Sumter	1119	-88.1988	32.591	
AL	Talladega	1121	-86.1659	33.38	1
AL	Tallapoosa	1123	-85.7975	32.8624	
AL	Tuscaloosa	1125	-87.525	33.2896	7
AL	Walker	1127	-87.2973	33.8034	1
AL	Washington	1129	-88.2071	31.4077	1
AL	Wilcox	1131	-87.3082	31.9892	
AL	Winston	1133	-87.3737	34.1492	
AL	Autauga	1001	-86.6428	32.5349	
AL	Chambers	1017	-85.392	32.9144	2
AL	Clarke	1025	-87.8309	31.6709	
AL	Henry	1067	-85.2414	31.5147	
AL	Baldwin	1003	-87.7171	30.7278	2
AL	Mobile	1097	-88.2018	30.7943	2
AR	Ashley	5003	-91.7679	33.1912	
AR	Baxter	5005	-92.337	36.2872	
AR	Benton	5007	-94.2573	36.3392	1
AR	Arkansas	5001	-91.3749	34.2908	
AR	Bradley	5011	-92.1623	33.4659	4
AR	Calhoun	5013	-92.5031	33.558	
AR	Carroll	5015	-93.5382	36.341	
AR	Chicot	5017	-91.294	33.2672	
AR	Clark	5019	-93.1764	34.051	2
AR	Clay	5021	-90.4173	36.3685	
AR	Cleburne	5023	-92.0267	35.5381	25
AR	Cleveland	5025	-92.1852	33.8983	3
AR	Columbia	5027	-93.2274	33.2143	1
AR	Conway	5029	-92.7014	35.2622	1
AR	Craighead	5031	-90.6328	35.8308	3
AR	Crawford	5033	-94.243	35.5889	
AR	Crittenden	5035	-90.3089	35.2079	1
AR	Cross	5037	-90.7713	35.2958	
AR	Dallas	5039	-92.6545	33.9698	
AR	Desha	5041	-91.254	33.8333	2
AR	Drew	5043	-91.72	33.5895	
AR	Faulkner	5045	-92.332	35.147	7
AR	Franklin	5047	-93.8906	35.5123	
AR	Fulton	5049	-91.8183	36.3817	
AR	Garland	5051	-93.1504	34.5767	9
AR	Grant	5053	-92.4236	34.29	3
AR	Greene	5055	-90.5591	36.1177	1
AR	Hempstead	5057	-93.6684	33.7354	
AR	Hot Spring	5059	-92.946	34.3177	
AR	Howard	5061	-93.9935	34.0887	
AR	Independence	5063	-91.5698	35.7415	3
AR	Izard	5065	-91.9134	36.0949	
AR	Jackson	5067	-91.2146	35.5994	
AR	Jefferson	5069	-91.9315	34.2688	20
AR	Johnson	5071	-93.4599	35.5701	
AR	Lafayette	5073	-93.6073	33.2408	
AR	Lawrence	5075	-91.1071	36.0413	
AR	Lee	5077	-90.782	34.7807	
AR	Lincoln	5079	-91.7333	33.9575	2
AR	Little River	5081	-94.2343	33.7005	
AR	Logan	5083	-93.7163	35.2153	
AR	Lonoke	5085	-91.8887	34.7542	
AR	Marion	5089	-92.6842	36.2684	
AR	Miller	5091	-93.8918	33.3124	
AR	Mississippi	5093	-90.054	35.7639	
AR	Monroe	5095	-91.2038	34.6778	
AR	Montgomery	5097	-93.6595	34.5388	
AR	Madison	5087	-93.7246	36.011	
AR	Nevada	5099	-93.3072	33.664	
AR	Newton	5101	-93.2179	35.92	
AR	Ouachita	5103	-92.882	33.5933	
AR	Perry	5105	-92.9315	34.9474	
AR	Phillips	5107	-90.848	34.4283	
AR	Pike	5109	-93.6564	34.1636	
AR	Poinsett	5111	-90.6629	35.574	3
AR	Polk	5113	-94.2281	34.4858	2
AR	Pope	5115	-93.0342	35.4476	1
AR	Prairie	5117	-91.5528	34.8297	
AR	Pulaski	5119	-92.3117	34.7699	52
AR	Randolph	5121	-91.0278	36.3415	
AR	St. Francis	5123	-90.7478	35.022	
AR	Saline	5125	-92.6766	34.6466	4
AR	Scott	5127	-94.0633	34.8608	
AR	Searcy	5129	-92.6995	35.9109	2
AR	Sebastian	5131	-94.274	35.1993	1
AR	Sevier	5133	-94.2412	33.9973	1
AR	Sharp	5135	-91.4799	36.1611	
AR	Stone	5137	-92.1567	35.8599	
AR	Union	5139	-92.5973	33.1713	1
AR	Van Buren	5141	-92.5157	35.5807	2
AR	Washington	5143	-94.2147	35.98	5
AR	White	5145	-91.7457	35.2563	
AR	Woodruff	5147	-91.2432	35.1863	1
AR	Yell	5149	-93.4113	35.0026	
AR	Boone	5009	-93.0915	36.3086	1
AS	Swains Island	60040	-171.0459	-11.0843	
AS	Manu'a	60020	-169.506	-14.2219	
AS	Western	60050	-170.7691	-14.3241	
AS	Eastern	60010	-170.6596	-14.2763	
AZ	Cochise	4003	-109.7511	31.8796	
AZ	Santa Cruz	4023	-110.8466	31.526	
AZ	Graham	4009	-109.8874	32.9327	2
AZ	Gila	4007	-110.8117	33.7997	
AZ	Maricopa	4013	-112.4912	33.3488	81
AZ	La Paz	4012	-113.9813	33.7292	
AZ	Pima	4019	-111.7899	32.0974	17
AZ	Pinal	4021	-111.3447	32.9043	16
AZ	Yuma	4027	-113.9056	32.7694	1
AZ	Mohave	4015	-113.7582	35.7044	
AZ	Yavapai	4025	-112.5538	34.5999	3
AZ	Coconino	4005	-111.7705	35.8387	14
AZ	Navajo	4017	-110.3214	35.3996	13
AZ	Apache	4001	-109.4888	35.3957	3
AZ	Greenlee	4011	-109.2401	33.2153	
CA	Santa Barbara	6083	-118.4266	32.8	18
CA	Santa Barbara	6083	-118.4318	32.8019	18
CA	Santa Barbara	6083	-118.4308	32.8037	18
CA	Santa Barbara	6083	-118.3687	32.819	18
CA	Santa Barbara	6083	-120.0165	34.6731	18
CA	Santa Barbara	6083	-120.6519	34.5761	18
CA	Santa Barbara	6083	-120.6455	34.6028	18
CA	Santa Barbara	6083	-120.6399	34.7556	18
CA	Santa Barbara	6083	-120.6661	34.8992	18
CA	San Bernardino	6071	-116.1784	34.8415	17
CA	Kings	6031	-119.8156	36.0753	
CA	Stanislaus	6099	-120.9978	37.5592	8
CA	Yolo	6113	-121.9016	38.6867	6
CA	Mono	6051	-118.8867	37.939	1
CA	Monterey	6053	-121.2389	36.2169	5
CA	Marin	6041	-122.7185	38.0725	38
CA	Humboldt	6023	-123.8735	40.6984	1
CA	Sierra	6091	-120.516	39.5804	
CA	San Diego	6073	-116.7335	33.0354	194
CA	Riverside	6065	-115.9939	33.7437	45
CA	Imperial	6025	-115.3653	33.0395	6
CA	Fresno	6019	-119.6503	36.7584	6
CA	Los Angeles	6037	-118.2252	34.3203	409
CA	Ventura	6111	-119.0835	34.4567	30
CA	Kern	6029	-118.7298	35.3429	5
CA	San Benito	6069	-121.075	36.6057	6
CA	Merced	6047	-120.718	37.1926	1
CA	Tuolumne	6109	-119.9548	38.0276	
CA	Mariposa	6043	-119.9055	37.5815	
CA	Madera	6039	-119.7626	37.218	2
CA	Tulare	6107	-118.8005	36.2201	12
CA	Nevada	6057	-120.7683	39.3014	1
CA	Alpine	6003	-119.8207	38.5973	
CA	Colusa	6011	-122.237	39.1775	
CA	Plumas	6063	-120.8386	40.0047	
CA	San Joaquin	6077	-121.272	37.9345	41
CA	Sutter	6101	-121.6949	39.0345	1
CA	Lassen	6035	-120.5943	40.6736	
CA	Siskiyou	6093	-122.5404	41.5927	2
CA	Lake	6033	-122.7532	39.0997	
CA	Trinity	6105	-123.1126	40.6507	
CA	Modoc	6049	-120.725	41.5899	
CA	Santa Clara	6085	-121.6963	37.2325	302
CA	Alameda	6001	-121.886	37.6466	106
CA	Napa	6055	-122.3305	38.5066	1
CA	El Dorado	6017	-120.5247	38.7785	2
CA	Placer	6061	-120.7176	39.0635	12
CA	Yuba	6115	-121.3512	39.2691	2
CA	Amador	6005	-120.6519	38.4461	2
CA	Calaveras	6009	-120.5541	38.2046	2
CA	Shasta	6089	-122.0405	40.7638	2
CA	Glenn	6021	-122.3922	39.5984	
CA	Tehama	6103	-122.2339	40.1257	
CA	Butte	6007	-121.6007	39.6669	2
CA	Inyo	6027	-117.4107	36.5111	
CA	Solano	6095	-121.9266	38.2805	14
CA	Contra Costa	6013	-121.9276	37.9163	61
CA	Santa Cruz	6087	-122.0018	37.0563	15
CA	Sonoma	6097	-122.8873	38.5286	25
CA	Mendocino	6045	-123.3912	39.44	1
CA	San Mateo	6081	-122.3293	37.4218	117
CA	San Francisco	6075	-122.4424	37.7558	108
CA	San Luis Obispo	6079	-120.404	35.3872	27
CA	Sacramento	6067	-121.3384	38.4542	53
CA	Del Norte	6015	-123.897	41.7431	
CA	Orange	6059	-117.7605	33.703	95
CO	Baca	8009	-102.5605	37.3192	
CO	Bent	8011	-103.0717	37.9551	
CO	Cheyenne	8017	-102.6034	38.8279	
CO	Crowley	8025	-103.7849	38.3266	1
CO	Kit Carson	8063	-102.6029	39.3054	
CO	Logan	8075	-103.1101	40.7247	
CO	Morgan	8087	-103.8098	40.2627	2
CO	Otero	8089	-103.7164	37.9027	
CO	Phillips	8095	-102.3575	40.5939	
CO	Prowers	8099	-102.3933	37.9552	
CO	San Juan	8111	-107.6761	37.764	
CO	Sedgwick	8115	-102.3518	40.8758	
CO	Washington	8121	-103.2013	39.971	
CO	Yuma	8125	-102.4243	40.0029	1
CO	Denver	8031	-104.8772	39.7611	125
CO	Montrose	8085	-108.2694	38.4022	1
CO	San Miguel	8113	-108.4058	38.0038	1
CO	Gunnison	8051	-107.0317	38.6668	22
CO	Arapahoe	8005	-104.3381	39.6497	45
CO	Weld	8123	-104.3925	40.5549	37
CO	Elbert	8039	-104.1359	39.2866	3
CO	Park	8093	-105.7172	39.1193	1
CO	Clear Creek	8019	-105.6444	39.6891	3
CO	Adams	8001	-104.3379	39.8736	18
CO	Lincoln	8073	-103.514	38.988	
CO	Grand	8049	-106.1184	40.1026	2
CO	Jefferson	8059	-105.2506	39.5865	51
CO	Hinsdale	8053	-107.3003	37.8213	1
CO	Ouray	8091	-107.7693	38.1555	
CO	Archuleta	8007	-107.0483	37.1936	
CO	Delta	8029	-107.863	38.8613	
CO	Mesa	8077	-108.4665	39.0183	2
CO	Eagle	8037	-106.6953	39.6278	80
CO	Dolores	8033	-108.5172	37.7516	
CO	Montezuma	8083	-108.5968	37.3384	
CO	Routt	8107	-106.9912	40.4851	3
CO	Summit	8117	-106.1163	39.6342	7
CO	Moffat	8081	-108.2073	40.6184	
CO	Larimer	8069	-105.4612	40.6664	32
CO	Jackson	8057	-106.3428	40.6664	
CO	Douglas	8035	-104.9295	39.3297	33
CO	La Plata	8067	-107.8435	37.2866	
CO	Boulder	8013	-105.3575	40.0925	37
CO	Teller	8119	-105.1618	38.8822	
CO	Custer	8027	-105.3674	38.1087	
CO	Pueblo	8101	-104.5128	38.1734	3
CO	Huerfano	8055	-104.9606	37.6847	
CO	Mineral	8079	-106.9241	37.669	
CO	Conejos	8021	-106.1917	37.2007	
CO	Lake	8065	-106.3451	39.202	
CO	Saguache	8109	-106.2815	38.0806	
CO	Fremont	8043	-105.4396	38.473	
CO	Alamosa	8003	-105.7883	37.5729	
CO	Chaffee	8015	-106.1938	38.7466	3
CO	Rio Grande	8105	-106.3832	37.5825	
CO	El Paso	8041	-104.5256	38.8321	51
CO	Costilla	8023	-105.4283	37.2781	
CO	Kiowa	8061	-102.7404	38.4327	
CO	Broomfield	8014	-105.0525	39.954	1
CO	Las Animas	8071	-104.0387	37.3159	
CO	Garfield	8045	-107.9039	39.5993	8
CO	Gilpin	8047	-105.5226	39.8576	
CO	Rio Blanco	8103	-108.2172	39.9798	
CO	Pitkin	8097	-106.9166	39.2171	16
CT	Hartford	9003	-72.7328	41.8064	54
CT	Tolland	9013	-72.3365	41.855	14
CT	Windham	9015	-71.9875	41.8299	1
CT	New Haven	9009	-72.9324	41.4108	29
CT	Litchfield	9005	-73.2453	41.7925	12
CT	New London	9011	-72.1004	41.4893	3
CT	Middlesex	9007	-72.534	41.4624	6
CT	Fairfield	9001	-73.3887	41.2731	208
DC	District of Columbia	11001	-77.0146	38.9093	116
DE	New Castle	10003	-75.6488	39.5811	39
DE	Kent	10001	-75.5688	39.0867	5
DE	Sussex	10005	-75.399	38.6621	12
FL	DeSoto	12027	-81.8093	27.1863	1
FL	St. Lucie	12111	-80.4836	27.3764	3
FL	Hendry	12051	-81.1719	26.5473	
FL	Hardee	12049	-81.8099	27.4927	
FL	Highlands	12055	-81.341	27.3434	1
FL	Osceola	12097	-81.1496	28.0627	24
FL	Polk	12105	-81.6978	27.9489	11
FL	Indian River	12061	-80.6158	27.6929	8
FL	Okeechobee	12093	-80.9015	27.4283	
FL	Glades	12043	-81.2397	26.9605	
FL	Martin	12085	-80.3893	27.0844	2
FL	Mainland Monroe	12087	-81.0326	25.5205	1
FL	Pinellas	12103	-82.722	27.928	38
FL	Sarasota	12115	-82.3219	27.181	17
FL	Sarasota	12115	-82.277	27.0267	17
FL	Broward	12011	-80.4886	26.1519	217
FL	Collier	12021	-81.3393	26.1196	33
FL	Miami-Dade	12086	-80.5682	25.6171	227
FL	Palm Beach	12099	-80.4329	26.623	72
FL	Clay	12019	-81.8579	29.9831	7
FL	Calhoun	12013	-85.1972	30.4061	
FL	Bradford	12007	-82.1689	29.9502	1
FL	Baker	12003	-82.2846	30.331	2
FL	Alachua	12001	-82.3576	29.6749	35
FL	Putnam	12107	-81.7442	29.6086	2
FL	Columbia	12023	-82.6215	30.2243	2
FL	St. Johns	12109	-81.4439	29.9013	16
FL	Gilchrist	12041	-82.8006	29.7259	
FL	Hamilton	12047	-82.9478	30.4964	
FL	Lafayette	12067	-83.1811	29.9855	
FL	Leon	12073	-84.2778	30.4581	5
FL	Suwannee	12121	-82.9915	30.1956	
FL	Union	12125	-82.3714	30.0439	
FL	Madison	12079	-83.47	30.4442	
FL	Marion	12083	-82.0567	29.2103	3
FL	Jackson	12063	-85.2194	30.7956	1
FL	Jackson	12063	-84.9213	30.78	1
FL	Flagler	12035	-81.3145	29.4605	1
FL	Gulf	12045	-85.1435	29.9458	
FL	Holmes	12059	-85.8143	30.8679	
FL	Okaloosa	12091	-86.5964	30.7068	14
FL	Santa Rosa	12113	-87.0172	30.732	4
FL	Escambia	12033	-87.3777	30.7012	4
FL	Gadsden	12039	-84.6137	30.5795	1
FL	Gulf	12045	-85.2283	29.9562	
FL	Franklin	12037	-84.8172	29.8773	
FL	Duval	12031	-81.674	30.3302	39
FL	Nassau	12089	-81.8085	30.6095	2
FL	Walton	12131	-86.1631	30.6598	4
FL	Seminole	12117	-81.2362	28.717	19
FL	Orange	12095	-81.3238	28.5148	33
FL	Sumter	12119	-82.081	28.7046	4
FL	Lake	12069	-81.7113	28.7615	6
FL	Brevard	12009	-80.7436	28.2631	7
FL	Volusia	12127	-81.1912	29.0604	14
FL	Lee	12071	-81.821	26.5786	26
FL	Lee	12071	-81.8902	26.6135	26
FL	Charlotte	12015	-81.894	26.9069	2
FL	Charlotte	12015	-82.108	26.9689	2
FL	Lower Keys in Monroe	12087	-81.5527	24.6514	1
FL	Middle Keys in Monroe	12087	-80.9876	24.7471	1
FL	Upper Keys in Monroe	12087	-80.4175	25.1496	1
FL	Washington	12133	-85.6656	30.6106	
FL	Bay	12005	-85.6151	30.2797	1
FL	Walton	12131	-85.8977	30.5448	4
FL	Pinellas	12103	-82.7303	28.1264	38
FL	Wakulla	12129	-84.4026	30.1703	
FL	Jefferson	12065	-83.8951	30.438	
FL	Taylor	12123	-83.603	30.0477	
FL	Dixie	12029	-83.1583	29.6101	
FL	Levy	12075	-83.0885	29.2827	
FL	Levy	12075	-82.7389	29.3216	
FL	Citrus	12017	-82.467	28.8509	8
FL	Citrus	12017	-82.6088	28.8125	8
FL	Hernando	12053	-82.4209	28.5528	6
FL	Pasco	12101	-82.3911	28.3093	11
FL	Manatee	12081	-82.2978	27.4713	13
FL	Manatee	12081	-82.521	27.5051	13
FL	Hillsborough	12057	-82.3072	27.9306	58
FL	Hillsborough	12057	-82.4146	27.7786	58
FL	Franklin	12037	-84.6607	29.9194	
FL	Liberty	12077	-84.8829	30.2414	
FL	Wakulla	12129	-84.4749	30.0061	
GA	McIntosh	13191	-81.2646	31.5329	
GA	Liberty	13179	-81.2103	31.7093	
GA	Wilkes	13317	-82.7432	33.782	
GA	Wilcox	13315	-83.4322	31.9734	
GA	Whitfield	13313	-84.9673	34.8056	2
GA	White	13311	-83.7472	34.6464	
GA	Wheeler	13309	-82.7246	32.1171	
GA	Webster	13307	-84.551	32.0466	
GA	Wayne	13305	-81.9168	31.5515	
GA	Washington	13303	-82.7959	32.9695	
GA	Warren	13301	-82.6767	33.409	
GA	Ware	13299	-82.4238	31.0534	
GA	Walker	13295	-85.3009	34.7356	
GA	Union	13291	-83.9907	34.8342	
GA	Twiggs	13289	-83.4272	32.6672	1
GA	Turner	13287	-83.6242	31.7164	1
GA	Troup	13285	-85.0283	33.0335	4
GA	Treutlen	13283	-82.5673	32.4039	
GA	Towns	13281	-83.7373	34.9166	
GA	Toombs	13279	-82.3306	32.1206	
GA	Tift	13277	-83.5266	31.4575	2
GA	Thomas	13275	-83.9194	30.8637	
GA	Terrell	13273	-84.4368	31.7768	2
GA	Telfair	13271	-82.9389	31.9298	
GA	Tattnall	13267	-82.0582	32.0458	1
GA	Taliaferro	13265	-82.8787	33.5662	
GA	Talbot	13263	-84.533	32.6995	
GA	Sumter	13261	-84.1971	32.04	2
GA	Stewart	13259	-84.8351	32.0785	
GA	Stephens	13257	-83.2935	34.554	
GA	Spalding	13255	-84.2841	33.2609	2
GA	Screven	13251	-81.6119	32.7507	
GA	Schley	13249	-84.3149	32.262	
GA	Rockdale	13247	-84.0267	33.6545	2
GA	Richmond	13245	-82.0735	33.3596	10
GA	Randolph	13243	-84.7542	31.7626	1
GA	Rabun	13241	-83.4021	34.8818	
GA	Putnam	13237	-83.3728	33.3218	
GA	Pulaski	13235	-83.4764	32.2328	
GA	Polk	13233	-85.1881	34.0018	4
GA	Pike	13231	-84.3892	33.0922	
GA	Pierce	13229	-82.2134	31.3589	
GA	Pickens	13227	-84.4656	34.4643	2
GA	Peach	13225	-83.8268	32.5688	3
GA	Paulding	13223	-84.8672	33.9202	4
GA	Oglethorpe	13221	-83.0806	33.8807	
GA	Oconee	13219	-83.437	33.8349	2
GA	Newton	13217	-83.8503	33.5551	4
GA	Muscogee	13215	-84.877	32.51	2
GA	Dodge	13091	-83.1684	32.1722	
GA	Dooly	13093	-83.7987	32.1572	
GA	Dougherty	13095	-84.2164	31.5333	52
GA	Douglas	13097	-84.7677	33.7015	4
GA	Early	13099	-84.9037	31.3228	2
GA	Echols	13101	-82.8939	30.7101	
GA	Elbert	13105	-82.8403	34.117	
GA	Emanuel	13107	-82.3018	32.5898	
GA	Fannin	13111	-84.3197	34.8641	
GA	Fayette	13113	-84.4941	33.414	9
GA	Floyd	13115	-85.2143	34.2632	9
GA	Forsyth	13117	-84.1253	34.2255	5
GA	Franklin	13119	-83.2292	34.3755	
GA	Gilmer	13123	-84.4554	34.6915	
GA	Glascock	13125	-82.6107	33.2293	
GA	Gordon	13129	-84.8757	34.5034	4
GA	Grady	13131	-84.2344	30.8747	
GA	Greene	13133	-83.1667	33.5788	
GA	Gwinnett	13135	-84.0235	33.9617	27
GA	Habersham	13137	-83.5312	34.631	
GA	Hall	13139	-83.8197	34.3168	9
GA	Hancock	13141	-83.001	33.2703	
GA	Haralson	13143	-85.211	33.7943	
GA	Harris	13145	-84.909	32.736	
GA	Hart	13147	-82.964	34.3511	
GA	Heard	13149	-85.1283	33.297	1
GA	Henry	13151	-84.1554	33.4534	7
GA	Houston	13153	-83.6662	32.459	1
GA	Irwin	13155	-83.2764	31.6023	
GA	Jackson	13157	-83.5663	34.1339	
GA	Clayton	13063	-84.3577	33.5419	13
GA	Jefferson	13163	-82.4181	33.0549	
GA	Murray	13213	-84.7481	34.7885	
GA	Morgan	13211	-83.4924	33.5908	
GA	Montgomery	13209	-82.5338	32.1746	
GA	Monroe	13207	-83.9187	33.0141	1
GA	Mitchell	13205	-84.1942	31.2254	
GA	Miller	13201	-84.7307	31.164	1
GA	Meriwether	13199	-84.6883	33.0407	
GA	Marion	13197	-84.5246	32.3534	
GA	Madison	13195	-83.209	34.1279	
GA	McDuffie	13189	-82.4814	33.4829	
GA	Lumpkin	13187	-84.0031	34.5722	1
GA	Lowndes	13185	-83.2677	30.8339	8
GA	Lincoln	13181	-82.4512	33.7936	1
GA	Laurens	13175	-82.9222	32.4637	2
GA	Lanier	13173	-83.0626	31.038	
GA	Lamar	13171	-84.1394	33.0765	3
GA	Jones	13169	-83.5605	33.0251	
GA	Johnson	13167	-82.6601	32.7015	
GA	Jenkins	13165	-81.9636	32.7925	
GA	Wilkinson	13319	-83.1713	32.8024	
GA	Jeff Davis	13161	-82.637	31.8056	
GA	Upson	13293	-84.2993	32.8812	
GA	Macon	13193	-84.0425	32.3584	
GA	Evans	13109	-81.8868	32.1568	
GA	Lee	13177	-84.141	31.7796	16
GA	Taylor	13269	-84.2504	32.5556	
GA	Brooks	13027	-83.5803	30.842	
GA	Appling	13001	-82.289	31.7493	
GA	Atkinson	13003	-82.88	31.2971	
GA	Bacon	13005	-82.4527	31.5537	
GA	Baker	13007	-84.4447	31.3262	
GA	Baldwin	13009	-83.2498	33.069	2
GA	Banks	13011	-83.4974	34.3541	
GA	Barrow	13013	-83.7126	33.9932	1
GA	Bartow	13015	-84.8405	34.2379	56
GA	Ben Hill	13017	-83.2206	31.7598	
GA	Berrien	13019	-83.2297	31.2761	
GA	Bibb	13021	-83.6979	32.8067	1
GA	Bleckley	13023	-83.3279	32.4344	
GA	Brantley	13025	-81.9819	31.197	
GA	Bulloch	13031	-81.7432	32.3969	
GA	Burke	13033	-82.0008	33.0612	
GA	Butts	13035	-83.9572	33.2891	2
GA	Calhoun	13037	-84.6249	31.5292	
GA	Candler	13043	-82.0737	32.4035	
GA	Carroll	13045	-85.0797	33.5828	16
GA	Catoosa	13047	-85.1381	34.9036	
GA	Chattahoochee	13053	-84.787	32.347	
GA	Chattooga	13055	-85.3454	34.475	1
GA	Cherokee	13057	-84.4764	34.2439	18
GA	Clarke	13059	-83.3675	33.9513	
GA	Worth	13321	-83.851	31.5516	2
GA	Clinch	13065	-82.7063	30.9151	1
GA	Cobb	13067	-84.5767	33.9415	67
GA	Coffee	13069	-82.8493	31.5492	1
GA	Colquitt	13071	-83.7688	31.1884	
GA	Columbia	13073	-82.264	33.5442	3
GA	Cook	13075	-83.4305	31.154	
GA	Coweta	13077	-84.7633	33.3535	9
GA	Crawford	13079	-83.9864	32.7145	
GA	Crisp	13081	-83.7681	31.923	
GA	Dade	13083	-85.5045	34.8546	
GA	Dawson	13085	-84.1704	34.4438	1
GA	DeKalb	13089	-84.2263	33.7715	53
GA	Effingham	13103	-81.3407	32.3675	2
GA	Decatur	13087	-84.7577	30.7994	
GA	Decatur	13087	-84.572	30.8815	
GA	Seminole	13253	-84.8812	30.7935	
GA	Seminole	13253	-84.8681	30.9481	
GA	Charlton	13049	-82.138	30.7818	1
GA	Quitman	13239	-85.0188	31.8674	
GA	Clay	13061	-84.9803	31.6264	10
GA	Liberty	13179	-81.4998	31.8308	
GA	Fulton	13121	-84.4669	33.7903	111
GA	Camden	13039	-81.682	30.9335	
GA	Bryan	13029	-81.4474	32.0175	
GA	Chatham	13051	-81.1416	32.0099	4
GA	Chatham	13051	-81.0394	31.9297	4
GA	Long	13183	-81.746	31.7528	
GA	Glynn	13127	-81.5512	31.2365	4
GA	McIntosh	13191	-81.4149	31.5007	
GA	Walton	13297	-83.7338	33.7816	
GA	Bryan	13029	-81.1919	31.7798	
GA	Jasper	13159	-83.6881	33.3165	
GU	Guam	66010	144.7749	13.4419	
GU	Northern Islands	69085	145.6922	17.9725	
GU	Saipan	69110	145.7523	15.1889	
GU	Rota	69100	145.2127	14.1558	
GU	Tinian	69120	145.6241	15.0014	
HI	Niihau in Kauai	15007	-160.157	21.897	3
HI	Kauai in Kauai	15007	-159.527	22.0614	3
HI	Kahoolawe in Maui	15009	-156.6118	20.5503	9
HI	Lanai in Maui	15009	-156.9299	20.8383	9
HI	Maui in Maui	15009	-156.3396	20.7936	9
HI	Molokai in Maui	15009	-157.0168	21.1363	9
HI	Hawaii in Hawaii	15001	-155.5212	19.6013	3
HI	Oahu in Honolulu	15003	-157.9765	21.4625	41
IA	Clinton	19045	-90.532	41.898	
IA	Crawford	19047	-95.3821	42.0372	
IA	Dallas	19049	-94.0398	41.6849	6
IA	Davis	19051	-92.4097	40.7477	
IA	Decatur	19053	-93.7863	40.7377	
IA	Wright	19197	-93.7352	42.7331	
IA	Winneshiek	19191	-91.8436	43.2906	1
IA	Woodbury	19193	-96.0449	42.3897	1
IA	Worth	19195	-93.2609	43.3774	
IA	Jones	19105	-91.1314	42.1212	
IA	Webster	19187	-94.1818	42.4278	
IA	Winnebago	19189	-93.7342	43.3775	
IA	Scott	19163	-90.6232	41.6371	1
IA	Sac	19161	-95.1055	42.3862	
IA	Ringgold	19159	-94.244	40.7352	
IA	Poweshiek	19157	-92.5315	41.6864	1
IA	Pottawattamie	19155	-95.5423	41.3364	2
IA	Polk	19153	-93.5734	41.6855	10
IA	Pocahontas	19151	-94.6788	42.7341	
IA	Plymouth	19149	-96.2142	42.7378	
IA	Palo Alto	19147	-94.6782	43.082	
IA	Page	19145	-95.1502	40.7391	
IA	Osceola	19143	-95.6237	43.3785	
IA	O'Brien	19141	-95.625	43.0838	
IA	Muscatine	19139	-91.1127	41.4839	2
IA	Montgomery	19137	-95.1563	41.0301	
IA	Monroe	19135	-92.869	41.0297	
IA	Monona	19133	-95.96	42.0516	
IA	Mitchell	19131	-92.7891	43.3564	
IA	Mills	19129	-95.6214	41.0332	
IA	Marshall	19127	-92.9988	42.0358	
IA	Marion	19125	-93.0995	41.3344	
IA	Mahaska	19123	-92.6409	41.3351	
IA	Madison	19121	-94.0155	41.3307	
IA	Lyon	19119	-96.2103	43.3805	
IA	Lucas	19117	-93.3277	41.0293	
IA	Louisa	19115	-91.2597	41.2185	
IA	Linn	19113	-91.5989	42.0789	4
IA	Lee	19111	-91.4792	40.642	
IA	Kossuth	19109	-94.2067	43.2042	1
IA	Keokuk	19107	-92.1787	41.3364	
IA	Johnson	19103	-91.5881	41.6715	32
IA	Jefferson	19101	-91.9489	41.0318	
IA	Jackson	19097	-90.5742	42.1717	
IA	Wayne	19185	-93.3274	40.7395	
IA	Washington	19183	-91.7179	41.3356	3
IA	Warren	19181	-93.5614	41.3343	
IA	Wapello	19179	-92.4095	41.0306	
IA	Van Buren	19177	-91.95	40.7532	
IA	Union	19175	-94.2424	41.0277	
IA	Taylor	19173	-94.6965	40.7374	
IA	Tama	19171	-92.5326	42.0798	3
IA	Story	19169	-93.4651	42.0362	1
IA	Sioux	19167	-96.1779	43.0826	1
IA	Shelby	19165	-95.3103	41.6851	
IA	Iowa	19095	-92.0656	41.6863	
IA	Ida	19093	-95.5136	42.3869	
IA	Humboldt	19091	-94.2073	42.7764	
IA	Howard	19089	-92.3172	43.3568	
IA	Henry	19087	-91.5446	40.9879	1
IA	Harrison	19085	-95.8167	41.6829	3
IA	Hardin	19083	-93.2404	42.3838	
IA	Hancock	19081	-93.7343	43.0819	
IA	Hamilton	19079	-93.7068	42.3838	
IA	Guthrie	19077	-94.501	41.6838	
IA	Grundy	19075	-92.7911	42.402	
IA	Greene	19073	-94.3969	42.0362	
IA	Fremont	19071	-95.6047	40.7456	
IA	Franklin	19069	-93.2624	42.7325	
IA	Floyd	19067	-92.789	43.06	
IA	Fayette	19065	-91.8443	42.8625	1
IA	Emmet	19063	-94.6784	43.3779	
IA	Dubuque	19061	-90.8824	42.4689	4
IA	Dickinson	19059	-95.151	43.3779	
IA	Des Moines	19057	-91.1815	40.9232	
IA	Delaware	19055	-91.3673	42.4711	
IA	Adair	19001	-94.471	41.3307	1
IA	Adams	19003	-94.6992	41.029	
IA	Allamakee	19005	-91.3781	43.2843	5
IA	Appanoose	19007	-92.8687	40.7432	
IA	Audubon	19009	-94.9058	41.6846	
IA	Benton	19011	-92.0657	42.0801	
IA	Black Hawk	19013	-92.3085	42.4701	3
IA	Boone	19015	-93.9318	42.0366	
IA	Bremer	19017	-92.3182	42.7747	
IA	Buchanan	19019	-91.8379	42.4707	
IA	Buena Vista	19021	-95.1513	42.7355	
IA	Butler	19023	-92.7902	42.7316	
IA	Calhoun	19025	-94.6405	42.3852	
IA	Carroll	19027	-94.8607	42.0362	1
IA	Cass	19029	-94.9278	41.3315	
IA	Cedar	19031	-91.1324	41.7723	
IA	Cerro Gordo	19033	-93.2608	43.0815	2
IA	Cherokee	19035	-95.6239	42.7357	
IA	Chickasaw	19037	-92.3176	43.0601	
IA	Clarke	19039	-93.7851	41.029	
IA	Clay	19041	-95.151	43.0826	
IA	Clayton	19043	-91.3414	42.8447	
IA	Jasper	19099	-93.0537	41.686	
ID	Fremont	16043	-111.482	44.2288	
ID	Ada	16001	-116.2411	43.4511	13
ID	Bear Lake	16007	-111.3296	42.2848	
ID	Bonner	16017	-116.601	48.2997	
ID	Boundary	16021	-116.4629	48.7669	
ID	Canyon	16027	-116.7092	43.625	1
ID	Caribou	16029	-111.5622	42.7705	
ID	Clark	16033	-112.3512	44.284	
ID	Gooding	16047	-114.8124	42.9706	
ID	Jerome	16053	-114.2641	42.6898	
ID	Lewis	16061	-116.4262	46.237	
ID	Minidoka	16067	-113.6375	42.8544	
ID	Oneida	16071	-112.5396	42.1949	
ID	Payette	16075	-116.7608	44.0067	
ID	Shoshone	16079	-115.891	47.3516	
ID	Teton	16081	-111.2077	43.7595	2
ID	Lincoln	16063	-114.1395	43.0023	
ID	Jefferson	16051	-112.3113	43.8201	
ID	Valley	16085	-115.5661	44.7667	1
ID	Boise	16015	-115.7301	43.9892	
ID	Owyhee	16073	-116.17	42.5816	
ID	Bingham	16011	-112.3981	43.2165	3
ID	Idaho	16049	-115.4674	45.8442	
ID	Clearwater	16035	-115.6569	46.6737	
ID	Nez Perce	16069	-116.7502	46.3268	
ID	Benewah	16009	-116.6588	47.2176	
ID	Latah	16057	-116.7117	46.8161	
ID	Kootenai	16055	-116.7	47.6746	3
ID	Lemhi	16059	-113.933	44.9433	
ID	Butte	16023	-113.1711	43.7233	
ID	Bonneville	16019	-111.6149	43.3877	
ID	Power	16077	-112.8407	42.6937	
ID	Elmore	16039	-115.4692	43.3539	
ID	Camas	16025	-114.8059	43.4633	
ID	Washington	16087	-116.7848	44.4524	
ID	Gem	16045	-116.3973	44.0617	
ID	Twin Falls	16083	-114.6671	42.356	1
ID	Cassia	16031	-113.6004	42.2839	
ID	Bannock	16005	-112.2246	42.6685	
ID	Blaine	16013	-113.9799	43.4123	21
ID	Madison	16065	-111.6594	43.7842	2
ID	Franklin	16041	-111.8132	42.1811	
ID	Adams	16003	-116.4539	44.8897	
ID	Custer	16037	-114.2816	44.2412	
IL	Jackson	17077	-89.3821	37.7852	1
IL	Jefferson	17081	-88.924	38.3005	
IL	Jersey	17083	-90.3566	39.0856	
IL	Jo Daviess	17085	-90.2123	42.3657	1
IL	Johnson	17087	-88.8809	37.4596	
IL	Kane	17089	-88.4287	41.939	13
IL	Kankakee	17091	-87.8618	41.1377	2
IL	Kendall	17093	-88.4289	41.5906	2
IL	Iroquois	17075	-87.8243	40.7474	
IL	La Salle	17099	-88.8859	41.3439	1
IL	Lawrence	17101	-87.7266	38.72	
IL	Henry	17073	-90.1314	41.3531	
IL	Livingston	17105	-88.5578	40.8914	1
IL	Logan	17107	-89.3676	40.1245	
IL	McDonough	17109	-90.678	40.4562	
IL	McHenry	17111	-88.4524	42.3244	12
IL	McLean	17113	-88.8473	40.4908	7
IL	Macon	17115	-88.9617	39.8599	
IL	Macoupin	17117	-89.9244	39.261	
IL	Madison	17119	-89.9051	38.8299	2
IL	Marion	17121	-88.919	38.6496	
IL	Marshall	17123	-89.3448	41.0332	
IL	Mason	17125	-89.9168	40.2397	
IL	Massac	17127	-88.7078	37.219	
IL	Winnebago	17201	-89.1609	42.3363	5
IL	Woodford	17203	-89.2111	40.7882	2
IL	Grundy	17063	-88.4185	41.285	
IL	Adams	17001	-91.1886	39.9878	1
IL	Alexander	17003	-89.3376	37.1915	
IL	Bond	17005	-89.4356	38.8868	
IL	Boone	17007	-88.8234	42.3231	
IL	Brown	17009	-90.7504	39.9618	
IL	Bureau	17011	-89.5287	41.4041	
IL	Calhoun	17013	-90.6675	39.1692	
IL	Carroll	17015	-89.9345	42.0688	
IL	Cass	17017	-90.2474	39.9736	
IL	Champaign	17019	-88.1991	40.1401	2
IL	Christian	17021	-89.2773	39.5458	1
IL	Clark	17023	-87.7878	39.3335	
IL	Clay	17025	-88.4902	38.7542	
IL	Clinton	17027	-89.4224	38.6065	3
IL	Coles	17029	-88.2218	39.5202	
IL	Crawford	17033	-87.7595	39.0028	
IL	Cumberland	17035	-88.2403	39.2732	1
IL	De Kalb	17037	-88.7704	41.8934	1
IL	De Witt	17039	-88.9041	40.1746	
IL	Douglas	17041	-88.2174	39.7695	
IL	DuPage	17043	-88.0857	41.852	79
IL	Edgar	17045	-87.7456	39.6786	
IL	Edwards	17047	-88.0532	38.4165	
IL	Effingham	17049	-88.5899	39.0597	
IL	Greene	17061	-90.3905	39.3562	
IL	Ford	17053	-88.2233	40.5972	
IL	Menard	17129	-89.8022	40.0274	
IL	Mercer	17131	-90.7414	41.2053	
IL	Monroe	17133	-90.1774	38.2785	
IL	Montgomery	17135	-89.4789	39.231	
IL	Morgan	17137	-90.2015	39.7156	
IL	Moultrie	17139	-88.6194	39.6413	
IL	Ogle	17141	-89.3207	42.0427	
IL	Peoria	17143	-89.76	40.7881	3
IL	Perry	17145	-89.3671	38.0838	
IL	Piatt	17147	-88.5911	40.0104	
IL	Pike	17149	-90.8862	39.6225	
IL	Pope	17151	-88.5615	37.4127	
IL	Pulaski	17153	-89.1267	37.2228	
IL	Putnam	17155	-89.2858	41.2045	
IL	Fayette	17051	-89.0242	39.0002	
IL	Randolph	17157	-89.8253	38.0521	
IL	Richland	17159	-88.085	38.7124	
IL	Rock Island	17161	-90.5674	41.4673	1
IL	St. Clair	17163	-89.9284	38.4703	3
IL	Saline	17165	-88.5408	37.7533	
IL	Sangamon	17167	-89.6589	39.7582	4
IL	Schuyler	17169	-90.6151	40.158	
IL	Scott	17171	-90.4747	39.6442	
IL	Shelby	17173	-88.8055	39.3911	
IL	Stark	17175	-89.7975	41.0934	
IL	Stephenson	17177	-89.6625	42.3517	1
IL	Tazewell	17179	-89.5134	40.5075	
IL	Union	17181	-89.2551	37.4712	
IL	Vermilion	17183	-87.7329	40.1836	
IL	Wabash	17185	-87.8443	38.4461	
IL	Warren	17187	-90.615	40.8488	
IL	Washington	17189	-89.4105	38.3522	1
IL	Wayne	17191	-88.4256	38.4295	
IL	White	17193	-88.1795	38.0875	
IL	Whiteside	17195	-89.9141	41.7564	1
IL	Will	17197	-87.9787	41.445	21
IL	Williamson	17199	-88.9299	37.7303	1
IL	Franklin	17055	-88.9242	37.9923	
IL	Fulton	17057	-90.2075	40.4728	
IL	Gallatin	17059	-88.2305	37.7628	
IL	Henderson	17071	-90.9251	40.8181	
IL	Hardin	17069	-88.2669	37.5182	
IL	Hancock	17067	-91.1647	40.4037	
IL	Hamilton	17065	-88.5391	38.0816	
IL	Lee	17103	-89.3005	41.7461	
IL	Knox	17095	-90.2133	40.9318	
IL	Lake	17097	-88.0036	42.3231	69
IL	Cook	17031	-87.8167	41.8399	805
IL	Jasper	17079	-88.1538	39.01	
IN	Vanderburgh	18163	-87.5857	38.0254	1
IN	Union	18161	-84.9251	39.6255	
IN	Tipton	18159	-86.0519	40.3114	1
IN	Tippecanoe	18157	-86.8941	40.3886	2
IN	Switzerland	18155	-85.037	38.8262	
IN	Sullivan	18153	-87.4146	39.0888	
IN	Steuben	18151	-85.0008	41.6439	
IN	Starke	18149	-86.6478	41.281	
IN	Spencer	18147	-87.0077	38.0142	
IN	Shelby	18145	-85.7918	39.5236	1
IN	Scott	18143	-85.7474	38.6851	1
IN	St. Joseph	18141	-86.2898	41.6167	8
IN	Rush	18139	-85.4658	39.6199	
IN	Washington	18175	-86.1053	38.6	1
IN	Randolph	18135	-85.0114	40.1576	
IN	Putnam	18133	-86.845	39.6663	1
IN	Pulaski	18131	-86.6989	41.0419	
IN	Posey	18129	-87.8684	38.0218	
IN	Porter	18127	-87.0672	41.4605	
IN	Pike	18125	-87.2322	38.3988	
IN	Perry	18123	-86.638	38.0797	
IN	Parke	18121	-87.2063	39.7736	
IN	Owen	18119	-86.8376	39.3129	1
IN	Orange	18117	-86.4951	38.5418	
IN	Ohio	18115	-84.965	38.9501	
IN	Noble	18113	-85.4174	41.3986	1
IN	Newton	18111	-87.3975	40.9559	
IN	Morgan	18109	-86.4462	39.4815	1
IN	Montgomery	18107	-86.8933	40.0404	
IN	Monroe	18105	-86.5231	39.1609	1
IN	Miami	18103	-86.0451	40.7695	1
IN	Martin	18101	-86.8031	38.708	
IN	Warren	18171	-87.3533	40.3469	
IN	Wabash	18169	-85.794	40.8457	
IN	Vigo	18167	-87.39	39.4306	2
IN	Vermillion	18165	-87.464	39.8538	
IN	Marshall	18099	-86.2618	41.325	
IN	Marion	18097	-86.1384	39.7816	82
IN	Madison	18095	-85.7194	40.1617	2
IN	Lawrence	18093	-86.4834	38.8412	
IN	Lagrange	18087	-85.4265	41.6427	
IN	Kosciusko	18085	-85.8607	41.2441	
IN	Knox	18083	-87.418	38.6891	
IN	Johnson	18081	-86.1017	39.4899	12
IN	Jennings	18079	-85.6281	38.9969	1
IN	Jefferson	18077	-85.4385	38.7858	
IN	Jay	18075	-85.0057	40.438	
IN	Jackson	18071	-86.0376	38.9064	
IN	Huntington	18069	-85.4881	40.8291	
IN	Howard	18067	-86.117	40.4836	6
IN	Henry	18065	-85.3964	39.931	
IN	Hendricks	18063	-86.51	39.7695	8
IN	Harrison	18061	-86.1113	38.1952	1
IN	Hancock	18059	-85.7732	39.8235	2
IN	Hamilton	18057	-86.052	40.0725	18
IN	Greene	18055	-86.962	39.0364	0
IN	Grant	18053	-85.6548	40.5158	2
IN	Gibson	18051	-87.5846	38.3118	
IN	Fulton	18049	-86.2636	41.047	
IN	Franklin	18047	-85.0603	39.4148	4
IN	Fountain	18045	-87.2419	40.1209	
IN	Floyd	18043	-85.9068	38.3194	3
IN	Adams	18001	-84.9366	40.7456	1
IN	Allen	18003	-85.0665	41.0908	4
IN	Bartholomew	18005	-85.8977	39.2059	5
IN	Benton	18007	-87.3109	40.6063	
IN	Blackford	18009	-85.3248	40.4735	
IN	Boone	18011	-86.4687	40.0508	3
IN	Brown	18013	-86.2274	39.1962	
IN	Carroll	18015	-86.5635	40.5829	
IN	Cass	18017	-86.346	40.7615	
IN	Clark	18019	-85.7073	38.4773	4
IN	Whitley	18183	-85.5052	41.1394	
IN	Clinton	18023	-86.4752	40.3017	
IN	Crawford	18025	-86.4517	38.2923	
IN	Daviess	18027	-87.0721	38.7024	
IN	Dearborn	18029	-84.9733	39.1453	
IN	Decatur	18031	-85.5013	39.3069	
IN	De Kalb	18033	-84.9991	41.3976	
IN	Delaware	18035	-85.3969	40.2275	2
IN	Dubois	18037	-86.8798	38.3643	1
IN	Elkhart	18039	-85.8587	41.5974	1
IN	Fayette	18041	-85.1787	39.6401	1
IN	Wayne	18177	-85.0099	39.8644	1
IN	Wells	18179	-85.2212	40.7291	1
IN	White	18181	-86.8654	40.7499	
IN	Clay	18021	-87.1158	39.3928	
IN	Warrick	18173	-87.2721	38.0922	
IN	Ripley	18137	-85.2624	39.1034	1
IN	Lake	18089	-87.3817	41.4156	10
IN	La Porte	18091	-86.74	41.546	2
IN	Jasper	18073	-87.1162	41.023	
KS	Grant	20067	-101.308	37.5622	
KS	Washington	20201	-97.0874	39.7842	
KS	Wichita	20203	-101.3474	38.4821	
KS	Wilson	20205	-95.7434	37.5593	
KS	Woodson	20207	-95.7402	37.8867	
KS	Wabaunsee	20197	-96.2049	38.9533	
KS	Wallace	20199	-101.7636	38.9166	
KS	Trego	20195	-99.8729	38.9143	
KS	Thomas	20193	-101.0555	39.3509	
KS	Sumner	20191	-97.4765	37.2373	
KS	Stevens	20189	-101.3121	37.1924	
KS	Stanton	20187	-101.7842	37.563	
KS	Stafford	20185	-98.7175	38.0311	
KS	Smith	20183	-98.7855	39.7851	
KS	Sherman	20181	-101.72	39.3515	
KS	Sheridan	20179	-100.4418	39.3503	
KS	Shawnee	20177	-95.7564	39.0415	
KS	Seward	20175	-100.8513	37.1933	
KS	Sedgwick	20173	-97.4611	37.6848	2
KS	Scott	20171	-100.9069	38.4822	
KS	Saline	20169	-97.65	38.7839	
KS	Russell	20167	-98.7623	38.9149	
KS	Rush	20165	-99.3092	38.5233	
KS	Rooks	20163	-99.3251	39.3502	
KS	Riley	20161	-96.7352	39.2965	1
KS	Rice	20159	-98.2011	38.3471	
KS	Republic	20157	-97.6505	39.8278	
KS	Reno	20155	-98.0861	37.9529	1
KS	Rawlins	20153	-101.0757	39.7852	
KS	Pratt	20151	-98.7396	37.6478	
KS	Pottawatomie	20149	-96.3425	39.379	
KS	Phillips	20147	-99.3469	39.7845	
KS	Pawnee	20145	-99.2368	38.1814	
KS	Ottawa	20143	-97.6503	39.1326	
KS	Osborne	20141	-98.7679	39.3504	
KS	Osage	20139	-95.7269	38.6524	
KS	Norton	20137	-99.9034	39.7844	
KS	Ness	20135	-99.9162	38.4795	
KS	Neosho	20133	-95.3068	37.5586	
KS	Nemaha	20131	-96.0141	39.7835	
KS	Morton	20129	-101.7993	37.1914	
KS	Morris	20127	-96.6499	38.6875	2
KS	Montgomery	20125	-95.7429	37.1925	
KS	Mitchell	20123	-98.2095	39.3933	1
KS	Miami	20121	-94.8381	38.5636	
KS	Meade	20119	-100.3662	37.2383	
KS	Marshall	20117	-96.5229	39.7836	
KS	Marion	20115	-97.0969	38.3588	
KS	McPherson	20113	-97.648	38.3916	
KS	Lyon	20111	-96.1527	38.4563	
KS	Logan	20109	-101.1485	38.9173	
KS	Linn	20107	-94.8429	38.2122	1
KS	Lincoln	20105	-98.2078	39.0453	
KS	Leavenworth	20103	-95.0379	39.1993	4
KS	Lane	20101	-100.4664	38.4814	
KS	Labette	20099	-95.2976	37.1913	
KS	Kiowa	20097	-99.286	37.5582	
KS	Kingman	20095	-98.1364	37.5589	
KS	Kearny	20093	-101.3199	38.0002	
KS	Johnson	20091	-94.8223	38.8838	28
KS	Jewell	20089	-98.2184	39.7847	
KS	Jefferson	20087	-95.3834	39.2358	
KS	Jackson	20085	-95.7937	39.417	1
KS	Hodgeman	20083	-99.8979	38.0875	
KS	Haskell	20081	-100.8712	37.5623	
KS	Harvey	20079	-97.4273	38.0432	
KS	Harper	20077	-98.0755	37.1916	
KS	Hamilton	20075	-101.7913	37.9991	
KS	Greenwood	20073	-96.2327	37.8778	
KS	Greeley	20071	-101.806	38.4805	
KS	Gray	20069	-100.4378	37.7382	
KS	Wyandotte	20209	-94.7646	39.1145	14
KS	Allen	20001	-95.3014	37.8858	
KS	Anderson	20003	-95.2933	38.2143	
KS	Atchison	20005	-95.3129	39.5319	
KS	Barber	20007	-98.6848	37.2289	
KS	Barton	20009	-98.7565	38.479	
KS	Bourbon	20011	-94.8493	37.8552	
KS	Brown	20013	-95.5642	39.8266	
KS	Butler	20015	-96.8391	37.7813	3
KS	Chase	20017	-96.594	38.3021	
KS	Chautauqua	20019	-96.2453	37.1501	
KS	Cherokee	20021	-94.8462	37.1693	1
KS	Cheyenne	20023	-101.7311	39.7858	
KS	Clark	20025	-99.8203	37.2355	
KS	Clay	20027	-97.1651	39.3497	
KS	Cloud	20029	-97.6495	39.4804	
KS	Coffey	20031	-95.7342	38.237	
KS	Comanche	20033	-99.2719	37.1913	
KS	Cowley	20035	-96.8375	37.2378	
KS	Crawford	20037	-94.8518	37.5073	
KS	Decatur	20039	-100.4599	39.7847	
KS	Dickinson	20041	-97.1527	38.8664	
KS	Doniphan	20043	-95.147	39.7885	
KS	Douglas	20045	-95.2924	38.8845	4
KS	Edwards	20047	-99.312	37.8876	
KS	Elk	20049	-96.2441	37.4537	
KS	Ellis	20051	-99.3173	38.9148	
KS	Ellsworth	20053	-98.2048	38.6966	
KS	Finney	20055	-100.7369	38.0444	
KS	Ford	20057	-99.8879	37.6917	
KS	Franklin	20059	-95.2859	38.5646	1
KS	Geary	20061	-96.7526	39.0024	
KS	Gove	20063	-100.4829	38.916	
KS	Graham	20065	-99.8833	39.3497	
KY	Madison	21151	-84.278	37.7202	1
KY	Magoffin	21153	-83.0648	37.7066	
KY	Marion	21155	-85.2696	37.5525	
KY	Marshall	21157	-88.3293	36.8834	
KY	Martin	21159	-82.5132	37.8016	
KY	Mason	21161	-83.824	38.5952	
KY	Meade	21163	-86.2169	37.9695	
KY	Menifee	21165	-83.5989	37.9414	1
KY	Mercer	21167	-84.8744	37.8111	
KY	Metcalfe	21169	-85.6291	36.9905	
KY	Monroe	21171	-85.7164	36.7122	
KY	Montgomery	21173	-83.9132	38.0336	2
KY	Morgan	21175	-83.2589	37.9223	
KY	Muhlenberg	21177	-87.1421	37.2157	
KY	Nelson	21179	-85.4662	37.8051	1
KY	Nicholas	21181	-84.0153	38.3356	
KY	Ohio	21183	-86.849	37.4783	
KY	Oldham	21185	-85.4485	38.3995	1
KY	Owen	21187	-84.828	38.5197	
KY	Owsley	21189	-83.6832	37.4192	
KY	Pendleton	21191	-84.3602	38.6957	
KY	Perry	21193	-83.2215	37.2443	
KY	Pike	21195	-82.3958	37.469	
KY	Powell	21197	-83.8238	37.8312	
KY	Pulaski	21199	-84.5771	37.1039	1
KY	Robertson	21201	-84.0521	38.5188	
KY	Rockcastle	21203	-84.316	37.3652	
KY	Rowan	21205	-83.4211	38.1963	
KY	Russell	21207	-85.0586	36.9911	
KY	Scott	21209	-84.5839	38.2915	
KY	Shelby	21211	-85.1948	38.2155	
KY	Simpson	21213	-86.5823	36.7419	
KY	Spencer	21215	-85.3279	38.0325	1
KY	Taylor	21217	-85.3279	37.3664	
KY	Todd	21219	-87.1791	36.8356	
KY	Trigg	21221	-87.8734	36.8064	
KY	Trimble	21223	-85.3374	38.613	
KY	Union	21225	-87.9453	37.6584	
KY	Warren	21227	-86.4239	36.9936	1
KY	Washington	21229	-85.1747	37.7534	
KY	Wayne	21231	-84.8285	36.8013	
KY	Webster	21233	-87.6832	37.5183	
KY	Whitley	21235	-84.1452	36.7582	
KY	Wolfe	21237	-83.4931	37.7393	
KY	Woodford	21239	-84.7435	38.0423	
KY	Lee	21129	-83.7163	37.5947	
KY	Fulton	21075	-89.1873	36.5541	
KY	Adair	21001	-85.2805	37.1041	
KY	Allen	21003	-86.1904	36.7513	
KY	Anderson	21005	-84.9909	38.004	1
KY	Ballard	21007	-88.9992	37.0584	
KY	Barren	21009	-85.9336	36.9656	
KY	Bath	21011	-83.7428	38.1449	
KY	Bell	21013	-83.674	36.7307	
KY	Boone	21015	-84.7279	38.97	
KY	Bourbon	21017	-84.2171	38.2068	2
KY	Boyd	21019	-82.6877	38.3596	
KY	Boyle	21021	-84.8667	37.6244	
KY	Bracken	21023	-84.0901	38.6888	
KY	Breathitt	21025	-83.3241	37.5216	1
KY	Breckinridge	21027	-86.4293	37.7732	
KY	Bullitt	21029	-85.6959	37.97	
KY	Butler	21031	-86.6816	37.2074	
KY	Caldwell	21033	-87.8679	37.1453	
KY	Calloway	21035	-88.2723	36.6211	1
KY	Campbell	21037	-84.3793	38.9465	
KY	Carlisle	21039	-88.9709	36.8532	
KY	Carroll	21041	-85.1235	38.6679	
KY	Carter	21043	-83.0495	38.3181	
KY	Casey	21045	-84.9283	37.3223	
KY	Christian	21047	-87.4904	36.8941	1
KY	Clark	21049	-84.1475	37.9709	2
KY	Clay	21051	-83.7146	37.1598	
KY	Hopkins	21107	-87.541	37.3088	
KY	Crittenden	21055	-88.0972	37.3527	
KY	Cumberland	21057	-85.3884	36.7866	
KY	Daviess	21059	-87.0873	37.7318	1
KY	Edmonson	21061	-86.2385	37.2087	
KY	Elliott	21063	-83.0976	38.1179	
KY	Estill	21065	-83.9643	37.6924	
KY	Fayette	21067	-84.4588	38.0423	7
KY	Fleming	21069	-83.6967	38.3701	
KY	Floyd	21071	-82.7457	37.5572	
KY	Franklin	21073	-84.877	38.2391	1
KY	Gallatin	21077	-84.8592	38.7569	
KY	Garrard	21079	-84.5376	37.6396	
KY	Grant	21081	-84.6245	38.6488	
KY	Graves	21083	-88.6512	36.723	
KY	Grayson	21085	-86.3439	37.4608	
KY	Green	21087	-85.5531	37.2639	
KY	Greenup	21089	-82.9223	38.5456	
KY	Hancock	21091	-86.778	37.8415	
KY	Hardin	21093	-85.9635	37.6979	1
KY	Harlan	21095	-83.2179	36.857	
KY	Harrison	21097	-84.3315	38.4418	7
KY	Hickman	21105	-88.9761	36.6781	
KY	Henry	21103	-85.1189	38.4484	
KY	Henderson	21101	-87.5729	37.7961	1
KY	Hart	21099	-85.8847	37.2999	
KY	Laurel	21125	-84.1178	37.1107	
KY	Clinton	21053	-85.1361	36.7275	
KY	Jefferson	21111	-85.6595	38.1872	17
KY	Jessamine	21113	-84.5809	37.872	1
KY	Johnson	21115	-82.8314	37.8467	
KY	Kenton	21117	-84.5331	38.9334	1
KY	Knott	21119	-82.954	37.354	
KY	Knox	21121	-83.8539	36.8907	
KY	Larue	21123	-85.698	37.5457	
KY	Jackson	21109	-84.0058	37.4198	
KY	Lawrence	21127	-82.7347	38.0679	
KY	Leslie	21131	-83.3811	37.0941	
KY	Letcher	21133	-82.8553	37.1212	
KY	Lewis	21135	-83.3781	38.5317	
KY	Lincoln	21137	-84.6607	37.4552	
KY	Livingston	21139	-88.3536	37.2097	
KY	Logan	21141	-86.8789	36.8597	
KY	Lyon	21143	-88.0832	37.0191	1
KY	McCracken	21145	-88.7127	37.0539	
KY	McCreary	21147	-84.4841	36.7371	
KY	McLean	21149	-87.2636	37.5291	
LA	St. Mary	22101	-91.4494	29.7196	1
LA	Union	22111	-92.3748	32.8319	
LA	Tensas	22107	-91.34	32.0016	
LA	St. Landry	22097	-92.0058	30.5989	3
LA	St. James	22093	-90.7962	30.0263	1
LA	Sabine	22085	-93.5547	31.564	
LA	Richland	22083	-91.7636	32.4177	
LA	Red River	22081	-93.34	32.0933	
LA	Rapides	22079	-92.5332	31.1986	3
LA	Ouachita	22073	-92.1545	32.4785	4
LA	Natchitoches	22069	-93.0963	31.7236	
LA	Morehouse	22067	-91.8017	32.8205	
LA	Lincoln	22061	-92.6647	32.6016	
LA	La Salle	22059	-92.1604	31.6767	
LA	Lafayette	22055	-92.0639	30.2063	6
LA	Jackson	22049	-92.5577	32.302	
LA	Grant	22043	-92.5594	31.5997	
LA	Franklin	22041	-91.6738	32.1333	
LA	Evangeline	22039	-92.4059	30.729	2
LA	East Carroll	22035	-91.235	32.7325	
LA	De Soto	22031	-93.7373	32.0554	2
LA	Concordia	22029	-91.6397	31.4458	
LA	Claiborne	22027	-92.9957	32.8226	1
LA	Catahoula	22025	-91.8471	31.6661	1
LA	Caldwell	22021	-92.1167	32.0922	
LA	Caddo	22017	-93.8821	32.5797	16
LA	Bossier	22015	-93.6052	32.6795	5
LA	Bienville	22013	-93.056	32.3472	1
LA	Beauregard	22011	-93.3434	30.6485	1
LA	Ascension	22005	-90.9113	30.2035	17
LA	Allen	22003	-92.8279	30.6528	
LA	Acadia	22001	-92.412	30.2906	1
LA	Madison	22065	-91.2427	32.3643	
LA	St. John The Baptist	22095	-90.5462	30.0792	10
LA	Webster	22119	-93.335	32.7135	1
LA	West Baton Rouge	22121	-91.3134	30.4634	3
LA	West Carroll	22123	-91.4567	32.7885	
LA	Winn	22127	-92.6368	31.9442	
LA	Vernon	22115	-93.1842	31.1083	
LA	St. Charles	22089	-90.3631	29.8836	8
LA	St. Helena	22091	-90.7103	30.822	
LA	Pointe Coupee	22077	-91.6009	30.7097	
LA	East Feliciana	22037	-91.0455	30.8451	
LA	East Baton Rouge	22033	-91.0957	30.5383	20
LA	Avoyelles	22009	-92.0013	31.0762	1
LA	Livingston	22063	-90.7393	30.4507	2
LA	West Feliciana	22125	-91.42	30.8798	
LA	Calcasieu	22019	-93.3579	30.2292	4
LA	Jefferson Davis	22053	-92.8138	30.2669	
LA	Iberville	22047	-91.3494	30.2585	2
LA	Vermilion	22113	-92.3241	29.8455	
LA	Iberia	22045	-91.7307	29.8941	2
LA	St. Tammany	22103	-89.9401	30.4481	25
LA	Orleans	22071	-89.9037	30.0385	451
LA	Lafourche	22057	-90.4291	29.5682	12
LA	Jefferson	22051	-90.1174	29.7299	184
LA	Plaquemines	22075	-89.6553	29.4705	5
LA	Assumption	22007	-91.0626	29.9006	1
LA	St. Martin	22099	-91.6083	30.1291	
LA	Terrebonne	22109	-90.8659	29.4206	12
LA	Cameron	22023	-93.1618	29.8717	
LA	Washington	22117	-90.0405	30.8533	2
LA	St. Bernard	22087	-89.6178	29.8628	13
LA	Tangipahoa	22105	-90.4118	30.6453	3
MA	Nantucket	25019	-70.0744	41.2781	
MA	Dukes	25007	-70.6561	41.3966	1
MA	Middlesex	25017	-71.3918	42.4855	199
MA	Worcester	25027	-71.9077	42.3514	37
MA	Berkshire	25003	-73.2064	42.3706	23
MA	Franklin	25011	-72.5919	42.5831	2
MA	Hampshire	25015	-72.6638	42.3401	4
MA	Norfolk	25021	-71.2248	42.155	75
MA	Essex	25009	-70.9581	42.6729	60
MA	Plymouth	25023	-70.8129	41.9547	25
MA	Hampden	25013	-72.6316	42.1351	12
MA	Suffolk	25025	-71.0818	42.3308	126
MA	Barnstable	25001	-70.2982	41.7257	24
MA	Bristol	25005	-71.1153	41.802	24
MD	Garrett	24023	-79.2739	39.5286	
MD	Carroll	24013	-77.0228	39.5631	4
MD	Howard	24027	-76.9315	39.251	24
MD	Allegany	24001	-78.6989	39.6215	
MD	Harford	24025	-76.3194	39.5616	5
MD	Calvert	24009	-76.5696	38.5529	2
MD	Baltimore City	24510	-76.6163	39.3087	24
MD	St. Marys	24037	-76.6076	38.3052	1
MD	Calvert	24009	-76.4805	38.3838	2
MD	Anne Arundel	24003	-76.5279	38.9332	18
MD	St. Marys	24037	-76.6202	38.2729	1
MD	Charles	24017	-76.9899	38.5077	5
MD	Charles	24017	-76.9809	38.393	5
MD	Baltimore City	24510	-76.5758	39.2531	24
MD	Prince Georges	24033	-77.0099	38.7014	40
MD	Talbot	24041	-76.0892	38.7767	1
MD	Talbot	24041	-76.1393	38.7175	1
MD	Kent	24029	-76.1294	39.1885	
MD	Cecil	24015	-75.974	39.5101	1
MD	Queen Anne's	24035	-76.1834	38.989	
MD	Frederick	24021	-77.3981	39.4722	1
MD	Montgomery	24031	-77.2041	39.1363	83
MD	Washington	24043	-77.8142	39.6037	1
MD	Harford	24025	-76.1813	39.5818	5
MD	Baltimore	24005	-76.4054	39.295	28
MD	Prince Georges	24033	-76.8436	38.8313	40
MD	Baltimore	24005	-76.6448	39.4664	28
MD	Anne Arundel	24003	-76.6088	39.0074	18
MD	Worcester	24047	-75.4976	38.1195	2
MD	Worcester	24047	-75.3568	38.2186	2
MD	Somerset	24039	-75.8241	38.091	1
MD	Dorchester	24019	-76.1372	38.5492	
MD	Wicomico	24045	-75.621	38.3734	2
MD	Dorchester	24019	-76.0083	38.4797	
MD	Wicomico	24045	-75.8431	38.252	2
MD	Somerset	24039	-75.7449	38.119	1
MD	Caroline	24011	-75.8317	38.8717	1
MD	Cecil	24015	-75.9384	39.5749	1
MD	Kent	24029	-76.0362	39.2574	
MD	Queen Anne's	24035	-76.0131	39.0738	
ME	Washington	23029	-67.6361	45.0363	
ME	Androscoggin	23001	-70.2045	44.1654	3
ME	Knox	23013	-69.173	44.15	0
ME	Sagadahoc	23023	-69.8613	43.9705	3
ME	Lincoln	23015	-69.5431	44.0752	4
ME	Piscataquis	23021	-69.2835	45.838	
ME	Somerset	23025	-69.9582	45.5138	
ME	Aroostook	23003	-68.5988	46.6588	
ME	Oxford	23017	-70.7555	44.499	4
ME	Penobscot	23019	-68.6494	45.4006	2
ME	York	23031	-70.7156	43.4796	8
ME	Cumberland	23005	-70.4096	43.8487	53
ME	Franklin	23007	-70.444	44.974	
ME	Waldo	23027	-69.1478	44.5037	
ME	Hancock	23009	-68.3531	44.6749	0
ME	Kennebec	23011	-69.7672	44.4093	4
MI	Roscommon	26143	-84.6116	44.3356	1
MI	Saginaw	26145	-84.0532	43.335	2
MI	St. Joseph	26149	-85.5278	41.9145	
MI	Shiawassee	26155	-84.1467	42.9537	
MI	Washtenaw	26161	-83.8384	42.2534	35
MI	Alcona	26001	-83.5938	44.6854	
MI	Wexford	26165	-85.5785	44.3384	1
MI	Iosco	26069	-83.636	44.3559	
MI	Barry	26015	-85.309	42.595	1
MI	Branch	26023	-85.059	41.9161	
MI	Calhoun	26025	-85.0055	42.2466	2
MI	Cass	26027	-85.9936	41.9153	
MI	Clare	26035	-84.8478	43.9879	1
MI	Clinton	26037	-84.6015	42.9436	2
MI	Crawford	26039	-84.6103	44.6836	
MI	Dickinson	26043	-87.8704	46.0091	
MI	Eaton	26045	-84.8384	42.5961	2
MI	Genesee	26049	-83.7067	43.0217	14
MI	Gladwin	26051	-84.3882	43.9906	1
MI	Gratiot	26057	-84.6048	43.2927	
MI	Hillsdale	26059	-84.593	41.8878	
MI	Ingham	26065	-84.3736	42.5971	11
MI	Ionia	26067	-85.0746	42.9451	
MI	Iron	26071	-88.5305	46.2087	
MI	Isabella	26073	-84.8467	43.6406	
MI	Jackson	26075	-84.4233	42.2485	1
MI	Kalamazoo	26077	-85.5311	42.2454	
MI	Kalkaska	26079	-85.0902	44.6846	
MI	Kent	26081	-85.5492	43.0322	20
MI	Lake	26085	-85.8017	43.99	
MI	Lapeer	26087	-83.2218	43.0901	
MI	Lenawee	26091	-84.0664	41.8951	
MI	Livingston	26093	-83.9115	42.603	8
MI	Manistee	26101	-86.0571	44.3332	
MI	Mecosta	26107	-85.3245	43.6409	
MI	Midland	26111	-84.3879	43.6468	5
MI	Missaukee	26113	-85.0947	44.3373	
MI	Montcalm	26117	-85.1524	43.311	1
MI	Montmorency	26119	-84.1273	45.0276	
MI	Newaygo	26123	-85.8009	43.5542	
MI	Oakland	26125	-83.3855	42.6604	277
MI	Ogemaw	26129	-84.1266	44.3349	
MI	Osceola	26133	-85.3252	43.9899	
MI	Oscoda	26135	-84.1297	44.6817	
MI	Otsego	26137	-84.5988	45.0214	1
MI	Leelanau	26089	-85.8123	44.9366	1
MI	Berrien	26021	-86.4123	41.9546	3
MI	Van Buren	26159	-86.0189	42.2513	
MI	Allegan	26005	-85.8884	42.5913	1
MI	Alpena	26007	-83.6277	45.0348	
MI	Sanilac	26151	-82.8201	43.4235	
MI	Macomb	26099	-82.9322	42.6956	140
MI	St. Clair	26147	-82.6823	42.9425	7
MI	Gogebic	26053	-89.6944	46.4089	
MI	Monroe	26115	-83.5373	41.9292	6
MI	Wayne	26163	-83.2865	42.284	477
MI	Keweenaw	26083	-88.4287	47.6104	
MI	Mason	26105	-86.2497	43.9954	
MI	Oceana	26127	-86.2673	43.6407	
MI	Oceana	26127	-86.4212	43.7692	
MI	Muskegon	26121	-86.1481	43.2912	
MI	Muskegon	26121	-86.3219	43.2922	
MI	Ottawa	26139	-86.1799	42.9435	6
MI	Ottawa	26139	-85.9939	42.9601	6
MI	Baraga	26013	-88.3652	46.6626	
MI	Marquette	26103	-87.6415	46.4314	
MI	Cheboygan	26031	-84.4999	45.4468	
MI	Charlevoix	26029	-85.1283	45.302	2
MI	Grand Traverse	26055	-85.559	44.6709	1
MI	Delta	26041	-86.9244	45.9197	
MI	Luce	26095	-85.5443	46.4707	
MI	Mackinac	26097	-85.0921	46.0812	
MI	Schoolcraft	26153	-86.1995	46.1967	
MI	Presque Isle	26141	-83.9173	45.3402	
MI	Menominee	26109	-87.5573	45.5792	
MI	Alger	26003	-86.6018	46.4099	
MI	Ontonagon	26131	-89.315	46.6644	
MI	Houghton	26061	-88.6918	46.8934	
MI	Antrim	26009	-85.1377	45.0003	
MI	Arenac	26011	-83.8948	44.0656	
MI	Bay	26017	-83.9921	43.7072	1
MI	Tuscola	26157	-83.4168	43.4641	1
MI	Huron	26063	-83.0193	43.8333	
MI	Emmet	26047	-84.8905	45.5205	1
MI	Benzie	26019	-86.0158	44.6395	
MI	Mason	26105	-86.4421	43.9392	
MI	Chippewa	26033	-84.5921	46.3031	
MN	Lake of the Woods	27077	-94.9048	48.7718	
MN	Lac qui Parle	27073	-96.1735	44.9955	
MN	Anoka	27003	-93.2464	45.2732	5
MN	Benton	27009	-93.9989	45.6991	1
MN	Brown	27015	-94.7277	44.2421	
MN	St. Louis	27137	-92.4708	47.604	1
MN	Carver	27019	-93.8025	44.8208	7
MN	Chippewa	27023	-95.5666	45.0223	
MN	Chisago	27025	-92.9083	45.5025	1
MN	Cottonwood	27033	-95.1812	44.0071	
MN	Crow Wing	27035	-94.0709	46.4824	
MN	Dakota	27037	-93.0656	44.6718	11
MN	Dodge	27039	-92.862	44.0225	2
MN	Douglas	27041	-95.4535	45.9337	
MN	Faribault	27043	-93.9478	43.6739	
MN	Fillmore	27045	-92.0901	43.674	2
MN	Freeborn	27047	-93.3489	43.6738	
MN	Goodhue	27049	-92.7225	44.4099	
MN	Grant	27051	-96.0121	45.934	
MN	Hennepin	27053	-93.4768	45.0045	57
MN	Houston	27055	-91.4929	43.6714	
MN	Hubbard	27057	-94.9166	47.1087	
MN	Isanti	27059	-93.2952	45.5615	
MN	Jackson	27063	-95.1541	43.6741	1
MN	Kanabec	27065	-93.2935	45.9453	
MN	Kandiyohi	27067	-95.0048	45.1524	
MN	Kittson	27069	-96.7826	48.7766	
MN	Le Sueur	27079	-93.73	44.3714	1
MN	Lincoln	27081	-96.267	44.4126	
MN	Lyon	27083	-95.839	44.4135	
MN	McLeod	27085	-94.2724	44.8235	
MN	Mahnomen	27087	-95.809	47.3252	
MN	Martin	27091	-94.5511	43.6742	8
MN	Meeker	27093	-94.5274	45.1231	
MN	Mille Lacs	27095	-93.6301	45.938	
MN	Morrison	27097	-94.2684	46.0126	
MN	Mower	27099	-92.7525	43.6714	6
MN	Murray	27101	-95.7632	44.0221	
MN	Nicollet	27103	-94.2474	44.35	3
MN	Nobles	27105	-95.7534	43.6742	
MN	Norman	27107	-96.4551	47.3265	
MN	Olmsted	27109	-92.4018	44.0036	14
MN	Pennington	27113	-96.0367	48.0662	
MN	Pine	27115	-92.7414	46.1208	
MN	Pipestone	27117	-96.2586	44.023	
MN	Pope	27121	-95.4445	45.5861	
MN	Ramsey	27123	-93.0994	45.0171	18
MN	Red Lake	27125	-96.0953	47.8717	
MN	Redwood	27127	-95.2539	44.4037	
MN	Renville	27129	-94.9472	44.7268	1
MN	Rice	27131	-93.2966	44.3541	1
MN	Rock	27133	-96.2532	43.6747	
MN	Roseau	27135	-95.8107	48.7751	
MN	Scott	27139	-93.5358	44.6484	3
MN	Sherburne	27141	-93.7745	45.4439	
MN	Sibley	27143	-94.2321	44.5795	
MN	Stearns	27145	-94.613	45.5522	4
MN	Steele	27147	-93.226	44.0223	3
MN	Stevens	27149	-96.0003	45.5861	
MN	Swift	27151	-95.6813	45.2827	
MN	Todd	27153	-94.8976	46.0706	
MN	Traverse	27155	-96.4716	45.7721	
MN	Wabasha	27157	-92.2303	44.2842	1
MN	Wadena	27159	-94.9693	46.5858	
MN	Waseca	27161	-93.5873	44.0221	1
MN	Washington	27163	-92.8839	45.0383	7
MN	Watonwan	27165	-94.6141	43.9783	
MN	Winona	27169	-91.7791	43.9869	
MN	Wright	27171	-93.963	45.1739	3
MN	Yellow Medicine	27173	-95.8683	44.7162	
MN	Big Stone	27011	-96.411	45.4261	
MN	Blue Earth	27013	-94.0671	44.0346	4
MN	Clay	27027	-96.4906	46.8924	2
MN	Koochiching	27071	-93.7834	48.2453	
MN	Lake	27075	-91.4452	47.642	
MN	Cook	27031	-90.5344	47.9027	
MN	Cass	27021	-94.3254	46.9496	
MN	Aitkin	27001	-93.4154	46.6083	
MN	Itasca	27061	-93.632	47.5095	
MN	Otter Tail	27111	-95.7079	46.4088	
MN	Becker	27005	-95.6738	46.9346	
MN	Clearwater	27029	-95.379	47.5776	
MN	Polk	27119	-96.4018	47.7738	
MN	Marshall	27089	-96.3685	48.3581	
MN	Wilkin	27167	-96.4683	46.3571	
MN	Carlton	27017	-92.6771	46.5924	
MN	Beltrami	27007	-94.9377	47.9738	
MO	Barton	29011	-94.3471	37.5023	
MO	Bates	29013	-94.34	38.2573	1
MO	Benton	29015	-93.2879	38.2948	
MO	Bollinger	29017	-90.0259	37.3222	
MO	Boone	29019	-92.3096	38.9907	10
MO	Buchanan	29021	-94.8062	39.6598	
MO	Butler	29023	-90.4065	36.7164	
MO	Caldwell	29025	-93.9828	39.6557	
MO	Callaway	29027	-91.926	38.8355	
MO	Camden	29029	-92.766	38.0271	1
MO	Cape Girardeau	29031	-89.6845	37.3839	
MO	Carroll	29033	-93.5052	39.4268	
MO	Carter	29035	-90.9623	36.9413	
MO	Cass	29037	-94.3548	38.647	6
MO	Cedar	29039	-93.8566	37.7238	
MO	Chariton	29041	-92.9626	39.5145	
MO	Christian	29043	-93.1889	36.9696	1
MO	Clark	29045	-91.7384	40.4104	
MO	Clay	29047	-94.4208	39.3105	
MO	Clinton	29049	-94.4046	39.6018	
MO	Cole	29051	-92.2816	38.5055	4
MO	Cooper	29053	-92.8103	38.8439	
MO	Crawford	29055	-91.304	37.9764	
MO	Daviess	29061	-93.9855	39.9607	
MO	DeKalb	29063	-94.4047	39.8932	
MO	Dent	29065	-91.5079	37.6066	
MO	Douglas	29067	-92.4988	36.9326	
MO	Dunklin	29069	-90.0909	36.2718	1
MO	Franklin	29071	-91.075	38.4112	
MO	Gasconade	29073	-91.5079	38.4409	
MO	Gentry	29075	-94.4099	40.2121	
MO	Greene	29077	-93.342	37.2581	14
MO	Grundy	29079	-93.5653	40.114	
MO	Harrison	29081	-93.9921	40.3547	
MO	Henry	29083	-93.7927	38.3852	1
MO	Hickory	29085	-93.3207	37.9408	
MO	Holt	29087	-95.215	40.0946	
MO	Howard	29089	-92.6958	39.1428	
MO	Howell	29091	-91.8865	36.774	
MO	Iron	29093	-90.7735	37.5552	
MO	Jackson	29095	-94.3461	39.0085	19
MO	Jefferson	29099	-90.5378	38.261	
MO	Johnson	29101	-93.8063	38.7441	1
MO	Knox	29103	-92.1481	40.1282	
MO	Laclede	29105	-92.5903	37.6583	
MO	Lafayette	29107	-93.7855	39.0656	
MO	Barry	29009	-93.8291	36.7099	
MO	Lewis	29111	-91.7222	40.0969	
MO	Lincoln	29113	-90.9602	39.0581	
MO	Linn	29115	-93.1072	39.8702	
MO	Livingston	29117	-93.5483	39.7821	
MO	McDonald	29119	-94.3484	36.6287	
MO	Macon	29121	-92.5646	39.8308	
MO	Madison	29123	-90.345	37.4781	
MO	Maries	29125	-91.9249	38.1616	
MO	Marion	29127	-91.6224	39.806	
MO	Mercer	29129	-93.5685	40.4223	
MO	Miller	29131	-92.4284	38.2145	
MO	Mississippi	29133	-89.2911	36.8281	
MO	Moniteau	29135	-92.583	38.6327	1
MO	Monroe	29137	-92.0007	39.4955	
MO	Montgomery	29139	-91.4702	38.9415	
MO	Morgan	29141	-92.8861	38.4239	
MO	New Madrid	29143	-89.6516	36.5942	
MO	Newton	29145	-94.3392	36.9055	
MO	Nodaway	29147	-94.8834	40.3607	
MO	Oregon	29149	-91.4033	36.6867	
MO	Osage	29151	-91.8618	38.4604	
MO	Ozark	29153	-92.4446	36.6493	
MO	Pemiscot	29155	-89.7858	36.2111	
MO	Perry	29157	-89.8244	37.7071	1
MO	Pettis	29159	-93.2851	38.7283	
MO	Phelps	29161	-91.7924	37.8771	
MO	Pike	29163	-91.1714	39.3438	
MO	Platte	29165	-94.7736	39.3804	
MO	Polk	29167	-93.4005	37.6165	
MO	Pulaski	29169	-92.2076	37.8246	1
MO	Putnam	29171	-93.0161	40.4789	
MO	Ralls	29173	-91.5219	39.5276	
MO	Randolph	29175	-92.4971	39.4402	
MO	Ray	29177	-93.9899	39.3524	
MO	Reynolds	29179	-90.9691	37.3623	
MO	Ripley	29181	-90.8639	36.6528	
MO	St. Charles	29183	-90.6752	38.7819	2
MO	St. Clair	29185	-93.776	38.0371	
MO	Ste. Genevieve	29186	-90.1952	37.894	
MO	St. Francois	29187	-90.4729	37.8104	1
MO	St. Louis	29189	-90.443	38.6407	23
MO	Saline	29195	-93.2022	39.1366	
MO	Schuyler	29197	-92.5209	40.4703	
MO	Scotland	29199	-92.1471	40.4526	
MO	Scott	29201	-89.5686	37.053	1
MO	Shannon	29203	-91.4005	37.1574	
MO	Shelby	29205	-92.0766	39.7978	
MO	Stoddard	29207	-89.9444	36.8555	
MO	Stone	29209	-93.4559	36.7469	
MO	Sullivan	29211	-93.1115	40.2107	
MO	Taney	29213	-93.041	36.6547	
MO	Texas	29215	-91.9651	37.3173	
MO	Vernon	29217	-94.3424	37.8506	
MO	Warren	29219	-91.1607	38.7646	
MO	Washington	29221	-90.8774	37.9617	
MO	Wayne	29223	-90.4614	37.1127	
MO	Webster	29225	-92.8759	37.2809	
MO	Worth	29227	-94.4222	40.4791	
MO	Wright	29229	-92.4687	37.2701	
MO	St. Louis City	29510	-90.245	38.6358	10
MO	Dade	29057	-93.8502	37.432	
MO	Dallas	29059	-93.0236	37.6804	
MO	Adair	29001	-92.6007	40.1906	1
MO	Andrew	29003	-94.8021	39.9834	
MO	Atchison	29005	-95.427	40.4307	
MO	Audrain	29007	-91.8416	39.2158	
MO	Lawrence	29109	-93.8329	37.1063	
MO	Jasper	29097	-94.3406	37.2035	1
MS	Amite	28005	-90.8045	31.1744	
MS	Attala	28007	-89.5817	33.0863	1
MS	Benton	28009	-89.1885	34.8173	
MS	Adams	28001	-91.3531	31.4832	1
MS	Yalobusha	28161	-89.7076	34.0282	
MS	Winston	28159	-89.0344	33.0885	2
MS	Wilkinson	28157	-91.3109	31.161	3
MS	Webster	28155	-89.2848	33.6131	1
MS	Wayne	28153	-88.6958	31.6408	
MS	Washington	28151	-90.9474	33.2836	3
MS	Warren	28149	-90.8521	32.3573	
MS	Walthall	28147	-90.1061	31.1485	2
MS	Union	28145	-89.0038	34.4905	1
MS	Tunica	28143	-90.3755	34.652	2
MS	Tishomingo	28141	-88.2393	34.7404	
MS	Tippah	28139	-88.9089	34.7684	7
MS	Tate	28137	-89.9448	34.6503	1
MS	Tallahatchie	28135	-90.1732	33.9505	
MS	Sunflower	28133	-90.5886	33.6023	2
MS	Stone	28131	-89.1177	30.79	
MS	Smith	28129	-89.5067	32.0177	1
MS	Simpson	28127	-89.9195	31.9132	1
MS	Sharkey	28125	-90.8132	32.8797	
MS	Scott	28123	-89.5376	32.4064	1
MS	Rankin	28121	-89.9457	32.2641	7
MS	Quitman	28119	-90.2891	34.2514	
MS	Prentiss	28117	-88.5201	34.6183	
MS	Pontotoc	28115	-89.0374	34.2254	
MS	Perry	28111	-88.9923	31.172	1
MS	Panola	28107	-89.9505	34.3639	2
MS	Oktibbeha	28105	-88.8793	33.425	2
MS	Noxubee	28103	-88.5698	33.1101	
MS	Newton	28101	-89.1188	32.4002	
MS	Neshoba	28099	-89.1176	32.7535	
MS	Montgomery	28097	-89.6164	33.4941	1
MS	Monroe	28095	-88.4804	33.8923	2
MS	Marshall	28093	-89.5031	34.7623	3
MS	Marion	28091	-89.8224	31.2308	
MS	Coahoma	28027	-90.6027	34.2292	7
MS	Clay	28025	-88.7815	33.6557	1
MS	Clarke	28023	-88.6894	32.0414	
MS	Claiborne	28021	-90.9118	31.9737	
MS	Choctaw	28019	-89.2484	33.3473	
MS	Chickasaw	28017	-88.9479	33.9208	1
MS	Carroll	28015	-89.9202	33.4485	
MS	Calhoun	28013	-89.3364	33.9364	
MS	Bolivar	28011	-90.8804	33.7955	3
MS	Pearl River	28109	-89.5898	30.7686	10
MS	Alcorn	28003	-88.5803	34.8808	
MS	Yazoo	28163	-90.3965	32.7804	1
MS	Madison	28089	-90.0338	32.6347	9
MS	Lowndes	28087	-88.4433	33.4729	4
MS	Lincoln	28085	-90.454	31.5324	4
MS	Leflore	28083	-90.301	33.5505	8
MS	Lee	28081	-88.6804	34.2899	6
MS	Leake	28079	-89.5241	32.7535	1
MS	Lawrence	28077	-90.107	31.5502	2
MS	Lauderdale	28075	-88.6626	32.4043	
MS	Lamar	28073	-89.5087	31.2059	
MS	Lafayette	28071	-89.4849	34.3568	5
MS	Kemper	28069	-88.6412	32.7546	
MS	Jones	28067	-89.1688	31.6226	1
MS	Jefferson Davis	28065	-89.823	31.5696	
MS	Jefferson	28063	-91.0371	31.7342	
MS	Itawamba	28057	-88.3613	34.28	3
MS	Issaquena	28055	-90.9892	32.7414	
MS	Humphreys	28053	-90.5265	33.1287	1
MS	Holmes	28051	-90.0922	33.1235	6
MS	Hinds	28049	-90.4427	32.2667	20
MS	Grenada	28043	-89.802	33.77	2
MS	Greene	28041	-88.6392	31.2142	
MS	George	28039	-88.644	30.8626	1
MS	Franklin	28037	-90.8978	31.4772	3
MS	DeSoto	28033	-89.9918	34.8754	18
MS	Covington	28031	-89.5526	31.6332	
MS	Copiah	28029	-90.4488	31.8692	4
MS	Hancock	28045	-89.4887	30.4164	4
MS	Jackson	28059	-88.6362	30.5459	5
MS	Harrison	28047	-89.1185	30.515	15
MS	Pike	28113	-90.4042	31.1749	3
MS	Jasper	28061	-89.1189	32.0191	
MS	Forrest	28035	-89.2579	31.1889	11
MT	Beaverhead	30001	-112.8988	45.1328	
MT	Blaine	30005	-108.9586	48.4327	
MT	Broadwater	30007	-111.4955	46.3319	1
MT	Carter	30011	-104.5362	45.5168	
MT	Cascade	30013	-111.3472	47.308	3
MT	Chouteau	30015	-110.4352	47.8806	
MT	Custer	30017	-105.5718	46.2527	
MT	Daniels	30019	-105.5485	48.7838	
MT	Dawson	30021	-104.8994	47.2664	
MT	Deer Lodge	30023	-113.0677	46.0608	
MT	Fallon	30025	-104.4174	46.334	
MT	Fergus	30027	-109.2243	47.2636	
MT	Garfield	30033	-106.9928	47.2777	
MT	Hill	30041	-110.1113	48.6282	
MT	Jefferson	30043	-112.0937	46.1485	
MT	Judith Basin	30045	-110.2661	47.0455	
MT	Liberty	30051	-111.0246	48.5617	
MT	McCone	30055	-105.7953	47.6452	
MT	Madison	30057	-111.9203	45.3008	1
MT	Meagher	30059	-110.8856	46.5982	
MT	Mineral	30061	-114.9985	47.1474	
MT	Musselshell	30065	-108.3977	46.4966	
MT	Petroleum	30069	-108.2501	47.1175	
MT	Powder River	30075	-105.6301	45.395	
MT	Prairie	30079	-105.378	46.8605	
MT	Richland	30083	-104.5613	47.7879	
MT	Sheridan	30091	-104.5046	48.7212	
MT	Silver Bow	30093	-112.6567	45.9024	2
MT	Toole	30101	-111.6957	48.6552	
MT	Treasure	30103	-107.2717	46.2115	
MT	Wibaux	30109	-104.249	46.9653	
MT	Yellowstone	30111	-108.2744	45.9372	6
MT	Lincoln	30053	-115.4051	48.5425	
MT	Sweet Grass	30097	-109.941	45.8137	
MT	Stillwater	30095	-109.3948	45.6694	
MT	Powell	30077	-112.9362	46.8566	
MT	Teton	30099	-112.2408	47.8373	
MT	Park	30067	-110.5263	45.4884	
MT	Gallatin	30031	-111.1703	45.5403	10
MT	Missoula	30063	-113.9237	47.0364	4
MT	Granite	30039	-113.4403	46.4045	
MT	Golden Valley	30037	-109.1749	46.3812	
MT	Wheatland	30107	-109.8444	46.4664	
MT	Carbon	30009	-109.0283	45.2273	
MT	Lake	30047	-114.0892	47.6459	0
MT	Sanders	30089	-115.1333	47.6749	
MT	Flathead	30029	-114.0496	48.2951	2
MT	Glacier	30035	-112.995	48.7058	
MT	Pondera	30073	-112.2288	48.2283	
MT	Lewis and Clark	30049	-112.3903	47.1223	3
MT	Ravalli	30081	-114.1207	46.0817	1
MT	Phillips	30071	-107.9133	48.2591	
MT	Big Horn	30003	-107.4897	45.4235	
MT	Rosebud	30087	-106.7308	46.2297	
MT	Roosevelt	30085	-105.0165	48.2946	1
MT	Valley	30105	-106.6675	48.3653	
NC	Hoke	37093	-79.2371	35.0174	1
NC	Alamance	37001	-79.3995	36.044	1
NC	Alexander	37003	-81.1772	35.9211	
NC	Alleghany	37005	-81.1286	36.4915	
NC	Anson	37007	-80.1027	34.9738	
NC	Ashe	37009	-81.501	36.4346	
NC	Avery	37011	-81.9224	36.0766	
NC	Buncombe	37021	-82.5302	35.6112	
NC	Cabarrus	37025	-80.5519	35.3868	4
NC	Caswell	37033	-79.3337	36.3934	
NC	Catawba	37035	-81.2144	35.6626	1
NC	Chatham	37037	-79.2553	35.7027	3
NC	Cherokee	37039	-84.0635	35.1339	
NC	Clay	37043	-83.7502	35.0572	
NC	Cleveland	37045	-81.5554	35.334	0
NC	Cumberland	37051	-78.8273	35.0485	2
NC	Davidson	37057	-80.2127	35.7932	1
NC	Davie	37059	-80.5446	35.9292	1
NC	Durham	37063	-78.8764	36.0359	40
NC	Edgecombe	37065	-77.5971	35.9129	
NC	Forsyth	37067	-80.2563	36.1304	12
NC	Franklin	37069	-78.2857	36.0827	
NC	Gaston	37071	-81.1801	35.2945	3
NC	Graham	37075	-83.8335	35.3502	
NC	Granville	37077	-78.653	36.304	1
NC	Greene	37079	-77.6756	35.4852	
NC	Guilford	37081	-79.789	36.0794	11
NC	Halifax	37083	-77.6519	36.2575	
NC	Haywood	37087	-82.9822	35.5561	
NC	Henderson	37089	-82.4799	35.3362	1
NC	Iredell	37097	-80.8736	35.8072	6
NC	Lee	37105	-79.1716	35.475	1
NC	Lincoln	37109	-81.2239	35.4862	1
NC	Macon	37113	-83.4221	35.1504	
NC	Madison	37115	-82.7057	35.8581	
NC	Mecklenburg	37119	-80.8328	35.2468	66
NC	Mitchell	37121	-82.1634	36.0133	
NC	Montgomery	37123	-79.9054	35.3324	
NC	Moore	37125	-79.4813	35.3107	2
NC	Yadkin	37197	-80.6653	36.1605	
NC	Orange	37135	-79.1205	36.0614	5
NC	Person	37145	-78.9717	36.3901	
NC	Pitt	37147	-77.3748	35.5935	3
NC	Randolph	37151	-79.806	35.7103	
NC	Richmond	37153	-79.748	35.0059	
NC	Robeson	37155	-79.1035	34.6401	
NC	Rockingham	37157	-79.7751	36.3961	
NC	Scotland	37165	-79.4805	34.8411	1
NC	Stanly	37167	-80.2507	35.312	
NC	Stokes	37169	-80.2395	36.4018	
NC	Surry	37171	-80.6882	36.4148	
NC	Swain	37173	-83.4927	35.4867	
NC	Transylvania	37175	-82.7983	35.2022	
NC	Union	37179	-80.5307	34.9884	9
NC	Vance	37181	-78.4083	36.3648	
NC	Wake	37183	-78.6504	35.7901	40
NC	Warren	37185	-78.1069	36.3966	
NC	Watauga	37189	-81.6969	36.2313	2
NC	Wilkes	37193	-81.1638	36.2065	
NC	Wilson	37195	-77.9185	35.7048	3
NC	Yancey	37199	-82.3076	35.8989	
NC	Nash	37127	-77.9864	35.9672	
NC	Rowan	37159	-80.5247	35.6396	2
NC	Johnston	37101	-78.3657	35.5176	3
NC	Lenoir	37107	-77.6416	35.2393	
NC	Wayne	37191	-78.004	35.3638	1
NC	Harnett	37085	-78.8693	35.3687	8
NC	Sampson	37163	-78.3712	34.9915	1
NC	Columbus	37047	-78.655	34.2655	
NC	Dare	37055	-75.8009	35.7715	
NC	Pamlico	37137	-76.7488	35.1407	
NC	Bladen	37017	-78.5632	34.6143	
NC	Jones	37103	-77.3555	35.0222	
NC	Duplin	37061	-77.9333	34.9365	
NC	McDowell	37111	-82.0487	35.6813	
NC	Polk	37149	-82.1696	35.2793	
NC	Rutherford	37161	-81.9202	35.4023	
NC	Jackson	37099	-83.1408	35.2874	
NC	Caldwell	37027	-81.5465	35.953	
NC	Burke	37023	-81.7045	35.7495	
NC	Craven	37049	-77.0969	35.1262	2
NC	Beaufort	37013	-76.8631	35.4947	
NC	Martin	37117	-77.1072	35.8416	
NC	New Hanover	37129	-77.8921	34.1047	3
NC	Brunswick	37019	-78.0599	33.9633	5
NC	New Hanover	37129	-77.8846	34.2422	3
NC	Brunswick	37019	-78.2441	34.0747	5
NC	Carteret	37031	-76.6707	34.8306	2
NC	Onslow	37133	-77.4342	34.7374	1
NC	Pender	37141	-77.907	34.5255	
NC	Pender	37141	-77.6199	34.386	
NC	Hyde	37095	-76.2485	35.5318	
NC	Washington	37187	-76.5767	35.8221	
NC	Tyrrell	37177	-76.2118	35.8161	
NC	Hertford	37091	-76.9837	36.359	
NC	Gates	37073	-76.7011	36.4449	
NC	Northampton	37131	-77.3967	36.4177	
NC	Hertford	37091	-76.7495	36.3111	
NC	Bertie	37015	-76.7246	36.1197	
NC	Chowan	37041	-76.608	36.1507	
NC	Pasquotank	37139	-76.2867	36.2974	1
NC	Bertie	37015	-76.9791	36.0662	
NC	Perquimans	37143	-76.4419	36.2069	
NC	Camden	37029	-76.2101	36.3902	
NC	Currituck	37053	-76.0141	36.4011	
NC	Currituck	37053	-75.9184	36.2197	
NC	Camden	37029	-76.0277	36.2239	
NC	Pasquotank	37139	-76.1331	36.2046	1
NC	Perquimans	37143	-76.3487	36.141	
NC	Chowan	37041	-76.6914	36.1513	
ND	Divide	38023	-103.4873	48.8149	
ND	Eddy	38027	-98.9016	47.7176	
ND	Emmons	38029	-100.2388	46.2851	
ND	Foster	38031	-98.8831	47.4571	
ND	Golden Valley	38033	-103.8467	46.9402	
ND	Grand Forks	38035	-97.457	47.9219	
ND	Grant	38037	-101.6397	46.3583	
ND	Griggs	38039	-98.2371	47.4572	
ND	Hettinger	38041	-102.4603	46.4326	
ND	Kidder	38043	-99.7801	46.9802	
ND	LaMoure	38045	-98.5355	46.4569	
ND	Logan	38047	-99.4775	46.4574	
ND	McHenry	38049	-100.6363	48.2346	
ND	McIntosh	38051	-99.4412	46.1119	
ND	McLean	38055	-101.3219	47.607	
ND	Mercer	38057	-101.8315	47.3092	
ND	Mountrail	38061	-102.3556	48.2013	
ND	Nelson	38063	-98.1921	47.9216	
ND	Oliver	38065	-101.3403	47.1153	
ND	Pembina	38067	-97.5517	48.7672	
ND	Pierce	38069	-99.9718	48.2496	2
ND	Ramsey	38071	-98.7201	48.2689	1
ND	Ransom	38073	-97.6575	46.4561	
ND	Renville	38075	-101.6581	48.7192	
ND	Rolette	38079	-99.8411	48.7724	
ND	Sargent	38081	-97.6306	46.1078	
ND	Sheridan	38083	-100.3456	47.5754	
ND	Slope	38087	-103.4599	46.4472	
ND	Stark	38089	-102.655	46.8107	
ND	Steele	38091	-97.7247	47.4562	
ND	Stutsman	38093	-98.9588	46.9792	
ND	Towner	38095	-99.2459	48.6856	
ND	Traill	38097	-97.1615	47.4542	
ND	Williams	38105	-103.4802	48.3437	
ND	Adams	38001	-102.5285	46.0969	
ND	Barnes	38003	-98.0716	46.9361	
ND	Benson	38005	-99.366	48.0694	
ND	Billings	38007	-103.3764	47.0234	
ND	Bottineau	38009	-100.8335	48.7921	
ND	Bowman	38011	-103.5207	46.1126	
ND	Burke	38013	-102.5182	48.7909	
ND	Burleigh	38015	-100.4688	46.9774	16
ND	Cass	38017	-97.2481	46.933	1
ND	Cavalier	38019	-98.465	48.7721	
ND	Dickey	38021	-98.5045	46.1102	
ND	Ward	38101	-101.5419	48.2218	3
ND	Wells	38103	-99.661	47.5876	
ND	Morton	38059	-101.2811	46.7161	7
ND	McKenzie	38053	-103.3953	47.7402	
ND	Dunn	38025	-102.6183	47.3568	
ND	Sioux	38085	-101.0404	46.1127	
ND	Richland	38077	-96.9483	46.2646	
ND	Walsh	38099	-97.7214	48.3694	
NE	Deuel	31049	-102.3339	41.1116	
NE	Dixon	31051	-96.8678	42.4932	
NE	Dodge	31053	-96.6542	41.5777	
NE	Douglas	31055	-96.1544	41.2953	35
NE	Dundy	31057	-101.6879	40.1762	
NE	Fillmore	31059	-97.5964	40.5247	
NE	Franklin	31061	-98.9527	40.1764	
NE	Frontier	31063	-100.3942	40.5301	
NE	Furnas	31065	-99.9123	40.1765	
NE	Gage	31067	-96.6893	40.2619	
NE	Garden	31069	-102.3354	41.6194	
NE	Garfield	31071	-98.9914	41.9143	
NE	Gosper	31073	-99.8307	40.5148	
NE	Grant	31075	-101.7405	41.915	
NE	Greeley	31077	-98.5212	41.5675	
NE	Hall	31079	-98.5022	40.8725	
NE	Hamilton	31081	-98.0233	40.8735	
NE	Harlan	31083	-99.4046	40.1765	
NE	Hayes	31085	-101.0618	40.5248	
NE	Hitchcock	31087	-101.0422	40.1763	
NE	Holt	31089	-98.7838	42.4557	
NE	Hooker	31091	-101.1353	41.9159	
NE	Howard	31093	-98.5171	41.22	
NE	Jefferson	31095	-97.1426	40.1757	
NE	Johnson	31097	-96.2649	40.3926	
NE	Kearney	31099	-98.948	40.5067	
NE	Keith	31101	-101.6613	41.1988	
NE	Keya Paha	31103	-99.7124	42.8789	
NE	Kimball	31105	-103.715	41.1977	
NE	Knox	31107	-97.8919	42.6369	2
NE	Banner	31007	-103.7104	41.546	
NE	Blaine	31009	-99.9769	41.9128	
NE	Boone	31011	-98.0673	41.7068	
NE	Box Butte	31013	-103.0857	42.2198	
NE	Boyd	31015	-98.7665	42.8997	
NE	Brown	31017	-99.9295	42.43	
NE	Buffalo	31019	-99.075	40.8551	1
NE	Burt	31021	-96.3287	41.8515	
NE	Butler	31023	-97.1306	41.2242	
NE	Cass	31025	-96.1408	40.9098	1
NE	Cedar	31027	-97.2523	42.5993	
NE	Chase	31029	-101.6979	40.5242	
NE	Cheyenne	31033	-102.995	41.2198	
NE	Clay	31035	-98.0512	40.5244	
NE	Colfax	31037	-97.0867	41.5731	
NE	Cuming	31039	-96.7874	41.9164	
NE	Custer	31041	-99.7262	41.3943	
NE	Dakota	31043	-96.5646	42.3911	
NE	Dawes	31045	-103.1355	42.7197	
NE	Dawson	31047	-99.8195	40.8699	0
NE	Lancaster	31109	-96.6878	40.7841	2
NE	Lincoln	31111	-100.7452	41.0478	3
NE	Logan	31113	-100.4829	41.5665	
NE	Loup	31115	-99.4544	41.9138	
NE	McPherson	31117	-101.0605	41.5681	
NE	Madison	31119	-97.6008	41.9167	
NE	Merrick	31121	-98.0376	41.1698	
NE	Morrill	31123	-103.0105	41.716	
NE	Nance	31125	-97.9923	41.3973	
NE	Nemaha	31127	-95.8486	40.3881	1
NE	Nuckolls	31129	-98.0472	40.1764	
NE	Otoe	31131	-96.1348	40.6485	
NE	Pawnee	31133	-96.237	40.1314	
NE	Perkins	31135	-101.6496	40.8509	
NE	Phelps	31137	-99.4145	40.5111	
NE	Pierce	31139	-97.6013	42.2644	
NE	Platte	31141	-97.5198	41.5701	
NE	Polk	31143	-97.5684	41.1869	
NE	Red Willow	31145	-100.4768	40.1758	
NE	Richardson	31147	-95.7167	40.1249	
NE	Rock	31149	-99.45	42.4213	
NE	Saline	31151	-97.1408	40.524	
NE	Sarpy	31153	-96.1119	41.1131	2
NE	Saunders	31155	-96.6373	41.2261	
NE	Scotts Bluff	31157	-103.708	41.8506	
NE	Seward	31159	-97.1395	40.8723	
NE	Sheridan	31161	-102.409	42.5048	
NE	Sherman	31163	-98.9763	41.2205	
NE	York	31185	-97.5971	40.8727	
NE	Thayer	31169	-97.5947	40.1763	
NE	Thomas	31171	-100.5559	41.9135	
NE	Thurston	31173	-96.5441	42.1582	
NE	Valley	31175	-98.9819	41.5673	
NE	Washington	31177	-96.2218	41.5311	
NE	Wayne	31179	-97.1193	42.2092	
NE	Webster	31181	-98.4999	40.1764	
NE	Wheeler	31183	-98.5282	41.9148	
NE	Adams	31001	-98.5012	40.5245	1
NE	Stanton	31167	-97.1939	41.9169	
NE	Arthur	31005	-101.6959	41.5689	
NE	Antelope	31003	-98.0667	42.177	
NE	Sioux	31165	-103.7589	42.4877	
NE	Cherry	31031	-101.1186	42.5449	
NH	Sullivan	33019	-72.2223	43.3612	1
NH	Belknap	33001	-71.4233	43.5188	4
NH	Cheshire	33005	-72.2512	42.9193	1
NH	Strafford	33017	-71.0293	43.2975	3
NH	Merrimack	33013	-71.6802	43.2977	4
NH	Carroll	33003	-71.2028	43.8739	6
NH	Hillsborough	33011	-71.716	42.9153	16
NH	Rockingham	33015	-71.1251	42.9877	28
NH	Coos	33007	-71.3057	44.6893	0
NH	Grafton	33009	-71.8205	43.9409	15
NJ	Hudson	34017	-74.0825	40.7068	126
NJ	Essex	34013	-74.1293	40.69	172
NJ	Hudson	34017	-74.0778	40.7409	126
NJ	Bergen	34003	-73.9344	40.9001	457
NJ	Union	34039	-74.1597	40.6572	124
NJ	Passaic	34031	-74.3003	41.0337	95
NJ	Union	34039	-74.3104	40.66	124
NJ	Bergen	34003	-74.0781	40.9615	457
NJ	Essex	34013	-74.2481	40.7881	172
NJ	Cape May	34009	-74.8072	39.1519	2
NJ	Monmouth	34025	-74.2257	40.259	158
NJ	Atlantic	34001	-74.6766	39.4825	5
NJ	Ocean	34029	-74.2988	39.9092	102
NJ	Salem	34033	-75.3459	39.5873	1
NJ	Cumberland	34011	-75.1099	39.3736	1
NJ	Warren	34041	-74.997	40.8574	9
NJ	Camden	34007	-74.9599	39.8038	22
NJ	Hunterdon	34019	-74.9123	40.5672	16
NJ	Mercer	34021	-74.7014	40.2833	40
NJ	Morris	34027	-74.5445	40.8621	119
NJ	Somerset	34035	-74.6164	40.5637	51
NJ	Sussex	34037	-74.6902	41.1395	12
NJ	Gloucester	34015	-75.1419	39.7173	8
NJ	Middlesex	34023	-74.4113	40.4394	147
NJ	Burlington	34005	-74.6679	39.8774	26
NM	Los Alamos	35028	-106.3072	35.8693	
NM	Sandoval	35043	-106.8659	35.6887	7
NM	Santa Fe	35049	-105.9761	35.5068	10
NM	Rio Arriba	35039	-106.6931	36.5096	
NM	Socorro	35053	-106.9303	34.0072	2
NM	Torrance	35057	-105.8508	34.6405	
NM	Valencia	35061	-106.8091	34.7154	
NM	Bernalillo	35001	-106.6702	35.0515	34
NM	Cibola	35006	-107.9997	34.9126	
NM	Union	35059	-103.471	36.4818	
NM	San Juan	35045	-108.3206	36.5085	1
NM	Lincoln	35027	-105.4592	33.7453	
NM	Catron	35003	-108.4047	33.9153	
NM	Sierra	35051	-107.1925	33.1305	
NM	McKinley	35031	-108.2619	35.5806	2
NM	Taos	35055	-105.6309	36.5783	3
NM	Curry	35009	-103.3468	34.5741	
NM	De Baca	35011	-104.412	34.3424	
NM	Guadalupe	35019	-104.7907	34.8633	
NM	Harding	35021	-103.8199	35.858	
NM	Luna	35029	-107.7497	32.1822	
NM	Quay	35037	-103.5497	35.1043	
NM	Roosevelt	35041	-103.4802	34.0213	
NM	Chaves	35005	-104.467	33.3632	
NM	Lea	35025	-103.4124	32.7922	1
NM	San Miguel	35047	-104.8159	35.4803	1
NM	Colfax	35007	-104.6468	36.6061	
NM	Mora	35033	-104.9446	36.0099	
NM	Otero	35035	-105.7417	32.6132	
NM	Grant	35017	-108.3822	32.739	
NM	Hidalgo	35023	-108.7148	31.9142	
NM	Dona Ana	35013	-106.8328	32.3527	4
NM	Eddy	35015	-104.3043	32.4715	
NV	Churchill	32001	-118.3356	39.5809	
NV	Esmeralda	32009	-117.6324	37.7847	
NV	Humboldt	32013	-118.112	41.4068	
NV	Mineral	32021	-118.4352	38.5388	
NV	Storey	32029	-119.5291	39.4466	
NV	Pershing	32027	-118.4044	40.4404	
NV	Elko	32007	-115.3578	41.1458	
NV	White Pine	32033	-114.9016	39.4422	
NV	Clark	32003	-115.0187	36.2145	126
NV	Douglas	32005	-119.6164	38.9123	
NV	Washoe	32031	-119.6637	40.6639	25
NV	Lyon	32019	-119.189	39.018	
NV	Carson City	32510	-119.7465	39.1507	1
NV	Nye	32023	-116.4732	38.0466	
NV	Lincoln	32017	-114.8775	37.6433	
NV	Eureka	32011	-116.2686	39.9839	
NV	Lander	32015	-117.0379	39.9338	
NY	Yates	36123	-77.1055	42.6335	
NY	Allegany	36003	-78.0276	42.2574	2
NY	Broome	36007	-75.8196	42.1602	3
NY	Cattaraugus	36009	-78.6789	42.2486	
NY	Chemung	36015	-76.76	42.1413	
NY	Chenango	36017	-75.6115	42.4936	3
NY	Cortland	36023	-76.0702	42.595	1
NY	Delaware	36025	-74.9664	42.1982	3
NY	Genesee	36037	-78.1936	43.001	1
NY	Hamilton	36041	-74.4974	43.6611	2
NY	Lewis	36049	-75.4488	43.7847	
NY	Livingston	36051	-77.7754	42.728	2
NY	Madison	36053	-75.6697	42.9129	1
NY	Montgomery	36057	-74.4397	42.9023	3
NY	Onondaga	36067	-76.1946	43.0058	29
NY	Ontario	36069	-77.2998	42.8529	6
NY	Orange	36071	-74.3056	41.4022	247
NY	Otsego	36077	-75.0326	42.6338	
NY	Putnam	36079	-73.7495	41.4267	37
NY	Rockland	36087	-74.0241	41.1529	455
NY	Schoharie	36095	-74.4421	42.5882	1
NY	Schuyler	36097	-76.8752	42.3938	
NY	Seneca	36099	-76.8237	42.781	
NY	Steuben	36101	-77.3838	42.2678	3
NY	Sullivan	36105	-74.7681	41.7164	16
NY	Tioga	36107	-76.3063	42.1703	1
NY	Tompkins	36109	-76.4737	42.452	13
NY	Wyoming	36121	-78.2245	42.7023	2
NY	Richmond	36085	-74.1557	40.5802	
NY	Richmond	36085	-74.1343	40.6435	
NY	Westchester	36119	-73.8998	40.9601	1873
NY	Bronx	36005	-73.8669	40.8527	
NY	New York	36061	-73.9689	40.7786	9045
NY	Bronx	36005	-73.8707	40.825	
NY	Niagara	36063	-78.7427	43.2011	6
NY	Wayne	36117	-77.0292	43.1566	3
NY	Oswego	36075	-76.1412	43.4261	
NY	Orleans	36073	-78.2312	43.2522	
NY	Monroe	36055	-77.6958	43.1464	42
NY	Westchester	36119	-73.7553	41.1643	1873
NY	Washington	36115	-73.4307	43.3137	1
NY	Warren	36113	-73.846	43.561	1
NY	Fulton	36035	-74.4222	43.1139	1
NY	Essex	36031	-73.7727	44.1172	3
NY	Clinton	36019	-73.6781	44.7462	4
NY	Franklin	36033	-74.3038	44.5929	
NY	Cayuga	36011	-76.5543	42.9169	
NY	Oneida	36065	-75.4359	43.2418	5
NY	Herkimer	36043	-74.9626	43.4196	4
NY	Schenectady	36093	-74.0585	42.8182	39
NY	Albany	36001	-73.9735	42.6002	123
NY	Greene	36039	-74.1227	42.2766	2
NY	Ulster	36111	-74.2585	41.8881	26
NY	Dutchess	36027	-73.7428	41.7652	82
NY	Columbia	36021	-73.6318	42.2501	5
NY	Rensselaer	36083	-73.5097	42.7111	26
NY	Saratoga	36091	-73.8639	43.1074	41
NY	St. Lawrence	36089	-75.0625	44.4921	1
NY	Nassau	36059	-73.5885	40.7411	1900
NY	Chautauqua	36013	-79.3664	42.2282	
NY	Suffolk	36103	-72.8573	40.878	1034
NY	Queens	36081	-73.8177	40.7067	
NY	Queens	36081	-73.8481	40.7884	
NY	Kings	36047	-73.9472	40.6447	
NY	Jefferson	36045	-75.9102	44.0409	1
NY	Erie	36029	-78.7308	42.7621	54
NY	New York (Manhattan)	36061	-73.9664	40.7787	9045
OH	Adams	39001	-83.472	38.8457	
OH	Allen	39003	-84.1057	40.7715	
OH	Ashland	39005	-82.2707	40.846	1
OH	Athens	39009	-82.0452	39.3337	
OH	Auglaize	39011	-84.2217	40.5609	
OH	Belmont	39013	-80.9885	40.0158	2
OH	Brown	39015	-83.868	38.9344	
OH	Butler	39017	-84.5755	39.4386	17
OH	Carroll	39019	-81.0897	40.5796	1
OH	Champaign	39021	-83.7696	40.1377	
OH	Clark	39023	-83.7835	39.9168	1
OH	Wyandot	39175	-83.3044	40.8424	
OH	Clinton	39027	-83.8084	39.415	
OH	Columbiana	39029	-80.7775	40.7686	2
OH	Coshocton	39031	-81.92	40.3017	2
OH	Crawford	39033	-82.9197	40.8509	
OH	Darke	39037	-84.6193	40.1333	1
OH	Defiance	39039	-84.4906	41.3239	2
OH	Delaware	39041	-83.0052	40.2785	6
OH	Fairfield	39045	-82.6305	39.7516	
OH	Fayette	39047	-83.4561	39.5599	
OH	Franklin	39049	-83.0093	39.9696	34
OH	Fulton	39051	-84.1301	41.6018	
OH	Gallia	39053	-82.3169	38.8247	1
OH	Greene	39057	-83.8898	39.6915	1
OH	Guernsey	39059	-81.4942	40.0521	
OH	Hamilton	39061	-84.5426	39.1954	19
OH	Hancock	39063	-83.6665	41.0019	1
OH	Hardin	39065	-83.6594	40.6615	
OH	Harrison	39067	-81.0911	40.2938	
OH	Henry	39069	-84.0682	41.3339	
OH	Hocking	39073	-82.4792	39.497	
OH	Holmes	39075	-81.9294	40.5612	
OH	Huron	39077	-82.5984	41.1462	1
OH	Jackson	39079	-82.6184	39.0197	
OH	Jefferson	39081	-80.761	40.385	
OH	Knox	39083	-82.4216	40.3988	
OH	Lawrence	39087	-82.5368	38.5985	
OH	Licking	39089	-82.4835	40.0918	1
OH	Logan	39091	-83.7658	40.3885	
OH	Lorain	39093	-82.1512	41.2955	19
OH	Madison	39097	-83.3999	39.8941	
OH	Mahoning	39099	-80.7753	41.0146	18
OH	Marion	39101	-83.1609	40.5873	1
OH	Medina	39103	-81.8997	41.1176	10
OH	Meigs	39105	-82.0229	39.0821	
OH	Mercer	39107	-84.6293	40.54	
OH	Miami	39109	-84.2289	40.0534	13
OH	Monroe	39111	-81.0829	39.7274	
OH	Montgomery	39113	-84.2906	39.7545	5
OH	Morgan	39115	-81.8527	39.6203	
OH	Morrow	39117	-82.7941	40.524	
OH	Muskingum	39119	-81.9444	39.9654	
OH	Noble	39121	-81.4556	39.766	
OH	Paulding	39125	-84.5801	41.1166	
OH	Perry	39127	-82.2361	39.7371	
OH	Pickaway	39129	-83.0243	39.642	
OH	Pike	39131	-83.0668	39.0774	
OH	Portage	39133	-81.1962	41.1676	1
OH	Preble	39135	-84.6481	39.7416	
OH	Putnam	39137	-84.1317	41.0221	
OH	Richland	39139	-82.5365	40.7747	1
OH	Ross	39141	-83.057	39.3376	
OH	Scioto	39145	-82.9928	38.804	
OH	Seneca	39147	-83.1277	41.1239	
OH	Shelby	39149	-84.2048	40.3315	
OH	Stark	39151	-81.3659	40.8138	10
OH	Summit	39153	-81.5321	41.1259	23
OH	Trumbull	39155	-80.7604	41.3174	3
OH	Tuscarawas	39157	-81.4738	40.441	2
OH	Union	39159	-83.3715	40.2995	1
OH	Van Wert	39161	-84.5861	40.8554	
OH	Vinton	39163	-82.4854	39.251	
OH	Warren	39165	-84.1668	39.4277	3
OH	Washington	39167	-81.4953	39.4553	
OH	Wayne	39169	-81.8883	40.8289	
OH	Williams	39171	-84.5882	41.5603	
OH	Wood	39173	-83.623	41.3617	1
OH	Clermont	39025	-84.1522	39.0476	5
OH	Highland	39071	-83.6009	39.1848	
OH	Lucas	39095	-83.6586	41.62	5
OH	Ottawa	39123	-83.1467	41.5381	
OH	Geauga	39055	-81.1786	41.4995	2
OH	Lake	39085	-81.237	41.6968	6
OH	Sandusky	39143	-83.145	41.3565	
OH	Ashtabula	39007	-80.7485	41.7074	2
OH	Cuyahoga	39035	-81.6587	41.4243	125
OH	Erie	39043	-82.6178	41.3635	1
OK	Blaine	40011	-98.4335	35.8752	
OK	Bryan	40013	-96.26	33.9623	
OK	Caddo	40015	-98.3751	35.1744	
OK	Canadian	40017	-97.9825	35.5425	2
OK	Carter	40019	-97.2858	34.2509	
OK	Cherokee	40021	-94.9997	35.9066	
OK	Choctaw	40023	-95.5521	34.0265	
OK	Cimarron	40025	-102.5178	36.7483	
OK	Cleveland	40027	-97.3271	35.2036	13
OK	Coal	40029	-96.2979	34.5882	
OK	Comanche	40031	-98.4717	34.6621	
OK	Cotton	40033	-98.3721	34.2902	
OK	Craig	40035	-95.2086	36.7617	
OK	Creek	40037	-96.3709	35.9027	
OK	Custer	40039	-99.0015	35.6389	1
OK	Delaware	40041	-94.8027	36.4082	
OK	Dewey	40043	-99.008	35.9877	
OK	Ellis	40045	-99.7546	36.2184	
OK	Garfield	40047	-97.7828	36.379	
OK	Garvin	40049	-97.3093	34.7045	2
OK	Grady	40051	-97.884	35.017	1
OK	Grant	40053	-97.7861	36.7961	
OK	Greer	40055	-99.5609	34.9357	
OK	Harmon	40057	-99.8463	34.7441	
OK	Harper	40059	-99.6673	36.7887	
OK	Haskell	40061	-95.1166	35.2248	
OK	Hughes	40063	-96.2502	35.0484	
OK	Jackson	40065	-99.4148	34.588	1
OK	Jefferson	40067	-97.8359	34.1111	
OK	Johnston	40069	-96.6606	34.3165	
OK	Kay	40071	-97.1439	36.818	4
OK	Kingfisher	40073	-97.9421	35.9454	
OK	Kiowa	40075	-98.9808	34.9163	
OK	Woodward	40153	-99.265	36.4227	
OK	Le Flore	40079	-94.7035	34.9001	
OK	Lincoln	40081	-96.8809	35.703	
OK	Logan	40083	-97.4434	35.9194	1
OK	Love	40085	-97.2442	33.9499	
OK	McClain	40087	-97.4436	35.0087	1
OK	McCurtain	40089	-94.7712	34.115	
OK	McIntosh	40091	-95.6668	35.3737	
OK	Major	40093	-98.536	36.3116	
OK	Marshall	40095	-96.769	34.0245	
OK	Mayes	40097	-95.2309	36.3018	
OK	Murray	40099	-97.0679	34.4823	
OK	Muskogee	40101	-95.3794	35.6161	1
OK	Noble	40103	-97.2306	36.3886	1
OK	Nowata	40105	-95.6174	36.7985	
OK	Okfuskee	40107	-96.3228	35.4655	
OK	Oklahoma	40109	-97.4072	35.5515	26
OK	Okmulgee	40111	-95.9643	35.6467	
OK	Osage	40113	-96.3984	36.6292	
OK	Ottawa	40115	-94.8105	36.8355	
OK	Pawnee	40117	-96.6993	36.3169	3
OK	Payne	40119	-96.9757	36.0773	2
OK	Pittsburg	40121	-95.7484	34.9239	
OK	Pontotoc	40123	-96.6844	34.7281	
OK	Pottawatomie	40125	-96.9483	35.2068	
OK	Pushmataha	40127	-95.3758	34.4162	
OK	Roger Mills	40129	-99.6957	35.6883	
OK	Rogers	40131	-95.6044	36.3716	
OK	Seminole	40133	-96.6156	35.1674	
OK	Sequoyah	40135	-94.7549	35.4953	
OK	Stephens	40137	-97.8514	34.4856	0
OK	Texas	40139	-101.49	36.7479	
OK	Tillman	40141	-98.9242	34.3728	
OK	Tulsa	40143	-95.9414	36.1211	6
OK	Wagoner	40145	-95.5212	35.9609	
OK	Washington	40147	-95.9044	36.7152	2
OK	Washita	40149	-98.9923	35.2904	
OK	Woods	40151	-98.8651	36.7669	
OK	Latimer	40077	-95.2504	34.8761	
OK	Adair	40001	-94.6587	35.8839	
OK	Alfalfa	40003	-98.324	36.731	
OK	Atoka	40005	-96.0378	34.3737	
OK	Beaver	40007	-100.4767	36.7497	
OK	Beckham	40009	-99.682	35.2687	
OR	Harney	41025	-118.9679	43.064	
OR	Baker	41001	-117.6753	44.7092	
OR	Deschutes	41017	-121.2279	43.9149	10
OR	Jefferson	41031	-121.1754	44.6294	
OR	Malheur	41045	-117.6231	43.1934	
OR	Union	41061	-118.009	45.3104	1
OR	Wheeler	41069	-120.0275	44.7261	
OR	Lane	41039	-122.847	43.9386	4
OR	Tillamook	41057	-123.7086	45.463	
OR	Clatsop	41007	-123.6547	45.9895	
OR	Columbia	41009	-123.0881	45.9439	
OR	Washington	41067	-123.0985	45.5601	55
OR	Yamhill	41071	-123.3081	45.2326	6
OR	Marion	41047	-122.5826	44.9035	22
OR	Linn	41043	-122.5342	44.4886	19
OR	Hood River	41027	-121.6512	45.519	
OR	Polk	41053	-123.4134	44.9034	1
OR	Benton	41003	-123.4292	44.4922	4
OR	Jackson	41029	-122.7284	42.4321	2
OR	Josephine	41033	-123.5555	42.3654	1
OR	Klamath	41035	-121.6501	42.6863	1
OR	Crook	41013	-120.3566	44.1422	
OR	Lake	41037	-120.3874	42.7934	
OR	Morrow	41049	-119.5843	45.4188	
OR	Grant	41023	-119.0074	44.4912	1
OR	Wallowa	41063	-117.1811	45.5798	
OR	Umatilla	41059	-118.7369	45.5919	2
OR	Multnomah	41051	-122.4157	45.5469	19
OR	Clackamas	41005	-122.2214	45.1887	12
OR	Gilliam	41021	-120.2109	45.378	
OR	Sherman	41055	-120.6894	45.4052	
OR	Wasco	41065	-121.1682	45.16	
OR	Coos	41011	-124.0594	43.1739	
OR	Lincoln	41041	-123.8668	44.6421	
OR	Douglas	41019	-123.1662	43.2796	1
OR	Curry	41015	-124.1567	42.4578	
PA	Adams	42001	-77.2179	39.8715	5
PA	Allegheny	42003	-79.9812	40.4688	40
PA	Armstrong	42005	-79.4645	40.8125	
PA	Beaver	42007	-80.3493	40.6823	3
PA	Bedford	42009	-78.4902	40.0066	
PA	Blair	42013	-78.3486	40.4813	
PA	Bradford	42015	-76.5157	41.7886	
PA	Butler	42019	-79.913	40.9117	1
PA	Cambria	42021	-78.7136	40.4954	
PA	Cameron	42023	-78.2038	41.4368	
PA	Clarion	42031	-79.421	41.1925	
PA	Clearfield	42033	-78.4741	41.0002	
PA	Columbia	42037	-76.4052	41.0486	1
PA	Crawford	42039	-80.1063	41.6848	
PA	Cumberland	42041	-77.2651	40.1637	11
PA	Dauphin	42043	-76.7793	40.4155	1
PA	Elk	42047	-78.6492	41.4252	
PA	Forest	42053	-79.2361	41.5132	
PA	Franklin	42055	-77.7212	39.9275	1
PA	Fulton	42057	-78.1124	39.9255	
PA	Greene	42059	-80.2229	39.8538	
PA	Huntingdon	42061	-77.9812	40.417	
PA	Indiana	42063	-79.0875	40.6521	
PA	Jefferson	42065	-78.9995	41.1281	
PA	Juniata	42067	-77.402	40.5311	
PA	Lackawanna	42069	-75.6092	41.437	6
PA	Lancaster	42071	-76.2477	40.0424	6
PA	Lawrence	42073	-80.3342	40.9912	
PA	Lebanon	42075	-76.4577	40.3672	3
PA	Luzerne	42079	-75.9889	41.1771	7
PA	McKean	42083	-78.569	41.8078	
PA	Mercer	42085	-80.2577	41.3022	1
PA	Mifflin	42087	-77.6171	40.6104	
PA	Montour	42093	-76.6586	41.028	1
PA	Perry	42099	-77.2622	40.3984	
PA	Pike	42103	-75.0338	41.3321	3
PA	Potter	42105	-77.8958	41.745	1
PA	Schuylkill	42107	-76.216	40.7059	1
PA	Snyder	42109	-77.0701	40.77	
PA	Somerset	42111	-79.0283	39.9725	
PA	Sullivan	42113	-76.5119	41.446	
PA	Susquehanna	42115	-75.8008	41.8214	
PA	Tioga	42117	-77.2543	41.7721	
PA	Union	42119	-77.0621	40.963	
PA	Venango	42121	-79.758	41.401	
PA	Warren	42123	-79.2741	41.8147	
PA	Washington	42125	-80.2482	40.1894	7
PA	Wyoming	42131	-76.0165	41.5184	
PA	York	42133	-76.7265	39.9199	10
PA	Northumberland	42097	-76.7091	40.852	
PA	Fayette	42051	-79.6474	39.9198	1
PA	Westmoreland	42129	-79.4668	40.3107	4
PA	Centre	42027	-77.8196	40.919	1
PA	Lycoming	42081	-77.0645	41.3433	
PA	Wayne	42127	-75.3033	41.6487	2
PA	Erie	42049	-80.0322	41.9917	2
PA	Clinton	42035	-77.6385	41.2341	
PA	Berks	42011	-75.926	40.4164	13
PA	Bucks	42017	-75.1067	40.337	32
PA	Lehigh	42077	-75.5924	40.6129	19
PA	Monroe	42089	-75.3394	41.0582	31
PA	Montgomery	42091	-75.3672	40.2109	87
PA	Philadelphia	42101	-75.1338	40.0076	91
PA	Carbon	42025	-75.7088	40.9183	
PA	Delaware	42045	-75.3991	39.9166	43
PA	Northampton	42095	-75.3074	40.7543	21
PA	Chester	42029	-75.7484	39.9733	23
PR	Anasco	72011	-67.1221	18.287	
PR	Arroyo	72015	-66.0563	17.9982	
PR	Barceloneta	72017	-66.5605	18.4454	
PR	Barranquitas	72019	-66.3099	18.2017	
PR	Bayamon	72021	-66.1684	18.3497	
PR	Caguas	72025	-66.0508	18.2119	
PR	Canovanas	72029	-65.8879	18.3288	
PR	Cayey	72035	-66.1495	18.1029	
PR	Ceiba	72037	-65.6678	18.2526	
PR	Ciales	72039	-66.5164	18.2889	
PR	Cidra	72041	-66.1611	18.1737	
PR	Coamo	72043	-66.3601	18.0972	
PR	Comerio	72045	-66.2219	18.2248	
PR	Corozal	72047	-66.3279	18.3043	
PR	Florida	72054	-66.5601	18.3735	
PR	Guanica	72055	-66.9198	17.9827	
PR	Guayama	72057	-66.1336	18.0077	
PR	Guayanilla	72059	-66.7916	18.0406	
PR	Guaynabo	72061	-66.1145	18.3442	
PR	Gurabo	72063	-65.9791	18.2663	
PR	Hatillo	72065	-66.7964	18.4106	
PR	Hormigueros	72067	-67.114	18.1341	
PR	Mayaguez	72097	-67.337	18.1716	
PR	Naguabo	72103	-65.7542	18.2306	
PR	Jayuya	72073	-66.5885	18.2106	
PR	Juana Diaz	72075	-66.4951	18.0507	
PR	Juncos	72077	-65.9089	18.2236	
PR	Lajas	72079	-67.0404	18.0123	
PR	Lares	72081	-66.8669	18.2689	
PR	Las Piedras	72085	-65.8693	18.1876	
PR	Manati	72091	-66.4902	18.4204	
PR	Maricao	72093	-66.9424	18.1721	
PR	Maunabo	72095	-65.9219	18.018	
PR	Moca	72099	-67.0808	18.3779	
PR	Morovis	72101	-66.4202	18.3171	
PR	Naranjito	72105	-66.2526	18.2884	
PR	Orocovis	72107	-66.4339	18.2149	
PR	Patillas	72109	-66.0122	18.0317	
PR	Penuelas	72111	-66.7211	18.0608	
PR	Ponce	72113	-66.6141	18.0597	
PR	Sabana Grande	72121	-66.9435	18.083	
PR	Salinas	72123	-66.2564	18.0115	
PR	San German	72125	-67.0385	18.1111	
PR	San Juan	72127	-66.0607	18.3864	
PR	San Lorenzo	72129	-65.9764	18.148	
PR	Santa Isabel	72133	-66.3889	17.995	
PR	Trujillo Alto	72139	-65.9992	18.3362	
PR	Utuado	72141	-66.7024	18.271	
PR	Vega Alta	72143	-66.3372	18.4093	
PR	Villalba	72149	-66.4729	18.128	
PR	Yabucoa	72151	-65.8965	18.0706	
PR	Yauco	72153	-66.8586	18.0801	
PR	San Sebastian	72131	-66.9712	18.3288	
PR	Adjuntas	72001	-66.7542	18.1798	
PR	Aguas Buenas	72007	-66.1268	18.2517	
PR	Aibonito	72009	-66.2644	18.1311	
PR	Arecibo	72013	-66.6752	18.4068	
PR	Las Marias	72083	-66.9835	18.2371	
PR	Rincon	72117	-67.2414	18.3374	
PR	Aguadilla	72005	-67.1207	18.4597	
PR	Isabela	72071	-67.0052	18.4499	
PR	Camuy	72027	-66.8602	18.4188	
PR	Dorado	72051	-66.2787	18.4365	
PR	Toa Alta	72135	-66.2464	18.3626	
PR	Aguada	72003	-67.1748	18.3603	
PR	Culebra	72049	-65.2877	18.3159	
PR	Cabo Rojo	72023	-67.1537	18.0415	
PR	Fajardo	72053	-65.6686	18.3176	
PR	Vieques	72147	-65.4414	18.1231	
PR	Carolina	72031	-65.9567	18.3742	
PR	Quebradillas	72115	-66.926	18.4397	
PR	Catano	72033	-66.144	18.4374	
PR	Luquillo	72089	-65.7249	18.3422	
PR	Humacao	72069	-65.8105	18.1452	
PR	Rio Grande	72119	-65.8202	18.3553	
PR	Loiza	72087	-65.9247	18.434	
PR	Toa Baja	72137	-66.2144	18.4312	
PR	Vega Baja	72145	-66.398	18.4284	
RI	Newport	44005	-71.2366	41.556	
RI	Bristol	44001	-71.2842	41.7161	
RI	Providence	44007	-71.5811	41.8724	4
RI	Washington	44009	-71.6234	41.4687	2
RI	Kent	44003	-71.5943	41.6719	
SC	Abbeville	45001	-82.4587	34.2226	1
SC	Allendale	45005	-81.3581	32.9881	
SC	Anderson	45007	-82.6379	34.5191	10
SC	Bamberg	45009	-81.0542	33.2147	
SC	Cherokee	45021	-81.6204	35.0482	
SC	Chester	45023	-81.1595	34.6921	
SC	Chesterfield	45025	-80.1586	34.6398	
SC	Darlington	45031	-79.9577	34.3323	5
SC	Edgefield	45037	-81.9666	33.7723	1
SC	Fairfield	45039	-81.1212	34.3951	1
SC	Greenwood	45047	-82.1259	34.1538	3
SC	Kershaw	45055	-80.5903	34.3388	44
SC	Lancaster	45057	-80.7054	34.6867	5
SC	Laurens	45059	-82.006	34.4836	
SC	Lee	45061	-80.2545	34.1633	1
SC	Lexington	45063	-81.2722	33.9022	12
SC	McCormick	45065	-82.3099	33.8996	
SC	Marlboro	45069	-79.6786	34.602	1
SC	Newberry	45071	-81.6001	34.2898	1
SC	Richland	45079	-80.9031	34.0218	29
SC	Saluda	45081	-81.7269	34.0061	1
SC	Spartanburg	45083	-81.9907	34.9313	2
SC	York	45091	-81.1845	34.9747	4
SC	Union	45087	-81.6194	34.6892	
SC	Aiken	45003	-81.6348	33.5444	1
SC	Dillon	45033	-79.3789	34.3915	1
SC	Marion	45067	-79.3625	34.0801	
SC	Calhoun	45017	-80.7802	33.6749	1
SC	Florence	45041	-79.7028	34.0245	1
SC	Sumter	45085	-80.3823	33.9162	3
SC	Clarendon	45027	-80.2164	33.6658	1
SC	Dorchester	45035	-80.4052	33.0795	1
SC	Orangeburg	45075	-80.8003	33.439	3
SC	Williamsburg	45089	-79.7277	33.6199	
SC	Hampton	45049	-81.1406	32.7763	
SC	Charleston	45019	-80.1831	32.6714	13
SC	Charleston	45019	-79.9439	32.8411	13
SC	Greenville	45045	-82.3708	34.8944	19
SC	Oconee	45073	-83.0659	34.7535	
SC	Pickens	45077	-82.7254	34.8875	1
SC	Berkeley	45015	-79.9508	33.1978	2
SC	Horry	45051	-78.9966	33.9215	11
SC	Colleton	45029	-80.668	32.8655	1
SC	Barnwell	45011	-81.435	33.2661	
SC	Jasper	45053	-81.0321	32.4371	1
SC	Georgetown	45043	-79.2353	33.2834	
SC	Georgetown	45043	-79.3367	33.4408	
SC	Jasper	45053	-80.8545	32.4045	1
SC	Beaufort	45013	-80.6934	32.3568	14
SC	Beaufort	45013	-80.7372	32.3873	14
SD	Hyde	46069	-99.4871	44.5474	
SD	Hutchinson	46067	-97.7546	43.3348	
SD	Hughes	46065	-99.9961	44.389	
SD	Harding	46063	-103.4959	45.5804	
SD	Hanson	46061	-97.7874	43.6748	
SD	Hand	46059	-99.005	44.5478	
SD	Hamlin	46057	-97.1883	44.6737	
SD	Haakon	46055	-101.54	44.2944	
SD	Gregory	46053	-99.1856	43.1924	
SD	Grant	46051	-96.7677	45.172	
SD	Faulk	46049	-99.1453	45.0711	
SD	Edmunds	46045	-99.2155	45.4188	
SD	Douglas	46043	-98.3662	43.3871	
SD	Dewey	46041	-100.8719	45.1566	
SD	Deuel	46039	-96.668	44.76	
SD	Day	46037	-97.6075	45.3672	
SD	Davison	46035	-98.1461	43.675	1
SD	Corson	46031	-101.1969	45.7087	
SD	Codington	46029	-97.1887	44.9778	
SD	Clay	46027	-96.9757	42.9146	
SD	Clark	46025	-97.7295	44.8582	
SD	Charles Mix	46023	-98.5879	43.2079	1
SD	Campbell	46021	-100.0517	45.7711	
SD	Buffalo	46017	-99.205	44.0763	
SD	Brule	46015	-99.081	43.7181	
SD	Brown	46013	-98.3516	45.5898	1
SD	Brookings	46011	-96.7905	44.3697	
SD	Bon Homme	46009	-97.8847	42.9884	1
SD	Bennett	46007	-101.6639	43.1949	
SD	Beadle	46005	-98.2782	44.4145	10
SD	Aurora	46003	-98.5616	43.7182	
SD	Mellette	46095	-100.76	43.5811	
SD	Butte	46019	-103.5081	44.9058	
SD	Jones	46075	-100.6896	43.9604	
SD	Turner	46125	-97.1488	43.3108	
SD	Union	46127	-96.6561	42.8324	
SD	Tripp	46123	-99.884	43.3459	
SD	Todd	46121	-100.7184	43.1934	
SD	Sully	46119	-100.1322	44.7155	
SD	Spink	46115	-98.3463	44.9381	
SD	Oglala Lakota	46102	-102.5516	43.3356	
SD	Sanborn	46111	-98.0914	44.0235	
SD	Roberts	46109	-96.9461	45.6296	
SD	Potter	46107	-99.9573	45.0645	
SD	Perkins	46105	-102.4759	45.4904	
SD	Moody	46101	-96.671	44.0221	
SD	Minnehaha	46099	-96.7914	43.6742	5
SD	Miner	46097	-97.6102	44.022	
SD	Marshall	46091	-97.5986	45.7586	
SD	McPherson	46089	-99.2215	45.7664	
SD	McCook	46087	-97.3684	43.6743	1
SD	Lyman	46085	-99.8474	43.8959	
SD	Lincoln	46083	-96.7219	43.2789	
SD	Lake	46079	-97.1294	44.022	
SD	Kingsbury	46077	-97.4915	44.3696	
SD	Jerauld	46073	-98.6298	44.0664	
SD	Jackson	46071	-101.6281	43.6943	
SD	Walworth	46129	-100.0316	45.4299	
SD	Yankton	46135	-97.3947	43.009	
SD	Ziebach	46137	-101.666	44.9806	
SD	Stanley	46117	-100.7359	44.4123	
SD	Meade	46093	-102.7168	44.5668	
SD	Pennington	46103	-102.8238	44.0037	1
SD	Lawrence	46081	-103.7922	44.3586	
SD	Custer	46033	-103.4515	43.6776	
SD	Fall River	46047	-103.5276	43.2394	
TN	Overton	47133	-85.2881	36.345	
TN	Perry	47135	-87.859	35.6426	1
TN	Pickett	47137	-85.0748	36.5585	
TN	Putnam	47141	-85.4951	36.1408	6
TN	Rhea	47143	-84.9244	35.6087	
TN	Roane	47145	-84.5233	35.8478	1
TN	Robertson	47147	-86.8705	36.5254	3
TN	Rutherford	47149	-86.4167	35.8427	8
TN	Scott	47151	-84.5035	36.4286	2
TN	Sequatchie	47153	-85.4106	35.3712	
TN	Shelby	47157	-89.8956	35.1837	66
TN	Smith	47159	-85.9567	36.2505	
TN	Stewart	47161	-87.8385	36.5012	
TN	Sullivan	47163	-82.3042	36.5129	1
TN	Sumner	47165	-86.4603	36.4694	22
TN	Trousdale	47169	-86.1567	36.3921	
TN	Unicoi	47171	-82.4322	36.1108	
TN	Union	47173	-83.8375	36.2879	
TN	Van Buren	47175	-85.4525	35.696	
TN	Warren	47177	-85.7785	35.6787	
TN	Washington	47179	-82.4974	36.2933	2
TN	Wayne	47181	-87.788	35.2399	
TN	Weakley	47183	-88.7178	36.2983	
TN	Williamson	47187	-86.8986	35.8938	48
TN	Wilson	47189	-86.2976	36.1549	2
TN	White	47185	-85.4553	35.9264	
TN	Dickson	47043	-87.3567	36.1491	4
TN	Loudon	47105	-84.3116	35.735	1
TN	Anderson	47001	-84.1985	36.1184	1
TN	Bedford	47003	-86.4589	35.5138	
TN	Benton	47005	-88.0683	36.0698	
TN	Bledsoe	47007	-85.2051	35.5964	
TN	Bradley	47011	-84.8596	35.1541	2
TN	Campbell	47013	-84.1493	36.4036	2
TN	Cannon	47015	-86.0617	35.8087	
TN	Carroll	47017	-88.4503	35.9731	2
TN	Cheatham	47021	-87.0868	36.2612	4
TN	Chester	47023	-88.6128	35.4211	1
TN	Claiborne	47025	-83.6603	36.4859	
TN	Clay	47027	-85.5438	36.5511	
TN	Coffee	47031	-86.0748	35.4906	
TN	Crockett	47033	-89.1395	35.8135	
TN	Cumberland	47035	-84.9983	35.9504	2
TN	Davidson	47037	-86.7848	36.1694	167
TN	Decatur	47039	-88.1088	35.603	
TN	De Kalb	47041	-85.8328	35.9798	
TN	Dyer	47045	-89.4138	36.059	2
TN	Fayette	47047	-89.4144	35.1971	3
TN	Fentress	47049	-84.9324	36.3805	
TN	Franklin	47051	-86.0922	35.1549	1
TN	Gibson	47053	-88.9326	35.9966	1
TN	Giles	47055	-87.0348	35.2022	
TN	Grainger	47057	-83.5096	36.2762	
TN	Grundy	47061	-85.7226	35.3884	
TN	Hamblen	47063	-83.2666	36.2172	2
TN	Hamilton	47065	-85.1648	35.1809	8
TN	Hancock	47067	-83.2219	36.5236	
TN	Hardeman	47069	-88.9931	35.2069	
TN	Hardin	47071	-88.1845	35.1987	
TN	Hawkins	47073	-82.9447	36.4412	
TN	Haywood	47075	-89.2838	35.5832	
TN	Henderson	47077	-88.388	35.6543	
TN	Henry	47079	-88.3013	36.3317	
TN	Hickman	47081	-87.4733	35.8033	
TN	Houston	47083	-87.7171	36.286	1
TN	Humphreys	47085	-87.7757	36.0408	
TN	Jackson	47087	-85.6732	36.3592	
TN	Jefferson	47089	-83.4463	36.051	2
TN	Johnson	47091	-81.8518	36.4549	
TN	Knox	47093	-83.9371	35.9932	5
TN	Lake	47095	-89.4935	36.3352	
TN	Lauderdale	47097	-89.6314	35.7609	
TN	Lawrence	47099	-87.3956	35.2173	
TN	Lewis	47101	-87.4931	35.5273	
TN	Lincoln	47103	-86.5889	35.1405	
TN	McMinn	47107	-84.6175	35.4248	1
TN	McNairy	47109	-88.5637	35.1746	
TN	Macon	47111	-86.0072	36.532	
TN	Madison	47113	-88.8385	35.6082	
TN	Marion	47115	-85.622	35.1294	1
TN	Marshall	47117	-86.765	35.4689	
TN	Tipton	47167	-89.7594	35.4966	5
TN	Moore	47127	-86.3588	35.2847	
TN	Montgomery	47125	-87.3828	36.4969	3
TN	Meigs	47121	-84.8135	35.5127	
TN	Maury	47119	-87.077	35.617	2
TN	Obion	47131	-89.1488	36.3582	
TN	Morgan	47129	-84.6491	36.135	
TN	Monroe	47123	-84.2528	35.4428	3
TN	Cocke	47029	-83.1211	35.9254	1
TN	Sevier	47155	-83.5242	35.7847	1
TN	Carter	47019	-82.1274	36.2927	
TN	Greene	47059	-82.8458	36.1754	2
TN	Blount	47009	-83.9255	35.6873	1
TN	Polk	47139	-84.5233	35.1199	
TX	Dimmit	48127	-99.7567	28.4225	
TX	Duval	48131	-98.5089	27.6813	
TX	Hidalgo	48215	-98.1811	26.3968	
TX	Jim Hogg	48247	-98.6973	27.0434	
TX	Jim Wells	48249	-98.0902	27.7311	
TX	La Salle	48283	-99.0997	28.3451	
TX	McMullen	48311	-98.5674	28.3491	
TX	Starr	48427	-98.7384	26.5621	
TX	Webb	48479	-99.3316	27.7611	4
TX	Zapata	48505	-99.1686	27.0007	
TX	Brooks	48047	-98.2187	27.0316	
TX	Bee	48025	-97.7412	28.4174	
TX	Cameron	48061	-97.5292	26.1293	6
TX	Kleberg	48273	-97.7344	27.4338	
TX	Nueces	48355	-97.6289	27.7232	1
TX	Crockett	48105	-101.4121	30.723	
TX	Crosby	48107	-101.3	33.6146	
TX	Dallam	48111	-102.6022	36.2779	
TX	Dallas	48113	-96.7779	32.7666	74
TX	Dawson	48115	-101.9477	32.7425	
TX	Deaf Smith	48117	-102.6049	34.966	1
TX	Delta	48119	-95.6723	33.3863	
TX	Denton	48121	-97.1171	33.2043	12
TX	DeWitt	48123	-97.3568	29.0821	1
TX	Dickens	48125	-100.7789	33.6166	
TX	Donley	48129	-100.814	34.9654	
TX	Eastland	48133	-98.8323	32.3271	
TX	Ector	48135	-102.5428	31.8692	
TX	Edwards	48137	-100.3047	29.9826	
TX	Ellis	48139	-96.7945	32.3484	3
TX	Erath	48143	-98.218	32.2363	
TX	Falls	48145	-96.9358	31.2533	
TX	Fannin	48147	-96.1066	33.5939	1
TX	Fayette	48149	-96.9198	29.8768	
TX	Fisher	48151	-100.4022	32.7428	
TX	Floyd	48153	-101.3032	34.0724	
TX	Foard	48155	-99.778	33.9746	
TX	Fort Bend	48157	-95.7707	29.5274	11
TX	Franklin	48159	-95.2184	33.1756	
TX	Freestone	48161	-96.149	31.7049	
TX	Gaines	48165	-102.6352	32.7407	
TX	Garza	48169	-101.2984	33.1799	
TX	Gillespie	48171	-98.9464	30.3181	
TX	Glasscock	48173	-101.5208	31.8694	
TX	Gonzales	48177	-97.4925	29.4567	
TX	Gray	48179	-100.8126	35.4012	
TX	Grayson	48181	-96.6776	33.6268	
TX	Gregg	48183	-94.8172	32.4803	1
TX	Grimes	48185	-95.9855	30.5436	
TX	Guadalupe	48187	-97.9484	29.5831	
TX	Hale	48189	-101.8269	34.0705	
TX	Hall	48191	-100.6811	34.5308	
TX	Hamilton	48193	-98.1107	31.7048	
TX	Hansford	48195	-101.3545	36.2775	
TX	Hardeman	48197	-99.7457	34.2903	
TX	Hardin	48199	-94.3902	30.3324	
TX	Harrison	48203	-94.3713	32.5482	
TX	Hartley	48205	-102.6029	35.84	
